t_sec,speed_kmh,lat,lon,alt,vert_acc,horiz_acc,course,difcourse,hdop,vdop,pdop,active,acc_x,acc_y,acc_z,acc_x_kf,acc_y_kf,acc_z_kf,roll,pitch,yaw,x_lane,phi,road_width,lane_state,dist_front,ttc_front,num_vehicles,gps_speed,max_speed,speed_rel,road_type_osm,num_lanes,lane_id,lat_osm,lon_osm,osm_delay,gps_speed_osm,driver,behavior,road_type
25,76.8,40.505848,-3.357232,605.3,3,5,274.6,1.055,0,0,0,1.0,-0.005300000000000001,0.0124,0.022,-0.0127,0.012,0.023,-1.6710999999999998,0.028100000000000003,-1.0946,0.01873076923076923,-0.01003846153846154,4.0669615384615385,1.0769230769230769,16.155,0.32749999999999996,2.0,72.4,90.0,1,motorway_link,2,1,40.505798,-3.356529,2.13,72.4,D2,Normal,motor
27,84.2,40.505886,-3.357765,606.3,3,5,274.2,0.352,1,0,0,1.0,-0.0108,0.027100000000000003,-0.0010000000000000002,-0.0174,0.023799999999999998,0.003,-1.6795000000000002,0.0063,-1.0894,-0.644,-0.028772727272727273,4.401636363636364,2.0,-1.0,-1.0,1.0,80.08000000000001,120.0,1,motorway,4,1,40.505848,-3.357232,1.745,80.9,D2,Normal,motor
28,87.9,40.505905,-3.35805,605.9,3,5,275.6,1.406,2,0,0,1.0,-0.0028000000000000004,0.0195,-0.0686,-0.007899999999999999,0.0242,-0.0616,-1.6597000000000002,0.0016,-1.0969,-0.8402692307692308,0.02523076923076923,4.044576923076923,2.0,-1.0,-1.0,1.0,83.54,120.0,1,motorway,4,1,40.505886,-3.357765,0.851,84.2,D2,Normal,motor
30,87.0,40.505932,-3.358337,605.6,3,5,276.0,1.758,2,0,0,1.0,-0.020399999999999998,-0.034499999999999996,0.022,-0.0182,-0.027000000000000003,0.018099999999999998,-1.5864,-0.0033,-1.0993,-0.590047619047619,0.10804761904761906,3.240666666666667,2.0,-1.0,-1.0,1.0,87.17999999999999,120.0,1,motorway,4,1,40.505905,-3.35805,1.912,87.0,D2,Normal,motor
30,88.7,40.505947,-3.358623,605.2,3,5,276.0,0.352,1,0,0,1.0,-0.020399999999999998,-0.034499999999999996,0.022,-0.0182,-0.027000000000000003,0.018099999999999998,-1.5864,-0.0033,-1.0993,-0.590047619047619,0.10804761904761906,3.240666666666667,2.0,-1.0,-1.0,1.0,87.17999999999999,120.0,1,motorway,4,1,40.505905,-3.35805,1.912,87.0,D2,Normal,motor
32,89.6,40.505978,-3.359208,604.5,3,5,273.9,2.109,0,3,0,1.0,-0.010666666666666666,-0.012555555555555556,-0.051000000000000004,-0.012222222222222223,-0.015111111111111112,-0.05233333333333333,-1.5793333333333335,0.022555555555555558,-1.0605555555555555,-0.19210526315789472,0.04963157894736842,2.4031052631578946,1.9473684210526316,-1.0,-1.0,1.4,90.3,120.0,1,motorway,3,1,40.505947,-3.358624,1.741,90.7,D2,Normal,motor
34,86.6,40.505997,-3.35979,605.0,3,5,270.7,3.164,0,3,0,1.0,-0.0038,-0.0214,-0.0147,-0.0052,-0.0219,-0.016900000000000002,-1.5292999999999999,0.0434,-1.0145,0.01838095238095238,0.11280952380952382,2.3901904761904764,2.0,-1.0,-1.0,1.0,89.1,120.0,1,motorway,3,1,40.505978,-3.359208,1.299,89.1,D2,Normal,motor
36,85.9,40.505997,-3.360076,605.1,3,5,268.9,3.867,0,2,0,1.0,-0.028699999999999996,0.023899999999999998,-0.0029000000000000002,-0.029199999999999997,0.0217,-0.0016,-1.5558,0.0407,-0.952,-0.1618076923076923,-0.0014615384615384612,2.4273461538461536,1.9615384615384615,72.98,2.815,1.75,85.9,120.0,1,motorway,3,1,40.505989,-3.359499,1.745,85.9,D2,Normal,motor
37,84.0,40.50597,-3.360651,605.5,3,5,267.2,1.758,1,2,0,1.0,-0.0198,0.022399999999999996,-0.015,-0.0243,0.0247,-0.0159,-1.5527,0.0191,-0.9382999999999999,-0.30114285714285716,0.019238095238095238,2.4526190476190477,1.9523809523809523,97.33200000000001,4.1,2.0,85.5,120.0,1,motorway,3,1,40.505997,-3.360076,0.96,84.0,D2,Normal,motor
38,82.5,40.505951,-3.360924,606.1,4,5,265.8,1.406,0,2,0,1.0,-0.0108,-0.0017000000000000001,-0.0012999999999999997,-0.0091,0.0005999999999999998,-0.002,-1.5473000000000001,0.0121,-0.9219000000000002,-0.3112083333333333,0.058958333333333335,2.395,2.0,90.83500000000001,3.895,2.0,84.0,120.0,1,motorway,3,1,40.50597,-3.360651,0.78,84.0,D2,Normal,motor
39,82.9,40.505928,-3.361189,606.5,4,5,263.0,4.219,1,2,0,1.0,-0.012100000000000001,-0.024,0.0111,-0.010400000000000001,-0.019700000000000002,0.009,-1.5482,0.0134,-0.8965,-0.3098095238095238,0.04814285714285714,2.376714285714286,2.0,84.212,3.678,1.6,82.5,120.0,1,motorway,3,1,40.505951,-3.360924,0.847,82.5,D2,Normal,motor
40,82.9,40.505898,-3.361455,607.1,4,5,261.2,4.57,2,3,0,1.0,-0.0154,-0.0033,0.036199999999999996,-0.0131,-0.0083,0.0334,-1.5603,0.03319999999999999,-0.8584999999999999,-0.5226086956521739,0.025086956521739128,2.391086956521739,2.0,83.14500000000001,3.61,1.25,82.9,120.0,1,motorway,3,1,40.505928,-3.361189,0.935,82.9,D2,Normal,motor
41,83.4,40.505859,-3.361729,607.3,6,5,259.8,3.164,0,3,0,1.0,-0.0068000000000000005,0.0267,0.0325,-0.0076,0.024,0.0368,-1.5773,0.0316,-0.8288,-0.6765416666666666,0.005666666666666667,2.7999166666666664,1.6666666666666667,-1.0,-1.0,2.0,82.9,120.0,1,motorway,3,2,40.505898,-3.361455,0.956,83.4,D2,Normal,motor
43,82.7,40.505825,-3.36199,607.9,4,5,258.8,2.461,0,3,0,1.0,-0.009000000000000001,-0.0037000000000000006,0.0011999999999999997,-0.0093,0.0020999999999999994,-0.0028000000000000004,-1.5579,-0.0274,-0.8111,-0.08616666666666667,-0.012791666666666666,3.893291666666667,0.16666666666666666,84.23400000000001,3.658,2.0,82.84,120.0,1,motorway,3,2,40.505859,-3.361729,1.904,82.7,D2,Normal,motor
43,82.2,40.505783,-3.362255,608.5,4,5,258.0,1.758,0,3,0,1.0,-0.009000000000000001,-0.0037000000000000006,0.0011999999999999997,-0.0093,0.0020999999999999994,-0.0028000000000000004,-1.5579,-0.0274,-0.8111,-0.08616666666666667,-0.012791666666666666,3.893291666666667,0.16666666666666666,84.23400000000001,3.658,2.0,82.84,120.0,1,motorway,3,2,40.505859,-3.361729,1.904,82.7,D2,Normal,motor
44,81.7,40.505733,-3.362507,609.2,4,5,257.0,1.758,0,3,0,1.0,0.0043,0.0011000000000000003,0.0085,0.0006000000000000002,0.00020000000000000036,0.0095,-1.5593,-0.027800000000000002,-0.7992000000000001,0.0,0.0,3.504,-1.0,71.86,3.1500000000000004,1.25,82.2,120.0,1,motorway,3,2,40.505783,-3.362255,1.031,81.7,D2,Normal,motor
46,82.8,40.50563,-3.363008,609.8,4,5,254.2,2.812,0,2,0,1.0,-0.005900000000000001,-0.0112,0.0099,-0.0046,-0.013000000000000001,0.009999999999999998,-1.5869,-0.008799999999999999,-0.777,0.008190476190476189,-0.0010476190476190479,2.7885238095238094,1.0476190476190477,67.2425,2.9525,1.0,82.0,120.0,1,motorway,3,2,40.505684,-3.362758,0.666,82.0,D2,Normal,motor
47,83.4,40.505569,-3.363267,610.3,4,5,252.8,2.812,0,2,0,1.0,-0.0050999999999999995,0.0098,0.0094,-0.007200000000000001,0.0091,0.0094,-1.5941,-0.0034000000000000002,-0.7621,-0.13521739130434782,0.0030434782608695647,2.365478260869565,2.0,66.566,2.898,1.0,82.64,120.0,1,motorway,3,2,40.50563,-3.363008,0.811,82.8,D2,Normal,motor
49,84.2,40.505512,-3.363521,610.7,4,5,251.4,2.812,2,2,0,1.0,-0.0079,0.0304,0.0215,-0.0094,0.0341,0.0184,-1.593,-0.027500000000000004,-0.7527,-0.581375,0.060625000000000005,2.347916666666667,2.0,63.102,2.7039999999999997,1.0,84.04,120.0,1,motorway,3,2,40.505569,-3.363267,1.945,84.2,D2,Normal,motor
49,85.3,40.50544,-3.363786,610.8,4,5,251.0,1.758,2,3,0,1.0,-0.0079,0.0304,0.0215,-0.0094,0.0341,0.0184,-1.593,-0.027500000000000004,-0.7527,-0.581375,0.060625000000000005,2.347916666666667,2.0,63.102,2.7039999999999997,1.0,84.04,120.0,1,motorway,3,2,40.505569,-3.363267,1.945,84.2,D2,Normal,motor
51,87.4,40.505379,-3.364049,611.1,4,5,250.3,1.055,1,3,0,1.0,-0.008222222222222221,-0.0026666666666666674,0.0017777777777777779,-0.005555555555555556,-0.010777777777777778,0.004,-1.6274444444444445,-0.027555555555555555,-0.7505555555555555,-0.17074074074074075,0.10407407407407408,2.317740740740741,2.0,64.022,2.65,1.0,86.98,120.0,1,motorway,3,2,40.50544,-3.363786,1.072,87.4,D2,Normal,motor
51,89.6,40.505306,-3.364311,613.6,4,5,249.3,1.758,0,3,0,1.0,-0.008222222222222221,-0.0026666666666666674,0.0017777777777777779,-0.005555555555555556,-0.010777777777777778,0.004,-1.6274444444444445,-0.027555555555555555,-0.7505555555555555,-0.17074074074074075,0.10407407407407408,2.317740740740741,2.0,64.022,2.65,1.0,86.98,120.0,1,motorway,3,2,40.50544,-3.363786,1.072,87.4,D2,Normal,motor
52,90.5,40.50523,-3.364593,612.5,4,5,248.9,1.406,1,3,0,1.0,-0.005300000000000001,0.0155,-0.0214,-0.0081,0.0188,-0.0177,-1.6175000000000002,-0.0428,-0.7551,0.21150000000000002,0.13063636363636363,2.363090909090909,2.0,65.955,2.65,1.0,89.6,120.0,1,motorway,3,2,40.505306,-3.364311,0.819,89.6,D2,Normal,motor
53,90.7,40.505146,-3.364862,612.7,4,5,248.6,0.703,0,3,0,1.0,-0.0029000000000000002,-0.007200000000000001,-0.0482,-0.0026000000000000003,-0.0052,-0.0459,-1.581,-0.042499999999999996,-0.7574,0.49304000000000003,0.08184,3.0364400000000002,1.16,78.46799999999999,3.1260000000000003,1.2,90.32000000000001,120.0,1,motorway,3,2,40.50523,-3.364593,0.528,90.5,D2,Normal,motor
56,85.6,40.504871,-3.365645,612.7,3,5,240.8,5.977,0,3,0,1.0,-0.005666666666666666,0.03166666666666666,-0.0071111111111111115,-0.010333333333333333,0.030111111111111113,-0.009333333333333334,-1.5184444444444445,0.042666666666666665,-0.679888888888889,0.050958333333333335,0.05525,2.8317916666666663,1.875,48.986000000000004,1.454,1.4,87.0,120.0,1,motorway,3,1,40.505062,-3.365135,1.089,87.0,D2,Normal,motor
57,83.6,40.504761,-3.365884,612.4,3,5,239.4,3.516,0,3,0,1.0,-0.0114,0.029199999999999997,-0.0058,-0.009899999999999999,0.0274,-0.005200000000000001,-1.5129,0.0264,-0.6669,-0.08592307692307692,-0.0037692307692307695,2.831730769230769,1.8461538461538463,-1.0,-1.0,1.0,85.88,120.0,1,motorway,3,1,40.504871,-3.365645,0.99,83.6,D2,Normal,motor
58,83.3,40.504654,-3.366116,612.4,3,5,238.7,2.109,0,2,0,1.0,-0.012100000000000001,0.038400000000000004,0.0156,-0.011800000000000001,0.0391,0.014100000000000001,-1.5205,0.0036999999999999997,-0.6706000000000001,-0.2357391304347826,0.011173913043478262,2.7989565217391306,1.9130434782608696,-1.0,-1.0,1.0,83.93333333333332,120.0,1,motorway,3,1,40.504761,-3.365885,0.852,83.6,D2,Normal,motor
60,82.3,40.504547,-3.366352,611.5,3,5,238.7,0.703,0,2,0,1.0,-0.0060999999999999995,0.0048000000000000004,0.0015000000000000002,-0.0075000000000000015,0.0043,-0.0016,-1.5156,0.0183,-0.6879,-0.18872,0.047400000000000005,2.81452,1.92,18.162,0.22199999999999998,1.4,82.3,120.0,1,motorway,3,1,40.504547,-3.366352,0.736,82.3,D2,Normal,motor
60,81.2,40.504436,-3.366575,613.4,3,5,238.0,0.703,0,2,0,1.0,-0.0060999999999999995,0.0048000000000000004,0.0015000000000000002,-0.0075000000000000015,0.0043,-0.0016,-1.5156,0.0183,-0.6879,-0.18872,0.047400000000000005,2.81452,1.92,18.162,0.22199999999999998,1.4,82.3,120.0,1,motorway,3,1,40.504547,-3.366352,0.736,82.3,D2,Normal,motor
61,80.7,40.504322,-3.366799,612.5,3,5,237.7,1.055,0,2,0,1.0,-0.002400000000000001,0.0196,0.0076,-0.0017000000000000001,0.0187,0.0093,-1.5188,0.0293,-0.6937,-0.2891666666666667,0.01825,2.7881249999999995,1.8333333333333333,18.9,0.26400000000000007,2.0,81.2,120.0,1,motorway,3,1,40.504436,-3.366575,0.937,81.2,D2,Normal,motor
62,80.5,40.504211,-3.367024,610.6,3,5,237.3,0.703,0,2,0,1.0,-0.016,0.019777777777777776,0.035666666666666666,-0.016777777777777777,0.020888888888888887,0.03322222222222222,-1.5392222222222223,0.016444444444444442,-0.7132222222222222,-0.38,0.0021904761904761906,2.7864761904761903,1.9523809523809523,9.495999999999999,-0.34,2.0,80.8,120.0,1,motorway,3,1,40.504322,-3.3668,0.844,80.7,D2,Normal,motor
63,82.2,40.504108,-3.367249,610.6,3,5,237.7,0.352,1,2,0,1.0,-0.0071,0.008,0.032,-0.0097,0.0104,0.033100000000000004,-1.5667,0.0,-0.7383,-0.3816785714285714,0.0762142857142857,2.751428571428572,2.0,26.585,0.7100000000000001,2.75,80.5,120.0,1,motorway,3,1,40.504211,-3.367024,0.59,80.5,D2,Normal,motor
64,84.8,40.503994,-3.367477,610.9,3,5,237.7,0.352,0,2,0,1.0,-0.0048000000000000004,-0.016900000000000002,0.0247,-0.0063,-0.014799999999999999,0.026000000000000002,-1.5944,0.002,-0.7573000000000001,-0.33879166666666666,0.137375,2.719333333333333,1.9166666666666667,43.396,1.718,2.8,81.86,120.0,1,motorway,3,1,40.504108,-3.367249,0.956,84.8,D2,Normal,motor
66,86.9,40.503754,-3.36796,610.9,3,5,238.0,0.703,0,2,0,1.0,-0.0013000000000000004,-0.0009,-0.003799999999999999,-0.0019000000000000002,-9.999999999999991e-05,-0.0037000000000000006,-1.6059,0.0045,-0.7833,-0.2747727272727273,0.08022727272727272,2.7499545454545458,1.7727272727272727,8.9575,-0.345,2.0,86.0,120.0,1,motorway,3,1,40.503994,-3.367478,1.647,86.4,D2,Normal,motor
67,86.9,40.503635,-3.368203,610.6,3,5,238.4,1.055,0,2,0,1.0,-0.013000000000000001,-0.0046,-0.0041,-0.0172,-0.005,-0.0036999999999999997,-1.6016000000000001,0.0047,-0.7972,-0.20643478260869566,0.10060869565217391,2.7844782608695655,1.7826086956521738,40.21,1.67,2.0,86.8,120.0,1,motorway,3,1,40.503754,-3.36796,0.658,86.9,D2,Normal,motor
68,91.2,40.503521,-3.368465,610.1,3,5,238.0,0.352,0,2,0,1.0,-0.008299999999999998,-0.022,0.0038999999999999994,-0.0022999999999999995,-0.0193,0.0034000000000000002,-1.6003,0.01,-0.808,-0.12036,0.09256,2.78004,1.88,41.7775,1.7275,2.0,86.9,120.0,1,motorway,3,1,40.503635,-3.368204,1.028,91.2,D2,Normal,motor
73,100.5,40.502857,-3.369811,610.0,3,5,237.3,0.352,0,2,0,1.0,-0.006200000000000001,-0.010600000000000002,-0.047799999999999995,-0.0081,-0.012,-0.047099999999999996,-1.5685,0.0171,-0.8475999999999999,0.035555555555555556,0.07096296296296296,2.854740740740741,1.8888888888888888,41.8375,1.5025,2.0,100.2,120.0,1,motorway,3,1,40.503128,-3.369253,1.346,100.2,D2,Normal,motor
75,99.5,40.502724,-3.370082,609.7,3,5,237.3,0.352,0,2,0,1.0,-0.009,0.0027,0.0294,-0.0066,0.0034000000000000002,0.030699999999999998,-1.5669,0.0114,-0.8593,0.14104,-0.08,2.83376,1.92,41.32,1.49,2.0,99.75,120.0,1,motorway,3,1,40.502857,-3.369811,0.544,99.5,D2,Normal,motor
75,100.4,40.502586,-3.37036,609.6,3,5,237.3,0.0,0,2,0,1.0,-0.009,0.0027,0.0294,-0.0066,0.0034000000000000002,0.030699999999999998,-1.5669,0.0114,-0.8593,0.14104,-0.08,2.83376,1.92,41.32,1.49,2.0,99.75,120.0,1,motorway,3,1,40.502857,-3.369811,0.544,99.5,D2,Normal,motor
77,101.6,40.502453,-3.370641,609.7,3,5,237.3,0.0,0,2,0,1.0,-0.0099,0.0015,-0.0248,-0.0115,0.0017000000000000001,-0.022799999999999997,-1.5764,0.0214,-0.8629,0.013518518518518518,0.009925925925925927,2.808074074074074,1.8518518518518519,-1.0,-1.0,1.0,101.35999999999999,120.0,1,motorway,3,1,40.502453,-3.370642,0.596,101.6,D2,Normal,motor
77,102.6,40.502312,-3.370924,609.4,3,5,237.3,0.0,0,2,0,1.0,-0.0099,0.0015,-0.0248,-0.0115,0.0017000000000000001,-0.022799999999999997,-1.5764,0.0214,-0.8629,0.013518518518518518,0.009925925925925927,2.808074074074074,1.8518518518518519,-1.0,-1.0,1.0,101.35999999999999,120.0,1,motorway,3,1,40.502453,-3.370642,0.596,101.6,D2,Normal,motor
78,102.3,40.502174,-3.371205,609.0,3,5,237.3,0.0,0,2,0,1.0,-0.0098,-0.0006999999999999999,-0.0187,-0.006500000000000001,-0.0024999999999999996,-0.0206,-1.5501999999999998,0.016900000000000002,-0.8656,-0.024173913043478257,0.022304347826086958,2.841217391304348,1.826086956521739,6.090000000000001,-0.556,1.0,102.4,120.0,1,motorway,3,1,40.502312,-3.370924,0.614,102.6,D2,Normal,motor
79,101.6,40.502033,-3.371488,608.8,3,5,237.3,0.0,0,2,0,1.0,-0.007800000000000001,0.0018,-0.0123,-0.0077,0.0013999999999999998,-0.014000000000000002,-1.5375999999999999,0.014000000000000002,-0.8688,-0.045370370370370366,0.042888888888888886,2.851185185185185,1.7777777777777777,6.836,-0.532,1.0,102.3,120.0,1,motorway,3,1,40.502174,-3.371205,0.845,102.3,D2,Normal,motor
81,99.6,40.501766,-3.372035,608.4,3,5,237.3,0.0,0,2,0,1.0,-0.01633333333333333,-0.005666666666666667,0.005888888888888889,-0.013444444444444445,-0.004,0.0030000000000000005,-1.5326666666666666,0.012222222222222223,-0.8727777777777779,-0.10563636363636363,0.018545454545454546,2.8856818181818182,1.8636363636363635,-1.0,-1.0,1.0,100.5,120.0,1,motorway,3,1,40.502033,-3.371488,1.228,100.5,D2,Normal,motor
83,99.4,40.501499,-3.372583,609.2,3,5,237.3,0.0,0,2,0,1.0,-0.0094,-0.011699999999999999,0.0098,-0.013600000000000001,-0.011899999999999999,0.008499999999999999,-1.5499,0.0114,-0.8746,-0.12712,0.038759999999999996,2.9024400000000004,1.88,-1.0,-1.0,1.0,99.3,120.0,1,motorway,3,1,40.501766,-3.372035,1.838,99.3,D2,Normal,motor
84,99.4,40.501362,-3.372854,609.6,3,5,237.0,0.352,0,2,0,1.0,-0.0048000000000000004,0.0115,-0.0046,-0.0023000000000000004,0.0131,-0.0047,-1.5511,0.008799999999999999,-0.874,-0.18982608695652173,0.02008695652173913,2.857391304347826,1.826086956521739,-1.0,-1.0,1.0,99.4,120.0,1,motorway,3,1,40.501499,-3.372583,0.865,99.4,D2,Normal,motor
86,100.4,40.501091,-3.373409,607.7,3,5,237.3,0.352,0,2,0,1.0,-0.005888888888888889,-0.00988888888888889,-0.0071111111111111115,-0.006333333333333333,-0.009555555555555555,-0.0025555555555555557,-1.5634444444444444,0.012333333333333333,-0.8778888888888888,-0.2575652173913044,0.05930434782608696,2.8616521739130434,1.9565217391304348,26.9325,0.73,1.75,99.7,120.0,1,motorway,3,1,40.501362,-3.372854,1.934,100.4,D2,Normal,motor
87,99.9,40.500954,-3.373682,607.3,3,5,237.3,0.0,0,2,0,1.0,-0.01790909090909091,0.0035454545454545456,-0.028545454545454544,-0.01709090909090909,0.003818181818181818,-0.030000000000000002,-1.5447272727272727,0.012181818181818183,-0.8813636363636363,-0.24364,0.05688,2.8949599999999998,1.96,36.584,1.314,2.2,100.26,120.0,1,motorway,3,1,40.501091,-3.37341,0.973,99.9,D2,Normal,motor
88,98.4,40.50082,-3.373952,607.1,3,5,237.3,0.0,0,1,0,1.0,-0.0063,-0.0035000000000000005,-0.0177,-0.006900000000000001,-0.0024000000000000002,-0.0177,-1.5294,0.0104,-0.8816,-0.20678260869565218,0.07139130434782608,2.8972173913043475,1.9565217391304348,34.385000000000005,1.2375,2.5,100.025,120.0,1,motorway,3,1,40.500954,-3.373682,0.779,99.9,D2,Normal,motor
89,97.0,40.50069,-3.374216,606.2,3,5,237.3,0.0,0,1,0,1.0,-0.011300000000000001,0.0059,-0.006900000000000001,-0.0087,0.0025,-0.0077,-1.5231,0.014499999999999999,-0.8811,-0.21688,0.07104,2.9090800000000003,1.8,32.2075,1.1749999999999998,3.0,98.775,120.0,1,motorway,3,1,40.50082,-3.373952,0.679,98.4,D2,Normal,motor
91,95.8,40.500561,-3.37448,606.1,3,5,237.3,0.0,0,1,0,1.0,-0.007600000000000001,-0.013600000000000001,-0.0005000000000000002,-0.0077,-0.0123,-0.0028,-1.5186,0.0198,-0.8784000000000001,-0.16641176470588234,0.03188235294117647,2.9556470588235295,1.8823529411764706,25.7,0.9675,3.75,95.8,120.0,1,motorway,3,1,40.500561,-3.37448,0.51,95.8,D2,Normal,motor
92,94.6,40.500427,-3.37474,607.5,3,5,237.0,0.352,0,1,0,1.0,-0.016555555555555556,-0.025222222222222222,0.009000000000000001,-0.01622222222222222,-0.02422222222222222,0.008333333333333333,-1.5197777777777777,0.034666666666666665,-0.8671111111111112,-0.29252,0.0222,2.97356,1.84,22.673333333333332,0.86,4.0,94.59999999999998,120.0,1,motorway,3,1,40.500427,-3.37474,0.679,94.6,D2,Normal,motor
92,94.0,40.500298,-3.374993,606.1,3,5,236.6,0.703,1,1,0,1.0,-0.016555555555555556,-0.025222222222222222,0.009000000000000001,-0.01622222222222222,-0.02422222222222222,0.008333333333333333,-1.5197777777777777,0.034666666666666665,-0.8671111111111112,-0.29252,0.0222,2.97356,1.84,22.673333333333332,0.86,4.0,94.59999999999998,120.0,1,motorway,3,1,40.500427,-3.37474,0.679,94.6,D2,Normal,motor
93,92.5,40.500164,-3.375244,605.7,3,5,235.5,1.406,2,1,0,1.0,0.0006999999999999998,-0.0184,0.0328,-0.0006999999999999999,-0.0215,0.0295,-1.5375999999999999,0.047099999999999996,-0.8499000000000001,-0.68116,-0.028079999999999997,2.9133999999999998,2.0,19.5,0.745,4.25,94.15,120.0,1,motorway,3,1,40.500298,-3.374993,0.691,94.0,D2,Normal,motor
94,93.7,40.500027,-3.375493,605.8,3,5,234.5,2.109,0,1,0,1.0,-0.0167,0.014000000000000002,0.047599999999999996,-0.014499999999999999,0.012,0.047,-1.5759,0.0339,-0.8368,-0.58828,-0.0338,3.03428,0.96,12.54,0.24500000000000002,3.75,92.875,120.0,1,motorway,3,2,40.500164,-3.375244,0.805,92.5,D2,Normal,motor
95,96.6,40.499889,-3.375748,605.9,3,5,235.5,2.109,0,1,0,1.0,-0.012199999999999999,0.034,0.0335,-0.010400000000000001,0.034699999999999995,0.0361,-1.6036000000000001,-0.0032,-0.8442999999999999,0.0,0.0,3.160782608695652,0.0,11.719999999999999,0.4525,2.25,93.4,120.0,1,motorway,3,2,40.500027,-3.375493,0.816,93.7,D2,Normal,motor
96,99.1,40.499756,-3.376016,606.1,3,5,236.2,1.758,0,1,0,1.0,0.0002,0.003,0.0095,-0.0023,0.0035000000000000005,0.0117,-1.6262999999999999,-0.0201,-0.8599,0.24671428571428572,0.028238095238095236,2.966190476190476,1.4285714285714286,14.819999999999999,0.554,2.0,96.02,120.0,1,motorway,3,2,40.499889,-3.375748,0.669,96.6,D2,Normal,motor
97,103.2,40.499611,-3.376295,605.5,3,5,235.5,0.703,0,1,0,1.0,-0.0168,-0.0004000000000000003,-0.011,-0.013800000000000002,-0.0002000000000000001,-0.0086,-1.6329,-0.018,-0.8695,0.20792592592592593,-0.053592592592592594,2.8566296296296296,1.7037037037037037,17.314999999999998,0.6325000000000001,1.25,98.475,120.0,1,motorway,3,2,40.499756,-3.376017,0.708,99.1,D2,Normal,motor
98,104.7,40.499462,-3.376578,607.5,3,5,235.9,0.352,0,1,0,1.0,-0.0041,-0.0063,-0.0173,-0.004000000000000001,-0.0032,-0.0184,-1.6279,-0.0195,-0.8776999999999999,0.07795238095238095,-0.030333333333333334,2.916428571428572,1.9523809523809523,19.396666666666665,0.6833333333333332,1.0,102.51666666666667,120.0,1,motorway,3,2,40.499611,-3.376295,0.789,103.2,D2,Normal,motor
100,107.6,40.499161,-3.377158,609.5,3,5,236.2,0.352,0,1,0,1.0,-0.013999999999999999,-0.0003000000000000001,-0.0179,-0.0106,-0.0019,-0.016900000000000002,-1.6082,-0.0015,-0.8846999999999999,0.021,0.01668,2.93536,1.76,23.330000000000002,0.778,1.0,108.1,120.0,1,motorway,3,2,40.499462,-3.376578,1.242,108.1,D2,Normal,motor
101,109.7,40.499008,-3.377455,608.4,3,5,235.9,0.352,0,1,0,1.0,-0.016999999999999998,0.007000000000000001,-0.0131,-0.020499999999999997,0.0049,-0.0131,-1.5957000000000001,0.0092,-0.8853,0.02931818181818182,0.0014090909090909087,2.9549090909090907,1.7727272727272727,25.338,0.8480000000000001,1.4,107.7,120.0,1,motorway,3,2,40.499161,-3.377158,0.858,107.6,D2,Normal,motor
102,109.6,40.498859,-3.377762,605.6,3,5,236.2,0.352,0,1,0,1.0,-0.0178,0.0058000000000000005,-0.0305,-0.0165,0.006999999999999999,-0.027700000000000002,-1.5817,0.0039,-0.8895,-0.03829166666666666,0.06941666666666667,2.922416666666667,1.8333333333333333,25.895,0.85,2.0,109.7,120.0,1,motorway,3,2,40.499008,-3.377455,0.781,109.7,D2,Normal,motor
104,110.7,40.49855,-3.378357,606.2,3,5,236.6,0.352,0,1,0,1.0,-0.0118,0.0033,0.0062,-0.0103,0.0046,0.0081,-1.5713,-0.0072,-0.8993,-0.0696,0.10028000000000001,3.0376,1.76,27.3325,0.9,2.0,109.4,120.0,1,motorway,3,2,40.498859,-3.377763,1.349,109.4,D2,Normal,motor
106,111.6,40.498249,-3.378967,605.3,3,5,236.2,0.352,0,1,0,1.0,-0.020499999999999997,0.0092,-0.0183,-0.019,0.0059,-0.0137,-1.5706,0.012199999999999999,-0.8971,0.2971923076923077,-0.0075769230769230774,2.9217307692307695,1.7692307692307692,26.2775,0.8525,2.0,111.0,120.0,1,motorway,3,2,40.49855,-3.378357,1.083,111.1,D2,Normal,motor
107,110.2,40.498096,-3.379268,605.3,3,5,236.6,0.352,0,1,0,1.0,0.00010000000000000009,0.0077,-0.028699999999999996,-0.0013999999999999998,0.0088,-0.0309,-1.5455999999999999,0.0073999999999999995,-0.9006000000000001,0.2876842105263158,-0.012421052631578947,2.9329473684210527,1.8421052631578947,25.863999999999997,0.8320000000000001,2.0,111.5,120.0,1,motorway,3,2,40.498249,-3.378967,0.596,111.6,D2,Normal,motor
108,109.1,40.497944,-3.379567,604.4,3,5,236.2,0.352,0,1,0,1.0,-0.0034000000000000002,-0.011,-0.013300000000000001,-0.0055,-0.0105,-0.013500000000000002,-1.5314999999999999,0.0107,-0.9009,0.37116,-0.01772,2.9213999999999998,1.76,25.354,0.8240000000000001,2.0,110.47999999999999,120.0,1,motorway,3,2,40.498096,-3.379268,0.886,110.2,D2,Normal,motor
111,106.8,40.497646,-3.380155,606.2,3,5,236.2,0.0,0,0,0,1.0,-0.005300000000000001,-0.0054,0.0327,-0.0060999999999999995,-0.0051,0.0317,-1.534,0.014099999999999998,-0.8992000000000001,0.151625,-0.005833333333333333,2.92675,1.875,26.486,0.892,2.0,106.96,120.0,1,motorway,3,2,40.497646,-3.380155,1.013,106.1,D2,Normal,motor
111,106.1,40.497501,-3.380442,608.4,3,5,235.9,0.352,0,0,0,1.0,-0.005300000000000001,-0.0054,0.0327,-0.0060999999999999995,-0.0051,0.0317,-1.534,0.014099999999999998,-0.8992000000000001,0.151625,-0.005833333333333333,2.92675,1.875,26.486,0.892,2.0,106.96,120.0,1,motorway,3,2,40.497646,-3.380155,1.013,106.1,D2,Normal,motor
114,108.9,40.497055,-3.38132,604.3,3,5,236.6,0.703,0,0,0,1.0,-0.0212,-0.0031,-0.014500000000000002,-0.0149,-0.0021999999999999997,-0.0094,-1.5766,-0.006900000000000001,-0.9072000000000001,-0.23903703703703705,0.015518518518518518,2.9105555555555553,1.7777777777777777,26.54,0.8825000000000001,2.0,108.3,120.0,1,motorway,3,2,40.497353,-3.380729,1.161,108.3,D2,Normal,motor
118,106.2,40.496456,-3.382482,604.2,3,5,235.9,0.703,0,0,0,1.0,-0.019200000000000002,-0.007000000000000001,-0.0006000000000000001,-0.020999999999999998,-0.006900000000000001,-0.0009,-1.5439,0.0179,-0.9033,0.10282142857142858,0.026571428571428572,2.888214285714286,1.75,25.53,0.875,3.0,104.8,120.0,1,motorway,3,2,40.496902,-3.381613,2.244,104.8,D2,Normal,motor
120,105.7,40.496307,-3.382761,604.7,3,5,235.2,1.055,0,0,0,1.0,-0.0207,-0.0060999999999999995,0.0036,-0.0208,-0.008499999999999999,0.0026,-1.5474999999999999,0.0348,-0.8849,0.016535714285714286,0.013392857142857142,2.9419285714285714,1.7857142857142858,24.6,0.84,2.25,105.7,120.0,1,motorway,3,2,40.496307,-3.382761,0.907,105.7,D2,Normal,motor
120,105.0,40.496159,-3.383042,604.6,3,5,234.8,1.055,0,0,0,1.0,-0.0207,-0.0060999999999999995,0.0036,-0.0208,-0.008499999999999999,0.0026,-1.5474999999999999,0.0348,-0.8849,0.016535714285714286,0.013392857142857142,2.9419285714285714,1.7857142857142858,24.6,0.84,2.25,105.7,120.0,1,motorway,3,2,40.496307,-3.382761,0.907,105.7,D2,Normal,motor
121,104.4,40.496006,-3.383324,604.0,3,5,234.5,0.703,0,0,0,1.0,-0.009888888888888888,0.016777777777777777,-0.0017777777777777779,-0.009777777777777778,0.015777777777777776,0.00011111111111111112,-1.5528888888888888,0.02611111111111111,-0.881,-0.07933333333333333,0.011791666666666667,2.93975,1.8333333333333333,24.272,0.8299999999999998,2.0,105.14000000000001,120.0,1,motorway,3,2,40.496159,-3.383043,0.827,105.0,D2,Normal,motor
125,104.9,40.495384,-3.384438,604.2,3,5,233.8,0.352,0,0,0,1.0,-0.004636363636363636,0.006454545454545455,0.011363636363636364,-0.005818181818181819,0.004909090909090909,0.009727272727272727,-1.5713636363636363,0.021454545454545452,-0.8678181818181817,-0.048999999999999995,0.0406,2.91816,1.88,23.8,0.8175,2.5,104.825,120.0,1,motorway,3,2,40.496006,-3.383325,3.683,104.9,D2,Normal,motor
129,107.6,40.494766,-3.385544,604.9,3,5,232.0,1.055,0,0,0,1.0,-0.0126,-0.015,-0.0054,-0.0187,-0.0107,-0.0043,-1.5729,0.0153,-0.8483,0.1781111111111111,-0.003777777777777778,2.891481481481481,1.8518518518518519,27.272,0.932,3.0,105.2,120.0,1,motorway,3,2,40.495094,-3.384995,1.305,105.2,D2,Normal,motor
131,105.2,40.494434,-3.386099,604.8,3,5,231.3,0.703,0,0,0,1.0,-0.0103,-0.0032,-0.011899999999999999,-0.013300000000000001,-0.004,-0.0134,-1.5528,0.028999999999999998,-0.8387,-0.0558,0.00432,2.9386,1.8,27.7375,0.935,3.0,106.9,120.0,1,motorway,3,2,40.494766,-3.385544,1.055,106.9,D2,Normal,motor
138,100.3,40.49329,-3.387895,605.2,3,5,229.2,1.406,0,0,0,1.0,-0.0058000000000000005,0.0024000000000000002,-0.014400000000000001,-0.0057,0.0021,-0.013500000000000002,-1.5448,0.0223,-0.827,-0.11029166666666666,0.05266666666666667,3.0222083333333334,1.75,30.472,1.08,2.0,101.7,120.0,1,motorway,3,2,40.493774,-3.387134,1.326,101.7,D2,Normal,motor
140,99.0,40.492962,-3.388384,603.1,3,5,228.5,0.703,0,0,0,1.0,-0.0015,-0.0067,-0.0034000000000000002,-0.0043,-0.0063,-0.0019,-1.5336,0.0212,-0.8227,-0.11284,0.02092,2.76784,1.44,33.5975,1.2149999999999999,2.0,99.39999999999999,120.0,1,motorway,3,2,40.49329,-3.387896,1.664,99.1,D2,Normal,motor
142,97.5,40.49263,-3.388868,603.0,3,5,228.2,0.352,0,0,0,1.0,-0.0081,-0.0029,0.0004000000000000002,-0.007200000000000001,-0.0034000000000000002,-0.0018000000000000002,-1.5367,0.020999999999999998,-0.8205,0.1436923076923077,0.04542307692307693,2.8852307692307693,1.8076923076923077,36.942499999999995,1.3425,3.0,99.0,120.0,1,motorway,3,2,40.492962,-3.388384,1.133,99.0,D2,Normal,motor
145,103.0,40.492111,-3.389606,603.2,3,5,226.8,1.055,0,0,0,1.0,-0.0137,0.0031999999999999993,0.0106,-0.013800000000000002,0.0064,0.011399999999999999,-1.612,0.033600000000000005,-0.8079000000000001,0.31916666666666665,-0.008733333333333334,2.8186000000000004,1.6666666666666667,40.52666666666667,1.45,2.0,100.8,120.0,1,motorway,3,2,40.492462,-3.389114,1.278,100.8,D2,Normal,motor
146,105.3,40.491932,-3.389844,603.3,3,5,226.4,0.352,0,0,0,1.0,-0.0089,0.0013999999999999998,-0.0041,-0.0092,-0.0010999999999999998,-0.0024000000000000002,-1.6187999999999998,0.0299,-0.8057000000000001,0.22773076923076924,-0.016615384615384615,2.825730769230769,1.6923076923076923,40.86,1.4375,2.0,102.45,120.0,1,motorway,3,2,40.492111,-3.389606,0.711,103.0,D2,Normal,motor
149,108.6,40.491371,-3.390618,603.0,3,5,226.1,0.352,0,0,0,1.0,-0.0101,0.0121,-0.0099,-0.0103,0.0134,-0.0085,-1.5861,0.0194,-0.8121,0.3067037037037037,-0.025444444444444447,2.8449999999999998,1.7407407407407407,39.4,1.315,2.0,107.925,120.0,1,motorway,3,2,40.491558,-3.390357,0.817,108.3,D2,Normal,motor
150,109.0,40.491177,-3.390878,603.8,3,5,225.7,0.352,0,0,0,1.0,-0.0092,-0.0016999999999999997,-0.0243,-0.0097,-0.0008999999999999998,-0.0239,-1.5739,0.0149,-0.8168999999999998,0.2804583333333333,-0.017708333333333333,2.848875,1.75,38.8925,1.29,2.0,108.52499999999999,120.0,1,motorway,3,2,40.491371,-3.390618,0.51,108.6,D2,Normal,motor
151,108.5,40.490986,-3.391129,603.5,4,5,225.7,0.352,0,0,0,1.0,-0.005900000000000001,0.0038,-0.0125,-0.005699999999999999,0.0019000000000000002,-0.014099999999999998,-1.5572,0.0158,-0.8190999999999999,0.21739999999999998,-0.016040000000000002,2.89584,1.84,41.367999999999995,1.366,2.0,108.92,120.0,1,motorway,3,2,40.491177,-3.390879,0.731,109.0,D2,Normal,motor
154,107.8,40.490417,-3.391905,602.1,3,5,226.1,0.0,0,0,0,1.0,-0.010600000000000002,0.0,-0.013600000000000001,-0.0108,-0.0006999999999999999,-0.011199999999999998,-1.5556,0.004,-0.8349,0.06470000000000001,0.0223,2.83765,1.8,41.306,1.3679999999999999,2.0,108.67999999999999,120.0,1,motorway,3,2,40.490788,-3.391393,1.271,108.7,D2,Normal,motor
155,107.0,40.490231,-3.392156,601.7,4,5,226.1,0.0,0,0,0,1.0,-0.006500000000000001,-0.0047,-0.0189,-0.0076,-0.0029000000000000002,-0.0198,-1.5371000000000001,0.010499999999999999,-0.837,0.1596,-0.031560000000000005,2.8034,1.72,41.0475,1.3725,2.25,107.8,120.0,1,motorway,3,2,40.490417,-3.391905,0.95,107.0,D2,Normal,motor
158,104.7,40.489857,-3.392664,601.5,4,5,225.7,0.352,0,0,0,1.0,-0.0073999999999999995,-0.0013000000000000002,0.009,-0.0095,-0.00030000000000000003,0.005,-1.5122,0.003,-0.8397,-0.025333333333333333,0.012633333333333333,2.883766666666667,1.8,42.167500000000004,1.4475,2.0,104.975,120.0,1,motorway,3,2,40.489857,-3.392664,1.018,103.6,D2,Normal,motor
158,103.6,40.489685,-3.392903,601.1,4,5,226.1,0.352,0,0,0,1.0,-0.0073999999999999995,-0.0013000000000000002,0.009,-0.0095,-0.00030000000000000003,0.005,-1.5122,0.003,-0.8397,-0.025333333333333333,0.012633333333333333,2.883766666666667,1.8,42.167500000000004,1.4475,2.0,104.975,120.0,1,motorway,3,2,40.489857,-3.392664,1.018,103.6,D2,Normal,motor
161,105.8,40.489136,-3.393652,599.6,4,5,226.1,0.352,0,0,0,1.0,-0.0167,-0.004399999999999999,0.0196,-0.013900000000000001,-0.0048000000000000004,0.0214,-1.5851000000000002,0.0026000000000000003,-0.8452999999999999,-0.2559047619047619,0.04719047619047619,2.826095238095238,1.7142857142857142,38.416,1.326,2.0,104.14000000000001,120.0,1,motorway,3,2,40.489685,-3.392904,1.476,104.4,D2,Normal,motor
163,108.3,40.488766,-3.39415,601.2,4,5,226.1,0.0,0,0,0,1.0,-0.006799999999999999,-0.0115,-0.012,-0.006500000000000001,-0.011300000000000001,-0.0107,-1.5874000000000001,0.0089,-0.8482,-0.25044827586206897,0.03858620689655173,2.9013448275862066,1.8620689655172413,36.345,1.2175,2.0,107.375,120.0,1,motorway,3,2,40.489136,-3.393652,1.517,107.9,D2,Normal,motor
164,108.9,40.488571,-3.394414,603.2,4,5,226.1,0.0,0,0,0,1.0,-0.0185,0.0067,-0.013300000000000001,-0.0182,0.0052,-0.014000000000000002,-1.5797,0.0087,-0.8475999999999999,-0.30820833333333336,0.03395833333333333,2.859,1.7916666666666667,35.874,1.194,2.0,108.22,120.0,1,motorway,3,2,40.488766,-3.39415,0.938,108.9,D2,Normal,motor
165,109.3,40.488396,-3.394677,603.1,4,5,226.1,0.0,1,0,0,1.0,-0.009,-0.0008,-0.011,-0.008499999999999999,0.0007999999999999998,-0.011300000000000001,-1.5695000000000001,0.0029000000000000002,-0.8497,-0.33887999999999996,0.03304,2.86284,1.84,34.317499999999995,1.135,2.0,108.9,120.0,1,motorway,3,2,40.488571,-3.394415,0.998,109.3,D2,Normal,motor
167,108.7,40.48801,-3.395186,598.4,4,5,225.7,0.0,0,0,0,1.0,-0.0218,-0.008299999999999998,-0.0026999999999999997,-0.0201,-0.0066,-0.005699999999999999,-1.5384,0.010499999999999999,-0.8480000000000001,-0.34075,0.0249,2.8960999999999997,1.8,33.138,1.09,2.0,109.62,120.0,1,motorway,3,2,40.488396,-3.394677,1.191,109.7,D2,Normal,motor
169,108.1,40.48764,-3.395684,599.5,4,5,225.7,0.352,1,0,0,1.0,0.0028000000000000004,-0.0077,0.015,0.0016,-0.0071,0.019200000000000002,-1.5634000000000001,0.0216,-0.8437999999999999,-0.34971428571428576,0.03247619047619048,2.827285714285714,1.8095238095238095,30.87,1.0350000000000001,2.0,107.4,120.0,1,motorway,3,2,40.48801,-3.395187,1.343,107.4,D2,Normal,motor
179,104.4,40.485653,-3.398087,600.8,4,5,219.7,1.758,0,0,0,1.0,-0.0032,-0.0026,-0.004,-0.0063,-0.0049,-0.007300000000000001,-1.5306,0.046299999999999994,-0.7596,0.10382758620689655,-0.028413793103448274,2.9108275862068966,1.8620689655172413,28.8075,0.9724999999999999,1.0,106.57499999999999,120.0,1,motorway,3,2,40.48605,-3.397643,1.486,106.6,D2,Normal,motor
181,104.3,40.485256,-3.398516,600.8,4,5,218.7,1.055,0,0,0,1.0,-0.012,-0.0013333333333333333,-0.007333333333333334,-0.013555555555555555,-0.0003333333333333333,-0.003,-1.552111111111111,0.03244444444444444,-0.7544444444444445,-0.20176000000000002,0.03548,2.83712,1.84,28.2825,0.9775,1.0,104.1,120.0,1,motorway,3,2,40.485653,-3.398088,1.219,104.1,D2,Normal,motor
183,104.9,40.484844,-3.398926,599.9,4,5,217.6,1.055,0,0,0,1.0,-0.0097,0.0002,0.014799999999999999,-0.0062,-0.0023,0.0167,-1.5571,0.0364,-0.7444,-0.24603999999999998,0.0642,2.83852,1.72,28.93,1.005,1.0,103.4,120.0,1,motorway,3,2,40.485256,-3.398516,1.494,103.4,D2,Normal,motor
185,105.1,40.484425,-3.39933,599.8,3,5,216.6,1.055,0,0,0,1.0,-0.010100000000000001,0.010499999999999999,-0.0067,-0.0095,0.008199999999999999,-0.0075,-1.5604,0.0376,-0.7405999999999999,-0.1701851851851852,0.07703703703703704,2.8622592592592593,1.8518518518518519,7.390000000000001,-0.47,1.0,105.0,120.0,1,motorway,3,2,40.484844,-3.398926,1.325,105.0,D2,Normal,motor
187,104.8,40.484215,-3.399538,599.5,4,5,216.6,0.703,0,0,0,1.0,0.004999999999999999,0.0085,0.0015,0.0066,0.0070999999999999995,0.0012999999999999995,-1.5581,0.012,-0.7538,-0.2042142857142857,0.04078571428571428,2.847785714285714,1.6785714285714286,22.38,0.4466666666666666,1.0,104.89999999999999,120.0,1,motorway,3,2,40.484425,-3.39933,1.47,104.8,D2,Normal,motor
187,104.8,40.484005,-3.399742,599.5,4,5,216.6,0.0,0,0,0,1.0,0.004999999999999999,0.0085,0.0015,0.0066,0.0070999999999999995,0.0012999999999999995,-1.5581,0.012,-0.7538,-0.2042142857142857,0.04078571428571428,2.847785714285714,1.6785714285714286,22.38,0.4466666666666666,1.0,104.89999999999999,120.0,1,motorway,3,2,40.484425,-3.39933,1.47,104.8,D2,Normal,motor
188,105.4,40.483795,-3.399938,598.9,4,5,216.2,0.352,0,0,0,1.0,-0.0060999999999999995,0.0064,-0.0031999999999999993,-0.008700000000000001,0.0072,-0.0041,-1.549,0.0056,-0.7637,-0.2361304347826087,0.07178260869565217,2.864782608695652,1.826086956521739,8.4825,-0.4325,1.0,104.8,120.0,1,motorway,3,2,40.484005,-3.399743,0.895,104.8,D2,Normal,motor
191,107.0,40.48315,-3.40056,597.8,3,5,216.6,0.352,0,0,0,1.0,-0.0014444444444444446,0.002444444444444445,0.006,-0.0038888888888888883,0.002666666666666666,0.005888888888888889,-1.5618888888888889,0.0067777777777777775,-0.7826666666666667,-0.114,0.03944,2.84096,1.8,9.5325,-0.4,1.0,106.075,120.0,1,motorway,3,2,40.483795,-3.399938,2.059,106.2,D2,Normal,motor
193,107.5,40.482933,-3.400774,597.5,3,5,216.6,0.0,0,0,0,1.0,-0.012222222222222223,-0.007888888888888888,-0.01577777777777778,-0.012333333333333333,-0.005555555555555556,-0.012333333333333333,-1.558,0.007666666666666667,-0.796888888888889,-0.05591666666666667,0.023541666666666666,2.8230416666666667,1.8333333333333333,10.96,-0.3575,1.0,107.5,120.0,1,motorway,3,2,40.48315,-3.40056,1.064,107.5,D2,Normal,motor
193,108.3,40.482719,-3.400993,596.8,3,5,217.6,0.0,0,0,0,1.0,-0.012222222222222223,-0.007888888888888888,-0.01577777777777778,-0.012333333333333333,-0.005555555555555556,-0.012333333333333333,-1.558,0.007666666666666667,-0.796888888888889,-0.05591666666666667,0.023541666666666666,2.8230416666666667,1.8333333333333333,10.96,-0.3575,1.0,107.5,120.0,1,motorway,3,2,40.48315,-3.40056,1.064,107.5,D2,Normal,motor
195,107.0,40.482292,-3.401413,596.3,3,5,216.6,1.055,0,0,0,1.0,-0.0111,0.0013999999999999998,-0.0083,-0.0125,-0.0013000000000000002,-0.009,-1.5299,0.014400000000000001,-0.8019999999999999,-0.010392857142857143,0.019964285714285716,2.904285714285714,1.8214285714285714,16.296666666666667,-0.10000000000000002,1.0,107.59999999999998,120.0,1,motorway,3,2,40.482933,-3.400774,1.261,107.6,D2,Normal,motor
196,106.7,40.482075,-3.40162,595.6,3,5,216.6,0.0,0,0,0,1.0,-0.0155,-0.005,0.010100000000000001,-0.014799999999999999,-0.003999999999999999,0.008299999999999998,-1.5312,0.0079,-0.8070999999999999,-0.05633333333333333,0.022296296296296297,2.8852962962962967,1.8888888888888888,12.41,-0.3075,1.0,107.15,120.0,1,motorway,3,2,40.482292,-3.401413,0.69,107.0,D2,Normal,motor
200,110.5,40.481411,-3.402251,595.6,3,5,216.9,0.703,0,0,0,1.0,-0.0098,-0.0048000000000000004,-0.0113,-0.0123,-0.0038,-0.014199999999999999,-1.5604,0.0159,-0.8234999999999999,-0.023,0.04292,2.8089600000000003,1.76,-1.0,-1.0,1.0,110.5,120.0,1,motorway,3,2,40.48164,-3.402037,1.165,110.5,D2,Normal,motor
200,109.0,40.481194,-3.402459,595.0,3,5,216.6,0.352,0,0,0,1.0,-0.0098,-0.0048000000000000004,-0.0113,-0.0123,-0.0038,-0.014199999999999999,-1.5604,0.0159,-0.8234999999999999,-0.023,0.04292,2.8089600000000003,1.76,-1.0,-1.0,1.0,110.5,120.0,1,motorway,3,2,40.48164,-3.402037,1.165,110.5,D2,Normal,motor
202,108.9,40.480759,-3.402889,594.3,3,5,216.6,0.0,0,0,0,1.0,-0.022777777777777775,-0.009333333333333334,-0.02277777777777778,-0.018222222222222223,-0.01011111111111111,-0.01922222222222222,-1.5518888888888889,0.0023333333333333335,-0.8283333333333334,0.040863636363636366,0.011590909090909091,2.8234999999999997,1.7272727272727273,48.7625,1.6025,2.0,109.4,120.0,1,motorway,3,2,40.481194,-3.40246,1.085,109.4,D2,Normal,motor
204,108.8,40.480328,-3.403323,594.3,3,5,216.9,0.352,0,0,0,1.0,-0.005099999999999999,0.0006999999999999999,0.0235,-0.0064,0.0019999999999999996,0.0224,-1.5497999999999998,0.0025,-0.8344999999999999,0.10529032258064515,0.02232258064516129,2.8110967741935484,1.8064516129032258,47.895,1.585,2.0,108.825,120.0,1,motorway,3,2,40.480759,-3.402889,1.738,108.8,D2,Normal,motor
206,108.8,40.479889,-3.403756,594.2,3,5,217.1,0.405,0,0,0,1.0,-0.0055,0.0038,-0.0173,-0.0027999999999999995,0.0013999999999999998,-0.0199,-1.5404,-0.0032,-0.8440999999999999,0.23191666666666666,-0.007541666666666666,2.8205833333333334,1.7083333333333333,47.416666666666664,1.5866666666666667,2.0,107.8,120.0,1,motorway,3,2,40.480328,-3.403323,1.729,107.8,D2,Normal,motor
207,109.2,40.479683,-3.403977,593.7,3,5,217.1,0.405,0,0,0,1.0,-0.0273,0.002,0.02,-0.0318,0.0051,0.0162,-1.5385,-0.0222,-0.8545,0.262875,-0.011291666666666667,2.8377499999999998,1.7083333333333333,54.54,1.8075,2.0,108.55,120.0,1,motorway,3,2,40.479889,-3.403756,1.052,109.2,D2,Normal,motor
210,111.0,40.479046,-3.404675,591.7,4,5,221.4,2.02,0,0,0,1.0,-0.0213,-0.009600000000000001,-0.0093,-0.0213,-0.0089,-0.0097,-1.5623,-0.0482,-0.9053000000000001,0.14207692307692307,0.004730769230769231,2.642076923076923,1.6538461538461537,-1.0,-1.0,2.0,110.9,120.0,1,motorway,3,2,40.479462,-3.404206,1.298,111.2,D2,Normal,motor
211,111.9,40.478817,-3.404929,591.5,3,5,221.4,0.316,1,0,0,1.0,-0.0021000000000000003,-0.0118,0.016,-0.0033999999999999994,-0.0116,0.0131,-1.5691000000000002,-0.036199999999999996,-0.9177,0.3528888888888889,0.014388888888888889,2.7845555555555555,1.7777777777777777,-1.0,-1.0,2.0,111.05,120.0,1,motorway,3,2,40.479046,-3.404675,1.018,111.9,D2,Normal,motor
213,114.8,40.478401,-3.405425,591.5,3,5,222.9,1.449,1,0,0,1.0,-0.0026000000000000003,0.0104,-0.005,-0.0039,0.0092,-0.0034999999999999996,-1.588,-0.0371,-0.9414,0.38569565217391305,0.03543478260869565,2.8171739130434785,1.826086956521739,-1.0,-1.0,2.0,113.625,120.0,1,motorway,3,2,40.478615,-3.405168,0.992,114.8,D2,Normal,motor
215,115.6,40.477982,-3.405939,591.7,3,5,224.6,1.758,1,0,0,1.0,-0.0241,-0.0010999999999999998,-0.0157,-0.023399999999999997,-0.0027,-0.0171,-1.5614000000000001,-0.034300000000000004,-0.9570000000000001,0.42609090909090913,-0.01309090909090909,2.6946363636363633,1.8181818181818181,-1.0,-1.0,2.0,115.55,120.0,1,motorway,3,2,40.478191,-3.405679,1.039,115.6,D2,Normal,motor
218,114.7,40.477375,-3.40675,589.8,3,5,227.8,2.109,0,0,0,1.0,-0.019,-0.0038000000000000004,-0.0002000000000000001,-0.0209,-0.0050999999999999995,0.0017000000000000001,-1.5462,-0.055099999999999996,-0.9879,0.083,-0.01508,2.85404,1.72,-1.0,-1.0,2.0,114.8,120.0,1,motorway,3,2,40.477779,-3.406195,1.749,114.8,D2,Normal,motor
220,113.2,40.476997,-3.40732,589.3,4,5,229.9,2.109,0,0,0,1.0,-0.0274,0.006500000000000001,-0.012,-0.0253,0.0042,-0.0113,-1.5471,-0.037,-0.9960000000000001,0.1604,0.00044000000000000007,2.91596,1.72,-1.0,-1.0,2.0,114.3,120.0,1,motorway,3,2,40.477375,-3.40675,1.06,114.1,D2,Normal,motor
222,113.1,40.476631,-3.407892,587.9,4,5,231.3,1.406,0,0,0,1.0,-0.0112,0.0018,0.0086,-0.0112,0.0013,0.008299999999999998,-1.5492000000000001,-0.0447,-1.0027,0.13665217391304346,-0.006391304347826087,2.8774782608695655,1.826086956521739,-1.0,-1.0,1.0,114.09999999999998,120.0,1,motorway,3,2,40.476997,-3.40732,1.176,114.1,D2,Normal,motor
223,112.9,40.47646,-3.408182,588.4,4,5,232.4,2.109,0,0,0,1.0,-0.01977777777777778,0.012444444444444445,-0.009888888888888888,-0.017333333333333333,0.013555555555555555,-0.007555555555555556,-1.5477777777777777,-0.04911111111111111,-1.0081111111111112,0.12958333333333333,-0.0255,2.8514166666666667,1.8333333333333333,-1.0,-1.0,1.0,113.35,120.0,1,motorway,3,2,40.476631,-3.407892,0.97,112.9,D2,Normal,motor
225,111.7,40.47612,-3.40877,590.1,3,5,234.1,1.758,0,0,0,1.0,-0.0014545454545454549,-0.008454545454545454,0.0003636363636363637,-0.0029090909090909093,-0.010272727272727274,0.0005454545454545454,-1.5455454545454546,-0.045909090909090906,-1.0178181818181817,0.09644827586206897,-0.01924137931034483,2.8971379310344827,1.8275862068965518,41.51,1.3266666666666669,2.0,112.63333333333333,120.0,1,motorway,3,2,40.47646,-3.408182,1.246,112.5,D2,Normal,motor
227,111.6,40.475803,-3.409364,588.3,3,5,235.5,1.406,0,0,0,1.0,-0.013000000000000001,0.0018,0.0031,-0.013000000000000001,-0.0004999999999999999,0.0034000000000000002,-1.5539,-0.0309,-1.0167,0.10832000000000001,-0.01536,2.83348,1.88,43.31,1.3966666666666665,2.0,111.5,120.0,1,motorway,3,2,40.47612,-3.40877,1.651,111.5,D2,Normal,motor
228,111.2,40.475658,-3.409664,587.6,3,5,237.0,2.109,0,0,0,1.0,-0.0274,0.0229,0.0002000000000000001,-0.0248,0.0241,0.0006000000000000001,-1.5631,-0.0422,-1.0230000000000001,-0.027576923076923075,0.010846153846153847,2.853846153846154,1.8846153846153846,43.576666666666675,1.41,2.6666666666666665,111.59999999999998,120.0,1,motorway,3,2,40.475803,-3.409365,0.939,111.2,D2,Normal,motor
229,111.6,40.47551,-3.409975,587.8,3,5,237.7,2.109,0,0,0,1.0,-0.008499999999999999,-0.0036000000000000003,-0.006500000000000001,-0.008799999999999999,-0.0023,-0.0064,-1.5657,-0.0412,-1.0278,-0.2261153846153846,-0.0045,2.369153846153846,1.3461538461538463,42.62,1.38,3.0,111.2,120.0,1,motorway,3,2,40.475658,-3.409665,0.964,111.6,D2,Normal,motor
232,108.7,40.475082,-3.410914,589.7,3,5,240.1,1.406,0,0,0,1.0,-0.022777777777777775,-0.012777777777777777,0.006666666666666666,-0.026000000000000002,-0.013777777777777778,0.004222222222222222,-1.5401111111111112,-0.034666666666666665,-1.0274444444444444,0.26085714285714284,0.08757142857142856,2.8882857142857143,1.9047619047619047,34.53666666666667,1.14,3.0,109.3,120.0,1,motorway,3,2,40.47551,-3.409976,2.218,109.3,D2,Normal,motor
234,107.2,40.474842,-3.411519,589.8,3,5,242.9,2.812,0,0,0,1.0,-0.0156,0.0054,0.0089,-0.0128,0.0036000000000000003,0.0082,-1.5514,-0.041100000000000005,-1.0379,0.1275769230769231,-0.024115384615384615,2.964769230769231,1.7692307692307692,35.443333333333335,1.18,3.0,108.3,120.0,1,motorway,3,2,40.475082,-3.410915,1.11,108.3,D2,Normal,motor
236,107.8,40.474594,-3.412157,589.0,3,5,244.0,2.109,0,0,0,1.0,-0.0204,0.0024000000000000002,0.010400000000000001,-0.022,0.0054,0.0093,-1.5605,-0.0372,-1.0442,-0.04364,0.031560000000000005,2.87684,1.88,33.13666666666666,1.1066666666666667,3.0,107.66666666666667,120.0,1,motorway,3,2,40.474842,-3.41152,1.066,107.9,D2,Normal,motor
238,108.2,40.474377,-3.412799,588.8,3,5,245.4,1.406,0,0,0,1.0,-0.0172,-0.008400000000000001,0.0051,-0.017,-0.008499999999999999,0.0062,-1.5698,-0.0293,-1.0446,0.1426086956521739,-0.0008695652173913042,2.837173913043478,1.826086956521739,33.02666666666667,1.1033333333333335,3.0,107.93333333333334,120.0,1,motorway,3,2,40.474716,-3.411835,1.06,108.0,D2,Normal,motor
240,109.2,40.474152,-3.413452,589.7,3,5,246.8,1.406,0,0,0,1.0,-0.0273,-0.0058000000000000005,-0.0034999999999999996,-0.0262,-0.0064,-0.004399999999999999,-1.582,-0.032,-1.0397,0.2194782608695652,0.014913043478260871,2.8129565217391304,1.8695652173913044,33.47666666666667,1.11,3.3333333333333335,108.8,120.0,1,motorway,3,2,40.474377,-3.4128,1.852,108.8,D2,Normal,motor
242,109.1,40.473942,-3.414123,590.6,4,5,248.6,1.758,0,0,0,1.0,-0.015777777777777776,0.014222222222222223,0.00011111111111111121,-0.015222222222222224,0.012333333333333333,0.0022222222222222227,-1.5847777777777778,-0.04644444444444444,-1.047,-0.027708333333333335,0.013083333333333334,2.8074999999999997,1.8333333333333333,30.72,1.01,3.0,109.2,120.0,1,motorway,3,2,40.474152,-3.413452,1.794,109.2,D2,Normal,motor
244,108.6,40.473755,-3.414781,590.9,4,5,250.7,2.109,0,0,0,1.0,-0.0224,-0.0123,-0.0012000000000000003,-0.0171,-0.0142,-0.002,-1.5766,-0.0443,-1.0605,-0.050923076923076925,0.05423076923076923,2.869653846153846,1.6923076923076923,28.695,0.945,3.0,109.05,120.0,1,motorway,3,2,40.473942,-3.414124,1.3,109.0,D2,Normal,motor
246,107.6,40.473591,-3.415453,591.9,4,5,252.4,1.758,0,0,0,1.0,0.002000000000000001,-0.0328,-0.0052,0.0036000000000000003,-0.0315,-0.0058,-1.5615,-0.0306,-1.0625,-0.11283333333333334,0.048999999999999995,2.861291666666667,1.875,25.37,0.8433333333333333,3.0,108.39999999999999,120.0,1,motorway,3,2,40.473755,-3.414782,1.452,108.3,D2,Normal,motor
247,106.8,40.473503,-3.415782,592.3,4,5,252.1,0.352,0,0,0,1.0,-0.0128,-0.028999999999999998,-0.0085,-0.0132,-0.0279,-0.0091,-1.5538,-0.0079,-1.0504,-0.10912000000000001,0.040119999999999996,2.85232,1.84,24.473333333333333,0.8166666666666668,2.3333333333333335,107.83333333333333,120.0,1,motorway,3,2,40.473591,-3.415453,0.864,107.6,D2,Normal,motor
248,106.2,40.473423,-3.416106,593.0,4,5,251.7,0.703,0,0,0,1.0,0.0018000000000000002,-0.016800000000000002,-0.0112,0.0012,-0.0195,-0.0107,-1.5442,0.0077,-1.0342,-0.11956521739130435,0.03804347826086957,2.841,1.826086956521739,24.1,0.8075000000000001,2.0,107.0,120.0,1,motorway,3,2,40.473503,-3.415782,0.912,106.8,D2,Normal,motor
249,105.7,40.473347,-3.416436,592.7,4,5,252.1,0.352,0,0,0,1.0,-0.008400000000000001,-0.002899999999999999,0.0017000000000000001,-0.0033999999999999994,-0.0008999999999999998,0.0025,-1.5391,0.006900000000000001,-1.0225,-0.139625,0.05245833333333333,2.84075,1.9166666666666667,24.043333333333333,0.8133333333333334,2.0,106.2,120.0,1,motorway,3,2,40.473423,-3.416107,1.036,105.7,D2,Normal,motor
251,104.9,40.47327,-3.41676,592.6,4,5,252.1,0.352,0,0,0,1.0,-0.0041,-0.0194,-0.0067,-0.0049,-0.019,-0.005599999999999999,-1.5338999999999998,0.0084,-0.9986,-0.14020833333333335,0.050708333333333334,2.8497916666666665,1.7083333333333333,23.7,0.81,1.5,105.10000000000001,120.0,1,motorway,3,2,40.47327,-3.416761,0.777,104.9,D2,Normal,motor
251,104.5,40.473186,-3.417084,592.6,4,5,251.7,0.352,0,0,0,1.0,-0.0041,-0.0194,-0.0067,-0.0049,-0.019,-0.005599999999999999,-1.5338999999999998,0.0084,-0.9986,-0.14020833333333335,0.050708333333333334,2.8497916666666665,1.7083333333333333,23.7,0.81,1.5,105.10000000000001,120.0,1,motorway,3,2,40.47327,-3.416761,0.777,104.9,D2,Normal,motor
253,103.2,40.473019,-3.417723,592.2,4,5,251.4,0.352,0,0,0,1.0,-0.0052,0.0034000000000000002,-0.0008000000000000004,-0.0088,0.0032,-0.0008,-1.5225,0.0010999999999999998,-0.9804999999999999,-0.28823076923076923,0.06180769230769231,2.8425000000000002,1.5384615384615385,22.785,0.795,1.0,103.2,120.0,1,motorway,3,2,40.473186,-3.417084,1.235,103.2,D2,Normal,motor
254,103.4,40.472935,-3.418053,592.2,4,5,251.4,0.0,0,0,0,1.0,-0.007666666666666667,0.0028888888888888888,0.00033333333333333327,-0.001333333333333333,0.002444444444444445,-0.002333333333333333,-1.5245555555555557,-0.005333333333333333,-0.979,-0.326625,0.058416666666666665,2.8635416666666664,1.7916666666666667,24.77333333333333,0.8633333333333333,1.0,103.2,120.0,1,motorway,3,2,40.473019,-3.417724,1.01,103.4,D2,Normal,motor
256,101.7,40.472855,-3.418367,591.8,4,5,252.1,0.703,0,0,0,1.0,-0.0097,0.0051,0.026600000000000002,-0.009600000000000001,0.0043,0.028599999999999997,-1.5756999999999999,0.0118,-0.9655999999999999,-0.1601,0.053200000000000004,2.73545,1.85,27.61,0.9733333333333333,1.0,102.26666666666667,120.0,1,motorway,3,2,40.472935,-3.418053,0.718,101.7,D2,Normal,motor
257,102.6,40.472778,-3.418688,591.6,4,5,252.1,0.703,0,0,0,1.0,-0.0021111111111111113,-0.005666666666666665,0.0047777777777777775,-0.005222222222222222,-0.0022222222222222222,0.006333333333333333,-1.586666666666667,0.015555555555555557,-0.9606666666666666,-0.061181818181818184,0.06431818181818182,2.7668636363636363,1.7727272727272727,28.33,0.995,1.0,102.6,120.0,1,motorway,3,2,40.472778,-3.418689,0.816,102.6,D2,Normal,motor
260,108.0,40.472534,-3.419683,591.3,4,5,251.7,0.352,0,0,0,1.0,0.008444444444444445,-0.006444444444444444,-0.0006666666666666664,0.004111111111111111,-0.0025555555555555557,0.00011111111111111093,-1.5833333333333333,0.01411111111111111,-0.9408888888888889,-0.060619047619047614,0.008809523809523809,2.7526190476190475,1.8095238095238095,30.396666666666665,1.0133333333333334,2.3333333333333335,107.7,120.0,1,motorway,3,2,40.472534,-3.419683,0.906,108.0,D2,Normal,motor
261,109.3,40.472454,-3.420024,590.9,4,5,251.7,0.352,0,0,0,1.0,-0.032,-0.0105,-0.0161,-0.0264,-0.0107,-0.0147,-1.5802,0.0153,-0.9357000000000001,-0.04716666666666666,0.03316666666666667,2.812041666666667,1.7083333333333333,31.840000000000003,1.0566666666666666,3.0,108.86666666666667,120.0,1,motorway,3,2,40.472454,-3.420025,0.84,109.3,D2,Normal,motor
261,109.3,40.472454,-3.420024,590.9,4,5,251.7,0.0,0,0,0,1.0,-0.032,-0.0105,-0.0161,-0.0264,-0.0107,-0.0147,-1.5802,0.0153,-0.9357000000000001,-0.04716666666666666,0.03316666666666667,2.812041666666667,1.7083333333333333,31.840000000000003,1.0566666666666666,3.0,108.86666666666667,120.0,1,motorway,3,2,40.472454,-3.420025,0.84,109.3,D2,Normal,motor
263,111.5,40.472271,-3.420702,589.7,3,5,250.7,1.055,0,0,0,1.0,-0.0236,-0.0049,-0.019700000000000002,-0.0252,-0.0085,-0.0191,-1.5585,0.0493,-0.9051,-0.46261538461538465,-0.022846153846153846,2.850807692307692,1.7692307692307692,33.9,1.0966666666666667,1.6666666666666667,111.16666666666667,120.0,1,motorway,3,2,40.472454,-3.420025,1.474,111.5,D2,Normal,motor
263,110.5,40.472176,-3.421042,589.2,3,5,249.6,1.758,2,0,0,1.0,-0.0236,-0.0049,-0.019700000000000002,-0.0252,-0.0085,-0.0191,-1.5585,0.0493,-0.9051,-0.46261538461538465,-0.022846153846153846,2.850807692307692,1.7692307692307692,33.9,1.0966666666666667,1.6666666666666667,111.16666666666667,120.0,1,motorway,3,2,40.472454,-3.420025,1.474,111.5,D2,Normal,motor
265,109.9,40.472084,-3.421376,588.6,3,5,249.3,1.406,0,0,0,1.0,0.0005999999999999998,0.0608,-0.0103,-0.0021000000000000007,0.0523,-0.009899999999999999,-1.5431,0.041499999999999995,-0.8836999999999999,0.008,0.004333333333333334,2.683125,0.4166666666666667,31.76,1.0366666666666668,2.6666666666666665,110.10000000000001,120.0,1,motorway,3,3,40.472176,-3.421043,1.294,109.9,D2,Normal,motor
265,109.0,40.471989,-3.42171,588.4,4,5,248.9,0.703,0,0,0,1.0,0.0005999999999999998,0.0608,-0.0103,-0.0021000000000000007,0.0523,-0.009899999999999999,-1.5431,0.041499999999999995,-0.8836999999999999,0.008,0.004333333333333334,2.683125,0.4166666666666667,31.76,1.0366666666666668,2.6666666666666665,110.10000000000001,120.0,1,motorway,3,3,40.472176,-3.421043,1.294,109.9,D2,Normal,motor
267,108.0,40.471893,-3.422044,588.2,4,5,249.6,0.703,0,0,0,1.0,-0.00020000000000000088,-0.0152,0.012,-0.0017000000000000006,-0.0132,0.0154,-1.5596999999999999,-0.0052,-0.9033,0.07504,0.07444,2.6759199999999996,1.72,29.016666666666666,0.9666666666666667,3.0,108.33333333333333,120.0,1,motorway,3,3,40.471893,-3.422044,0.749,108.0,D2,Normal,motor
267,108.9,40.47179,-3.422375,587.8,4,5,250.0,1.055,0,0,0,1.0,-0.00020000000000000088,-0.0152,0.012,-0.0017000000000000006,-0.0132,0.0154,-1.5596999999999999,-0.0052,-0.9033,0.07504,0.07444,2.6759199999999996,1.72,29.016666666666666,0.9666666666666667,3.0,108.33333333333333,120.0,1,motorway,3,3,40.471893,-3.422044,0.749,108.0,D2,Normal,motor
268,108.0,40.471703,-3.422713,587.4,4,5,250.0,0.352,0,0,0,1.0,-0.0099,-0.0025,-0.0383,-0.0065000000000000014,-0.0035000000000000005,-0.0376,-1.5462,-0.0085,-0.9048,-0.02557142857142857,0.03575,2.7992500000000002,1.8928571428571428,27.185000000000002,0.9,3.0,108.45,120.0,1,motorway,3,3,40.47179,-3.422376,0.68,108.9,D2,Normal,motor
269,106.3,40.471611,-3.423044,588.1,3,5,250.0,0.0,0,0,0,1.0,-0.022199999999999998,-0.0202,-0.0174,-0.0173,-0.0173,-0.019,-1.527,-0.0012000000000000001,-0.9057999999999999,-0.013600000000000001,0.0315,2.79955,1.95,18.72,0.38,2.5,108.225,120.0,1,motorway,3,3,40.471703,-3.422713,1.008,106.3,D2,Normal,motor
272,102.6,40.471348,-3.424006,585.9,4,5,249.3,0.352,0,0,0,1.0,-0.01011111111111111,-0.01011111111111111,-0.0017777777777777774,-0.011111111111111112,-0.012666666666666666,-0.0035555555555555557,-1.5187777777777778,0.019444444444444445,-0.8999999999999999,-0.10774999999999998,0.0011500000000000002,2.7283,1.9,13.95,0.48,2.0,104.7,120.0,1,motorway,3,3,40.471535,-3.423369,1.076,104.7,D2,Normal,motor
273,100.9,40.471252,-3.424327,585.3,3,5,249.3,0.352,0,0,0,1.0,-0.0070999999999999995,-0.0043,0.0028000000000000004,-0.006999999999999999,-0.0049,0.0036,-1.5141,0.013800000000000002,-0.8991,-0.055681818181818186,0.015363636363636364,2.7363181818181816,1.8636363636363635,12.713333333333333,0.44,2.0,103.3,120.0,1,motorway,3,3,40.471348,-3.424007,0.817,102.6,D2,Normal,motor
274,99.8,40.471161,-3.424629,584.0,4,5,248.9,0.352,0,0,0,1.0,-0.0126,0.0032,-0.004,-0.011,0.0036999999999999997,-0.004200000000000001,-1.5158,0.013999999999999999,-0.9003,-0.018571428571428572,0.0012857142857142856,2.697,1.8214285714285714,12.129999999999999,0.425,1.5,101.75,120.0,1,motorway,3,3,40.471252,-3.424328,0.765,100.9,D2,Normal,motor
276,98.0,40.470985,-3.42523,584.2,4,5,248.9,0.352,0,0,0,1.0,-0.0071,-0.010199999999999999,0.0353,-0.0083,-0.0125,0.0335,-1.5189,0.0144,-0.9030000000000001,0.13816666666666666,-0.0010416666666666664,2.7771666666666666,1.8333333333333333,13.49,0.49,1.0,98.60000000000001,120.0,1,motorway,3,3,40.471161,-3.424629,1.259,98.0,D2,Normal,motor
278,100.0,40.470798,-3.42585,583.9,4,5,248.9,0.0,1,0,0,1.0,-0.0177,0.014599999999999998,0.027700000000000002,-0.022,0.0126,0.030199999999999998,-1.5741,0.0129,-0.9038999999999999,0.342,-0.08318181818181819,2.8092272727272727,1.8636363636363635,16.423333333333332,0.6,2.0,98.60000000000001,120.0,1,motorway,3,3,40.470985,-3.42523,1.325,98.9,D2,Normal,motor
279,101.8,40.470707,-3.426167,585.3,4,5,248.9,0.0,1,0,0,1.0,-0.0092,0.010400000000000001,0.008400000000000001,-0.0025999999999999994,0.0104,0.0095,-1.5934000000000001,0.0087,-0.9099999999999999,0.43080769230769234,-0.06711538461538462,2.8387692307692305,1.8846153846153846,17.453333333333333,0.6333333333333333,1.6666666666666667,99.63333333333333,120.0,1,motorway,3,3,40.470798,-3.425851,1.049,101.8,D2,Normal,motor
281,104.6,40.47052,-3.426795,587.5,3,5,249.3,0.352,1,0,0,1.0,-0.0245,-0.006,-0.0221,-0.023899999999999998,-0.004999999999999999,-0.0188,-1.605,-0.00030000000000000003,-0.9219000000000002,0.46054545454545454,-0.10168181818181819,2.802454545454545,1.9090909090909092,-1.0,-1.0,1.0,102.73333333333333,120.0,1,motorway,3,3,40.470615,-3.426476,0.885,103.2,D2,Normal,motor
283,103.7,40.470345,-3.427421,588.1,4,5,250.3,0.0,1,1,0,1.0,-0.0046,9.999999999999965e-05,0.011,-0.0023,0.0023,0.011300000000000001,-1.591,-0.0104,-0.9391999999999999,0.39648000000000005,-0.11384,2.7998399999999997,1.92,-1.0,-1.0,2.0,104.19999999999999,120.0,1,motorway,3,3,40.47052,-3.426795,1.715,103.8,D2,Normal,motor
285,104.9,40.470253,-3.427749,587.2,4,5,250.7,1.055,1,1,0,1.0,-0.006900000000000001,0.0147,0.0003000000000000002,-0.0121,0.0155,0.00019999999999999993,-1.6051000000000002,-0.0306,-0.9709,0.6335999999999999,-0.07704,2.8174,1.84,-1.0,-1.0,2.0,104.30000000000001,120.0,1,motorway,3,3,40.470253,-3.42775,0.875,104.9,D2,Normal,motor
285,106.0,40.470169,-3.428062,586.6,4,5,251.4,1.055,2,1,0,1.0,-0.006900000000000001,0.0147,0.0003000000000000002,-0.0121,0.0155,0.00019999999999999993,-1.6051000000000002,-0.0306,-0.9709,0.6335999999999999,-0.07704,2.8174,1.84,-1.0,-1.0,2.0,104.30000000000001,120.0,1,motorway,3,3,40.470253,-3.42775,0.875,104.9,D2,Normal,motor
287,108.5,40.470009,-3.428722,588.9,4,5,252.8,1.406,0,1,0,1.0,-0.0098,-0.040600000000000004,-0.0161,-0.0126,-0.0379,-0.013600000000000001,-1.5952,-0.014799999999999999,-0.991,0.0,0.0,2.805,0.0,38.56333333333333,1.3,1.0,106.73333333333333,120.0,1,motorway,3,2,40.470169,-3.428062,1.1,107.1,D2,Normal,motor
289,107.7,40.469841,-3.429403,588.8,4,5,252.1,0.703,0,1,0,1.0,-0.011300000000000001,0.0054,-0.0064,-0.008799999999999999,0.0053,-0.0058,-1.5642,0.0086,-0.9853999999999999,-0.11575,-0.011000000000000001,2.8478333333333334,1.0833333333333333,38.126666666666665,1.2733333333333334,1.0,107.76666666666667,120.0,1,motorway,3,2,40.470093,-3.428383,1.934,107.4,D2,Normal,motor
290,105.6,40.469765,-3.429731,590.2,4,5,252.4,0.352,0,1,0,1.0,-0.01,0.0123,-0.0121,-0.013000000000000001,0.0108,-0.0129,-1.5562,0.0067,-0.9875999999999999,-0.154875,0.04620833333333333,2.862833333333333,1.8333333333333333,38.78666666666667,1.2966666666666666,1.6666666666666667,107.60000000000001,120.0,1,motorway,3,2,40.469929,-3.429066,1.006,105.6,D2,Normal,motor
292,105.3,40.469608,-3.430384,590.6,4,5,254.2,1.758,0,1,0,1.0,-0.005222222222222222,0.02033333333333333,0.023,-0.0071111111111111115,0.024777777777777777,0.02333333333333333,-1.574,-0.04,-1.0154444444444444,-0.24819047619047618,0.043904761904761905,2.9615714285714283,1.9047619047619047,37.81,1.2833333333333334,2.0,106.0,120.0,1,motorway,3,2,40.469685,-3.430059,0.837,106.2,D2,Normal,motor
293,106.7,40.46954,-3.430716,590.7,4,5,254.9,2.109,0,1,0,1.0,-0.005222222222222222,-0.011888888888888888,0.016888888888888887,-0.0033333333333333335,-0.012,0.018555555555555558,-1.5875555555555556,-0.036333333333333336,-1.0276666666666665,-0.21825,0.04528571428571428,2.818607142857143,1.8571428571428572,36.555,1.245,1.0,105.75,120.0,1,motorway,3,2,40.469608,-3.430385,0.761,105.3,D2,Normal,motor
294,107.4,40.469471,-3.431062,591.9,3,5,255.6,1.406,0,1,0,1.0,-0.009600000000000001,0.0018000000000000002,0.0115,-0.0102,0.0009,0.0108,-1.6003,-0.028100000000000003,-1.0361,-0.27784,0.01624,2.9107600000000002,1.76,35.78666666666666,1.2133333333333332,1.0,106.23333333333333,120.0,1,motorway,3,2,40.46954,-3.430716,1.016,107.4,D2,Normal,motor
297,110.6,40.469296,-3.432126,595.3,3,5,258.0,1.758,0,1,0,1.0,-0.013699999999999999,0.0032999999999999995,-0.0021,-0.0149,0.0059,-0.0019999999999999996,-1.6065999999999998,-0.0402,-1.0784,-0.18013043478260868,0.09734782608695651,2.8091304347826087,1.7826086956521738,34.556666666666665,1.1366666666666665,1.0,109.36666666666667,120.0,1,motorway,3,2,40.46941,-3.431415,1.089,109.7,D2,Normal,motor
