t_sec,speed_kmh,lat,lon,alt,vert_acc,horiz_acc,course,difcourse,hdop,vdop,pdop,active,acc_x,acc_y,acc_z,acc_x_kf,acc_y_kf,acc_z_kf,roll,pitch,yaw,x_lane,phi,road_width,lane_state,dist_front,ttc_front,num_vehicles,gps_speed,max_speed,speed_rel,road_type_osm,num_lanes,lane_id,lat_osm,lon_osm,osm_delay,gps_speed_osm,driver,behavior,road_type
14,75.2,40.505695,-3.354856,603.4,3,5,271.4,0.703,0,0,0,1,-0.0151,0.0169,-0.0436,-0.0042,0.0197,-0.0325,-1.6889,-0.0189,-1.5341,0,0,3.5,-1,-1,-1,0,73.2875,-1,-1,-,-1,-1,0,0,-1,75.2,D3,Normal,motor
15,78.3,40.505703,-3.355109,604,3,5,272.1,1.406,0,0,0,1,0.014,0.0167,-0.0704,0.009,0.0148,-0.0709,-1.639,-0.027,-1.5515,0,0,3.5,-1,-1,-1,0.5,77.1375,-1,-1,-,-1,-1,0,0,-1,78.3,D3,Normal,motor
16,78.7,40.505714,-3.355369,603.2,3,5,273.5,2.109,0,0,0,1,-0.0256,-0.0046,-0.0537,-0.0233,-0.0017,-0.0564,-1.59,-0.0201,-1.5678,0.127185185,0.038074074,3.579555556,0.37037037,4.4675,-0.63,1,78.55,-1,-1,-,-1,-1,0,0,-1,78.7,D3,Normal,motor
17,77.8,40.50573,-3.355628,601.8,4,5,274.6,2.461,0,0,0,1,-0.0105,0.0026,-0.0228,-0.0097,0.0002,-0.0235,-1.5735,-0.0167,-1.5774,0.408037037,0.046925926,3.369407407,2,9.426666667,-0.308888889,0.777777778,78.2,-1,-1,-,-1,-1,0,0,-1,77.8,D3,Normal,motor
18,77.9,40.505745,-3.355879,601.2,3,5,275.3,1.758,0,0,0,1,0.0037,-0.031,-0.0229,0.001,-0.0223,-0.0252,-1.5535,-0.0057,-1.5783,0.34426087,-0.025478261,3.094173913,2,-1,-1,0,77.87142857,-1,-1,-,-1,-1,0,0,-1,77.9,D3,Normal,motor
19,77.1,40.505768,-3.356141,601.1,3,5,274.2,1.055,0,0,0,1,-0.0096,-0.0282,0.0266,-0.0068,-0.0348,0.0264,-1.5642,0.0314,-1.5523,-0.107230769,-0.112884615,2.872423077,2,-1,-1,0.333333333,77.45555556,-1,-1,-,-1,-1,0,0,-1,77.1,D3,Normal,motor
20,78.3,40.505779,-3.3564,600.6,3,5,273.9,1.406,2,0,0,1,-0.004,0.0297,-0.0148,-0.0023,0.0261,-0.0131,-1.5736,0.0267,-1.5353,-0.793521739,-0.113217391,2.987,1.565217391,1.49,-0.748571429,2,77.78571429,-1,-1,-,-1,-1,0,0,-1,78.3,D3,Normal,motor
21,78,40.505795,-3.356657,600.7,3,5,274.2,0.352,0,0,0,1,-0.0025,0.0183,-0.0099,-0.0069,0.0212,-0.0116,-1.5637,-0.0063,-1.5415,0,0,3.478,0,17.67375,0.8125,2,78.1125,-1,-1,-,-1,-1,0,0,-1,78,D3,Normal,motor
22,78,40.505817,-3.35692,600,3,5,275.3,1.406,0,0,0,1,-0.0071,-0.0061,-0.0153,-0.0062,-0.0046,-0.0134,-1.5587,-0.0098,-1.5459,0,0,3.478,0,20.08571429,0.925714286,2,78,-1,-1,-,-1,-1,0,0,-1,78,D3,Normal,motor
23,77.7,40.505829,-3.35718,599.9,3,5,275.3,1.055,1,0,0,1,0.0005,0.0004,0.0284,0.0031,0.0013,0.0227,-1.5606,-0.0041,-1.5436,0.513571429,0.088,3.254714286,1.904761905,21.88,1.011428571,2,77.87142857,-1,-1,-,-1,-1,0,0,-1,77.7,D3,Normal,motor
24,78.6,40.505844,-3.357434,599.6,3,5,275.6,0.352,1,2,0,1,-0.016,0.0057,0.0419,-0.0166,0.0011,0.0415,-1.579,-0.0017,-1.5436,0.43236,-0.09876,3.105,1.92,24.61428571,1.132857143,2,78.21428571,-1,-1,-,-1,-1,0,0,-1,78.6,D3,Normal,motor
25,80.7,40.505867,-3.357707,599.7,3,5,276,0.703,0,1,0,1,-0.0031,-0.0046,0.0312,-0.0078,0.0017,0.0329,-1.6125,-0.004,-1.5421,0.301961538,-0.205538462,3.041346154,1.884615385,25.61222222,1.155555556,2,79.76666667,-1,-1,-,-1,-1,0,0,-1,80.7,D3,Normal,motor
26,83.4,40.50589,-3.357978,599.8,3,5,276.7,1.055,0,0,0,1,-0.0194,-0.006,0.0065,-0.012,-0.008,0.011,-1.6223,-0.0153,-1.5402,0.091,-0.224875,3.144875,1.916666667,27.8475,1.2175,2.25,82.3875,-1,-1,-,-1,-1,0,0,-1,83.4,D3,Normal,motor
27,86.5,40.505917,-3.358264,599.4,4,5,276.7,0.703,0,1,0,1,-0.0045,-0.0158,-0.0189,-0.0087,-0.016,-0.0163,-1.6145,-0.0122,-1.5374,0.088272727,-0.123681818,3.271818182,1.5,31.38375,1.325,1.625,85.3375,-1,-1,-,-1,-1,0,0,-1,86.5,D3,Normal,motor
28,87.8,40.505943,-3.358541,599.3,4,5,276,0.703,0,1,0,1,-0.0229,-0.0147,-0.0381,-0.0198,-0.0144,-0.0411,-1.5793,-0.0034,-1.5273,-0.29172,-0.02396,3.58952,1.72,36.11,1.49125,1,87.15,-1,-1,-,-1,-1,0,0,-1,87.8,D3,Normal,motor
29,86.8,40.505962,-3.358822,599,3,5,275.3,1.406,0,1,0,1,-0.0093,-0.0384,0.0049,-0.0104,-0.037,0.0031,-1.5696,0.0036,-1.5073,-0.122346154,0.072115385,3.277115385,1.846153846,35.03,1.444444444,1,87.24444444,-1,-1,-,-1,-1,0,0,-1,86.8,D3,Normal,motor
30,86.8,40.505978,-3.359105,598.5,3,5,274.9,1.055,0,1,0,1,-0.0075,-0.0328,0.0107,-0.0068,-0.0341,0.0106,-1.5855,0.0259,-1.4778,0.000846154,0.048346154,3.060692308,1.923076923,32.69,1.355714286,1,86.8,-1,-1,-,-1,-1,0,0,-1,86.8,D3,Normal,motor
31,86.8,40.505993,-3.359389,598.5,3,5,273.5,1.758,0,1,0,1,-0.0147,-0.0126,0.0198,-0.0175,-0.0147,0.0167,-1.6007,0.0444,-1.4422,-0.080863636,0.042909091,3.062681818,1.954545455,33.04,1.37,1,86.8,-1,-1,-,-1,-1,0,0,-1,86.8,D3,Normal,motor
32,87.9,40.505997,-3.359673,598.7,3,5,271.4,3.516,0,1,0,1,-0.0231,-0.0021,0.0253,-0.0199,0.001,0.0269,-1.6235,0.0493,-1.4082,-0.22864,0.07648,3.003,1.92,33.65555556,1.384444444,1,87.53333333,-1,-1,-,-1,-1,0,0,-1,87.9,D3,Normal,motor
33,92.4,40.505993,-3.35998,598.8,3,5,268.6,4.922,2,1,0,1,-0.0275,-0.0262,0.0065,-0.0281,-0.029,0.0068,-1.6405,0.0634,-1.3629,-0.57,-0.02373913,2.992,1.869565217,33.85666667,1.341666667,1,90.9,-1,-1,-,-1,-1,0,0,-1,92.4,D3,Normal,motor
34,94,40.505981,-3.360293,598.9,3,5,266.1,5.273,0,1,0,1,-0.0242,0.0318,-0.0015,-0.0173,0.0263,0.0011,-1.6421,0.0635,-1.3267,-0.469692308,-0.038884615,3.272423077,0.692307692,20.37375,0.42875,1,93.4,-1,-1,-,-1,-1,0,0,-1,94,D3,Normal,motor
35,97,40.505959,-3.360599,599.5,3,5,264.7,3.867,0,1,0,1,-0.0154,0.0237,-0.0033,-0.0254,0.0303,-0.0027,-1.6437,0.0392,-1.3093,0.0365,0.007807692,3.390961538,0.230769231,-1,-1,1,95.71428571,-1,-1,-,-1,-1,0,0,-1,97,D3,Normal,motor
36,98.7,40.505932,-3.360913,599.9,3,5,263.7,2.461,0,1,0,1,-0.0011,0.0154,0.0183,-0.0065,0.0099,0.0162,-1.6343,0.0277,-1.2899,0.237454545,-0.005909091,2.927909091,1.772727273,-1,-1,1,97.97142857,-1,-1,-,-1,-1,0,0,-1,98.7,D3,Normal,motor
37,100.5,40.505905,-3.361243,600.4,3,5,262.6,2.109,0,1,0,1,-0.0171,0.0448,-0.004,-0.0095,0.0481,-0.0027,-1.6304,0.0063,-1.2829,-0.044238095,-0.132238095,2.933952381,1.714285714,-1,-1,1,99.72857143,-1,-1,-,-1,-1,0,0,-1,100.5,D3,Normal,motor
38,101.9,40.505871,-3.361573,601,3,5,262.3,1.406,1,1,0,1,-0.0153,-0.0129,-0.0015,-0.0137,-0.0114,-0.0016,-1.6326,0.0029,-1.2694,-0.386826087,-0.062130435,3.006826087,1.782608696,-1,-1,1,101.2,-1,-1,-,-1,-1,0,0,-1,101.9,D3,Normal,motor
39,103.9,40.505833,-3.361901,601.6,3,5,260.5,2.109,1,1,0,1,-0.0067,-0.0076,-0.0042,-0.0104,-0.0071,-0.0023,-1.63,0.011,-1.2492,-0.518,0.020423077,3.001884615,1.807692308,-1,-1,1,103.2333333,-1,-1,-,-1,-1,0,0,-1,103.9,D3,Normal,motor
40,105,40.505783,-3.362241,604,3,5,258.8,3.516,1,2,0,1,-0.0069,-0.004,-0.022,-0.0049,-0.0024,-0.023,-1.6138,0.0098,-1.2288,-0.53095,-0.01455,3.0316,1.85,-1,-1,1,104.6333333,-1,-1,-,-1,-1,0,0,-1,105,D3,Normal,motor
41,104.9,40.505711,-3.362574,602.4,3,5,257,3.516,2,2,0,1,-0.0146,-0.0029,-0.0031,-0.0155,-0.0049,-0.0047,-1.5974,0.0187,-1.2076,-0.581535714,0.010107143,3.05925,1.857142857,-1,-1,1.5,104.95,-1,-1,-,-1,-1,0,0,-1,104.9,D3,Normal,motor
42,104.8,40.505646,-3.362894,602.6,4,5,255.6,3.164,1,2,0,1,-0.0095,0.0173,0.0187,-0.0082,0.0148,0.0179,-1.6039,0.0156,-1.1898,-0.752875,0.069541667,3.266291667,1.791666667,-1,-1,1,104.8428571,-1,-1,-,-1,-1,0,0,-1,104.8,D3,Normal,motor
43,105.9,40.505581,-3.363222,603.6,4,5,254.2,2.812,1,2,0,1,-0.012375,-0.002125,0.001,-0.0145,0.002875,0.002625,-1.60825,0.0075,-1.178625,-0.630095238,0.057857143,3.365095238,1.80952381,-1,-1,1,105.24,-1,-1,-,-1,-1,0,0,-1,105.9,D3,Normal,motor
44,104.8,40.505505,-3.36356,605.2,4,5,253.5,2.109,1,3,0,1,-0.0018,-0.0074,0.0013,-0.0031,-0.0073,0.0001,-1.6005,0.0202,-1.1573,-0.696230769,0.015884615,3.828038462,1.884615385,-1,-1,1,105.24,-1,-1,-,-1,-1,0,0,-1,104.8,D3,Normal,motor
45,107.6,40.505421,-3.36389,605.9,4,5,250.7,3.516,0,2,0,1,-0.015111111,-0.009555556,-0.005222222,-0.010555556,-0.010888889,-0.003,-1.595888889,0.021888889,-1.138222222,-0.256791667,-0.046875,3.134958333,1.791666667,-1,-1,1,106.2,-1,-1,-,-1,-1,0,0,-1,107.6,D3,Normal,motor
46,108.3,40.505325,-3.364219,606.8,4,5,248.2,5.273,0,2,0,1,-0.007090909,0.001272727,-0.024181818,-0.009909091,0.001272727,-0.023,-1.581818182,0.029363636,-1.118909091,-0.362916667,-0.002291667,3.074625,1.75,-1,-1,1,108.0375,-1,-1,-,-1,-1,0,0,-1,108.3,D3,Normal,motor
47,108.2,40.505219,-3.364551,606,4,5,246.8,3.867,1,3,0,1,-0.013,0.015666667,-0.007444444,-0.012111111,0.014666667,-0.010666667,-1.564111111,0.025333333,-1.102888889,-0.507541667,-0.007125,3.098541667,1.833333333,20.25625,0.19,1.5,108.2375,-1,-1,-,-1,-1,0,0,-1,108.2,D3,Normal,motor
48,107.7,40.505112,-3.364872,603.2,4,5,245,3.164,1,3,0,1,-0.0002,-0.0031,0.0128,-0.0005,0.0012,0.0119,-1.5688,0.0251,-1.0876,-0.631269231,0.015769231,3.118576923,1.807692308,41.51125,1.38625,3,107.8875,-1,-1,-,-1,-1,0,0,-1,107.7,D3,Normal,motor
49,108,40.50499,-3.365185,604.1,4,5,242.9,3.867,2,3,0,1,-0.0153,-0.0239,0.0175,-0.0146,-0.0275,0.0169,-1.585,0.0478,-1.0586,-0.90504,-0.02,3.06692,1.88,37.68714286,1.257142857,2,107.9142857,-1,-1,-,-1,-1,0,0,-1,108,D3,Normal,motor
50,110.1,40.504864,-3.365508,604.3,4,5,240.5,4.57,0,3,0,1,-0.0083,0.0208,0.011,-0.0062,0.0172,0.0119,-1.5971,0.0452,-1.0324,-0.72976,-0.01712,3.21252,0.92,28.30111111,0.718888889,1.777777778,109.4,-1,-1,-,-1,-1,0,0,-1,110.1,D3,Normal,motor
51,110.4,40.504719,-3.36582,604.3,4,5,238.7,4.219,0,3,0,1,-0.0089,0.0466,0.0044,-0.0105,0.0449,0.0044,-1.6042,0.0303,-1.0246,-0.016692308,-0.002307692,3.438769231,0.076923077,-1,-1,1,110.2875,-1,-1,-,-1,-1,0,0,-1,110.4,D3,Normal,motor
52,112.6,40.50457,-3.366134,605,4,5,237.7,2.812,0,3,0,1,-0.0036,0.0354,-0.0064,-0.008,0.0388,-0.0048,-1.6018,0.0232,-1.0326,0.152,0.020076923,2.956807692,1.115384615,2.27875,-0.7725,1,111.775,-1,-1,-,-1,-1,0,0,-1,112.6,D3,Normal,motor
53,113.5,40.504417,-3.366444,605.9,4,5,237.7,1.055,0,3,0,1,-0.0012,0.023,-0.0055,-0.0006,0.0229,-0.0061,-1.5889,0.027,-1.0464,0.227666667,-0.024259259,2.608444444,1.814814815,-1,-1,1.375,113.1625,-1,-1,-,-1,-1,0,0,-1,113.5,D3,Normal,motor
54,114.2,40.504265,-3.366755,605.4,4,5,237.7,0,0,3,0,1,-0.0125,0.0327,-0.0067,-0.0057,0.0311,-0.0069,-1.5813,0.0278,-1.0667,0.266307692,0.004769231,2.546,1.730769231,-1,-1,1,113.9375,-1,-1,-,-1,-1,0,0,-1,114.2,D3,Normal,motor
55,114.9,40.504112,-3.367079,604.4,4,5,237.7,0,2,3,0,1,0.0108,0.0232,0.0088,0.0087,0.0255,0.0078,-1.5656,0.0132,-1.0905,0.51312,0.02052,2.46632,1.84,-1,-1,0,114.6375,-1,-1,-,-1,-1,0,0,-1,114.9,D3,Normal,motor
56,115.4,40.503963,-3.367396,604.5,4,5,238.4,0.703,2,3,0,1,0.0117,-0.0139,-0.0015,0.0085,-0.0083,-0.0013,-1.5577,-0.0047,-1.113,0.681185185,0.043814815,2.698148148,1.259259259,-1,-1,0,115.2333333,-1,-1,-,-1,-1,0,0,-1,115.4,D3,Normal,motor
57,115.5,40.503811,-3.367712,603.8,4,5,238.4,0.703,0,3,0,1,-0.0066,-0.0178,-0.0022,-0.0033,-0.0221,-0.0014,-1.5529,0.0085,-1.1261,0,0,3.289375,0,-1,-1,0.125,115.4625,-1,-1,-,-1,-1,0,0,-1,115.5,D3,Normal,motor
58,115.5,40.503662,-3.368034,603.6,4,5,238.4,0,0,3,0,1,0.0116,-0.0208,0.0066,0.0047,-0.0175,0.0062,-1.5548,0.0254,-1.1366,0,0,3.286681818,0,-1,-1,0.25,115.5,-1,-1,-,-1,-1,0,0,-1,115.5,D3,Normal,motor
59,115.9,40.503513,-3.368345,603.3,4,5,238.4,0,0,3,0,1,-0.034,0.0059,-0.0045,-0.0254,0.0013,-0.004,-1.5593,0.0364,-1.144,-0.09175,-0.013875,3.522708333,0.333333333,-1,-1,0,115.7666667,-1,-1,-,-1,-1,0,0,-1,115.9,D3,Normal,motor
60,115.7,40.503357,-3.368671,602.5,4,5,237.7,0.703,0,3,0,1,-0.034,0.006,-0.0072,-0.0346,0.0067,-0.0072,-1.5606,0.039,-1.1531,-0.33985,-0.05225,3.3284,1.7,-1,-1,0,115.775,-1,-1,-,-1,-1,0,0,-1,115.7,D3,Normal,motor
61,115.6,40.503197,-3.368985,602,4,5,237.7,0.703,0,3,0,1,-0.0084,0.0025,-0.0031,-0.0146,0.004,-0.0031,-1.5589,0.0231,-1.1658,-0.210714286,0.037190476,3.155904762,1.714285714,-1,-1,0,115.6375,-1,-1,-,-1,-1,0,0,-1,115.6,D3,Normal,motor
62,114,40.50304,-3.369301,602.3,4,5,237.7,0,0,3,0,1,-0.0117,-0.0147,-0.0077,-0.0048,-0.016,-0.0072,-1.5546,0.025,-1.1741,0.054076923,0.044,3.102653846,1.692307692,-1,-1,0,114.8,-1,-1,-,-1,-1,0,0,-1,114,D3,Normal,motor
63,114.7,40.502884,-3.369617,603.5,4,5,237.3,0.352,0,3,0,1,-0.007777778,-0.002888889,-0.011666667,-0.015111111,-0.003222222,-0.009444444,-1.554444444,0.027888889,-1.179666667,0.2178,-0.02096,3.13752,1.6,-1,-1,0,114.28,-1,-1,-,-1,-1,0,0,-1,114.7,D3,Normal,motor
64,113.8,40.502728,-3.369938,601.7,4,5,237.3,0.352,0,2,0,1,-0.0007,-0.0059,-0.0015,-0.0029,-0.0049,-0.0008,-1.5501,0.0194,-1.1877,0.2754,-0.01355,3.1427,1.9,-1,-1,0,114.25,-1,-1,-,-1,-1,0,0,-1,113.8,D3,Normal,motor
65,113.3,40.502583,-3.370243,600.2,4,5,237.3,0,1,2,0,1,-0.0162,0.0006,0.002,-0.0117,-0.0031,0.0015,-1.5458,0.0215,-1.1946,0.3968,-0.01165,3.2254,1.6,-1,-1,0,113.4666667,-1,-1,-,-1,-1,0,0,-1,113.3,D3,Normal,motor
66,113.3,40.50243,-3.370562,600.2,4,5,237.3,0,1,3,0,1,-0.0071,0.0303,0.001,-0.0069,0.0275,0.0021,-1.5466,0.0094,-1.2064,0.655375,-0.077416667,3.074791667,1.625,-1,-1,0,113.3,-1,-1,-,-1,-1,0,0,-1,113.3,D3,Normal,motor
67,113,40.502281,-3.370879,600.2,4,5,238,0.703,2,3,0,1,-0.0098,0.0028,-0.0104,-0.0131,0.01,-0.0104,-1.554,-0.0226,-1.2286,0.872851852,0.003074074,3.195444444,1.814814815,-1,-1,0,113.1285714,-1,-1,-,-1,-1,0,0,-1,113,D3,Normal,motor
68,112.3,40.502136,-3.371194,600,3,5,239.1,1.758,0,3,0,1,-0.0148,-0.0347,-0.0032,-0.0161,-0.0316,-0.0038,-1.5507,-0.0152,-1.2399,0.465130435,0.020565217,3.400347826,0.608695652,-1,-1,0,112.6111111,-1,-1,-,-1,-1,0,0,-1,112.3,D3,Normal,motor
69,111.8,40.501991,-3.371523,599.2,4,5,238.4,0.703,0,3,0,1,-0.0073,-0.0363,-0.0056,-0.0063,-0.041,-0.0055,-1.5511,0.0179,-1.2347,0,0,3.46412,0,-1,-1,0,111.9875,-1,-1,-,-1,-1,0,0,-1,111.8,D3,Normal,motor
70,111.2,40.50185,-3.37183,598.9,4,5,238,1.055,0,3,0,1,0.0001,-0.0114,-0.0028,0.0004,-0.0137,-0.0026,-1.5487,0.0355,-1.2278,-0.344,-0.032727273,3.290272727,1.5,-1,-1,0,111.4,-1,-1,-,-1,-1,0,0,-1,111.2,D3,Normal,motor
71,110.6,40.501705,-3.37212,598.6,4,5,237.7,0.703,0,3,0,1,-0.0186,-0.0034,-0.0075,-0.0141,-0.0024,-0.0063,-1.5478,0.0346,-1.2231,-0.315038462,0.056615385,3.228846154,1.730769231,-1,-1,0,110.825,-1,-1,-,-1,-1,0,0,-1,110.6,D3,Normal,motor
72,109.8,40.501549,-3.372426,598.3,4,5,237.7,0.352,0,3,0,1,-0.0069,0.0018,-0.0002,-0.011,0.0021,-0.0035,-1.5492,0.0293,-1.2213,-0.196238095,0.067904762,3.214428571,1.857142857,-1,-1,0,110.1,-1,-1,-,-1,-1,0,0,-1,109.8,D3,Normal,motor
73,109.8,40.501404,-3.372744,597.8,4,5,237.3,0.352,0,3,0,1,-0.012444444,0.004888889,-0.004,-0.009111111,0.003333333,-0.004333333,-1.550888889,0.029,-1.222,-0.10075,0.03325,3.18375,1.833333333,-1,-1,0,109.8,-1,-1,-,-1,-1,0,0,-1,109.8,D3,Normal,motor
74,109,40.501255,-3.373044,597.2,4,5,237.3,0.352,0,3,0,1,-0.0004,0.0059,0.0026,-1.00E-04,0.0047,0.0032,-1.5547,0.0278,-1.2239,-0.079037037,0.037851852,3.153703704,1.814814815,-1,-1,0,109.2666667,-1,-1,-,-1,-1,0,0,-1,109,D3,Normal,motor
75,108.7,40.501102,-3.373335,597.1,4,5,237,0.352,0,3,0,1,-0.013,0.0129,0.0093,-0.015,0.0111,0.0083,-1.5623,0.0329,-1.2245,-0.0715,0.016821429,3.182035714,1.785714286,-1,-1,0,108.775,-1,-1,-,-1,-1,0,0,-1,108.7,D3,Normal,motor
76,109.2,40.500957,-3.373638,597.2,3,5,237.3,0.352,0,3,0,1,-0.0101,0.0005,0.0013,-0.0091,0.0027,0.0031,-1.5664,0.0201,-1.2282,-0.052538462,0.016346154,3.187115385,1.769230769,-1,-1,0,108.9857143,-1,-1,-,-1,-1,0,0,-1,109.2,D3,Normal,motor
77,109.2,40.500813,-3.373941,596.6,3,5,238,1.055,0,3,0,1,-0.0016,-0.0182,-0.0074,-0.003,-0.0142,-0.0065,-1.5618,0.0252,-1.229,-0.031222222,-0.002518519,3.178777778,1.814814815,-1,-1,0.125,109.2,-1,-1,-,-1,-1,0,0,-1,109.2,D3,Normal,motor
78,109,40.500668,-3.374249,596.3,3,5,237.3,0.703,0,3,0,1,-0.013111111,-0.010444444,0.000444444,-0.011111111,-0.014444444,-0.002333333,-1.554,0.023333333,-1.225888889,-0.090136364,-0.002545455,3.226136364,1.909090909,-1,-1,1,109.1,-1,-1,-,-1,-1,0,0,-1,109,D3,Normal,motor
89,109.4,40.499012,-3.377486,592.9,3,5,236.2,0,0,3,0,1,-0.0156,0.0053,1.73E-19,-0.0135,0.0043,0.0017,-1.5688,0.0264,-1.2357,-0.221814815,-0.007222222,3.176888889,1.814814815,-1,-1,0,109.3,-1,-1,-,-1,-1,40.50037,-3.374856,1.185,109.4,D3,Normal,motor
89,109.4,40.499012,-3.377486,592.9,3,5,236.2,0,0,3,0,1,-0.0156,0.0053,1.73E-19,-0.0135,0.0043,0.0017,-1.5688,0.0264,-1.2357,-0.221814815,-0.007222222,3.176888889,1.814814815,-1,-1,0,109.3,-1,-1,-,-1,-1,40.499012,-3.377487,0.024,109.4,D3,Normal,motor
90,108.9,40.498867,-3.377793,593,4,5,236.6,0.352,0,2,0,1,-0.017875,0.019125,-4.34E-19,-0.0225,0.020125,-0.00025,-1.573125,0.023625,-1.23775,-0.27175,0.0234,3.18425,1.9,-1,-1,0,109.1142857,-1,-1,-,-1,-1,40.498867,-3.377793,0.02,108.9,D3,Normal,motor
91,108.8,40.498714,-3.378094,592.8,3,5,236.2,0.352,0,2,0,1,-0.009111111,0.004,-0.005666667,-0.01,0.001444444,-0.006,-1.572111111,0.022444444,-1.241444444,-0.243714286,0.007666667,3.201809524,1.857142857,-1,-1,0,108.82,-1,-1,-,-1,-1,40.498714,-3.378094,0.033,108.8,D3,Normal,motor
92,110.1,40.498566,-3.378391,593.1,3,5,236.6,0.352,0,2,0,1,-0.0066,-0.0078,-0.009,-0.0031,-0.0067,-0.0079,-1.5689,0.0202,-1.2436,-0.172538462,0.029346154,3.174153846,1.807692308,-1,-1,0,109.9375,-1,-1,-,-1,-1,40.498566,-3.378391,0.07,110.1,D3,Normal,motor
93,112.5,40.498413,-3.378696,592.8,4,5,236.2,0.352,0,2,0,1,-0.0124,0.0022,0.0019,-0.0121,0.0048,0.0009,-1.5655,0.0241,-1.2443,-0.142809524,0.016333333,3.19847619,1.857142857,-1,-1,0,111.6,-1,-1,-,-1,-1,40.498413,-3.378696,0.013,112.5,D3,Normal,motor
94,110.9,40.498257,-3.379006,592.1,4,5,236.2,0.352,0,2,0,1,-0.0119,0.004,0.0067,-0.0119,0.0005,0.0072,-1.5631,0.0304,-1.2447,-0.148178571,0.030392857,3.173821429,1.821428571,-1,-1,0,111.5857143,-1,-1,-,-1,-1,40.498257,-3.379006,0.078,110.9,D3,Normal,motor
95,110.4,40.498093,-3.379312,592.8,3,5,236.2,0,0,2,0,1,-0.007333333,0.006,0.007222222,-0.006111111,0.007,0.008,-1.561111111,0.029777778,-1.244,-0.126625,0.044458333,3.161083333,1.791666667,-1,-1,0,110.5875,-1,-1,-,-1,-1,40.498093,-3.379312,0.013,110.4,D3,Normal,motor
96,110.6,40.49794,-3.379614,592.4,4,5,235.9,0.352,0,2,0,1,-0.007090909,0.003090909,0.003454545,-0.008272727,0.003,0.002727273,-1.563727273,0.025090909,-1.244,-0.20075,0.033708333,3.183708333,1.833333333,-1,-1,0,110.525,-1,-1,-,-1,-1,40.49794,-3.379614,0.034,110.6,D3,Normal,motor
97,111.3,40.497787,-3.379917,592.2,4,5,236.2,0.352,0,2,0,1,-0.005222222,0.002333333,-0.003555556,-0.008,0.003333333,-0.003,-1.565888889,0.022,-1.246444444,-0.22328,0.01972,3.19876,1.8,-1,-1,0,111.0666667,-1,-1,-,-1,-1,40.497787,-3.379917,0.055,111.3,D3,Normal,motor
98,111.2,40.497635,-3.380226,592,4,5,235.9,0.352,0,2,0,1,-0.0091,0.0067,-0.0092,-0.0101,0.0069,-0.0078,-1.5659,0.027,-1.248,-0.266192308,0.010846154,3.201153846,1.884615385,-1,-1,0,111.225,-1,-1,-,-1,-1,40.497635,-3.380227,0.111,111.2,D3,Normal,motor
99,109.3,40.497475,-3.380526,591.7,4,5,235.5,0.703,0,2,0,1,-0.0132,0.0079,0.0035,-0.0126,0.0077,0.0021,-1.5666,0.0181,-1.2502,-0.288173913,0.007608696,3.237391304,1.826086957,-1,-1,0,110.0125,-1,-1,-,-1,-1,40.497475,-3.380526,0.101,109.3,D3,Normal,motor
100,111.2,40.49733,-3.380834,591.4,4,5,236.2,0.703,0,2,0,1,-0.013666667,-0.004111111,0.001666667,-0.014666667,-0.004777778,0.004111111,-1.567222222,0.012111111,-1.253666667,-0.29104,0.01764,3.21472,1.84,-1,-1,0,110.5666667,-1,-1,-,-1,-1,40.49733,-3.380834,0.098,111.2,D3,Normal,motor
101,112.1,40.497173,-3.381139,591.3,3,5,236.2,0.703,0,2,0,1,-0.0096,-0.0013,0.0033,-0.0059,0.0009,0.0044,-1.5698,0.0203,-1.2548,-0.250458333,0.047333333,3.238125,1.791666667,-1,-1,0,111.8,-1,-1,-,-1,-1,40.497173,-3.38114,0.017,112.1,D3,Normal,motor
102,111.6,40.497028,-3.381446,591,3,5,236.6,0.352,0,2,0,1,-0.0176,0.0043,-0.0099,-0.0201,0.0027,-0.0088,-1.5725,0.0302,-1.2549,-0.145346154,0.043884615,3.247730769,1.807692308,-1,-1,0,111.7666667,-1,-1,-,-1,-1,40.497028,-3.381447,0.013,111.6,D3,Normal,motor
103,111.7,40.496872,-3.381754,591.4,3,5,236.6,0.352,0,2,0,1,-0.002,-0.012,-0.006,-0.0058,-0.0113,-0.0055,-1.5723,0.0259,-1.2542,-0.077851852,0.050333333,3.204481481,1.851851852,-1,-1,0,111.6555556,-1,-1,-,-1,-1,40.496872,-3.381754,0.085,111.7,D3,Normal,motor
104,111.7,40.496719,-3.382063,591.8,3,5,236.2,0.352,0,2,0,1,-0.0225,0.0099,-0.0047,-0.0158,0.0059,-0.0041,-1.5627,0.0369,-1.2509,0.028892857,0.016785714,3.189178571,1.857142857,-1,-1,0,111.7,-1,-1,-,-1,-1,40.496719,-3.382063,0.019,111.7,D3,Normal,motor
105,112.2,40.496555,-3.382372,591.6,3,5,235.9,0.703,0,2,0,1,-0.0147,0.0112,-0.0029,-0.021,0.0141,-0.0042,-1.5626,0.0427,-1.2486,-0.003846154,-0.015076923,3.205538462,1.730769231,-1,-1,0,112.0333333,-1,-1,-,-1,-1,40.496555,-3.382372,0.011,112.2,D3,Normal,motor
106,111.3,40.496395,-3.382669,591.2,3,5,235.9,0.352,0,2,0,1,-0.0069,-0.0042,-0.0166,-0.001,-0.0024,-0.0142,-1.5651,0.0455,-1.2447,0.010769231,-0.009653846,3.176846154,1.807692308,-1,-1,0,111.6,-1,-1,-,-1,-1,40.496395,-3.38267,0.103,111.3,D3,Normal,motor
107,111.5,40.496235,-3.382969,591,3,5,235.9,0,0,2,0,1,-0.0095,-0.0091,-0.0007,-0.0123,-0.0098,-0.0039,-1.5642,0.0481,-1.2363,0.108,-0.022076923,3.165653846,1.846153846,-1,-1,0,111.4111111,-1,-1,-,-1,-1,40.496235,-3.38297,0.019,111.5,D3,Normal,motor
108,110.6,40.496086,-3.383272,591.1,3,5,234.8,1.055,0,2,0,1,-0.0167,0.0034,0.0109,-0.0141,0.0035,0.0094,-1.5639,0.0486,-1.2291,0.0926,-0.03304,3.13848,1.88,-1,-1,0,110.96,-1,-1,-,-1,-1,40.496086,-3.383272,0.017,110.6,D3,Normal,motor
109,110.5,40.495926,-3.383573,590.9,3,5,234.5,1.406,0,1,0,1,0.0018,0.0087,0.0055,0.002,0.0076,0.0061,-1.5688,0.0447,-1.224,0.02172,-0.01548,3.14,1.84,-1,-1,0,110.5333333,-1,-1,-,-1,-1,40.495926,-3.383573,0.038,110.5,D3,Normal,motor
110,110.4,40.495762,-3.383868,591.2,4,5,234.1,0.703,0,1,0,1,-0.0051,0.0009,0.0053,-0.007,0.0003,0.0056,-1.5752,0.0413,-1.2218,-0.015923077,-0.0135,3.160423077,1.884615385,-1,-1,0,110.4375,-1,-1,-,-1,-1,40.495762,-3.383868,0.017,110.4,D3,Normal,motor
111,111,40.495598,-3.384154,591.1,3,5,233.8,0.703,0,1,0,1,-0.0142,-0.0024,0.0133,-0.0161,-0.0022,0.0125,-1.5724,0.0441,-1.2189,-0.08984,-0.00576,3.1348,1.84,-1,-1,0,110.7428571,-1,-1,-,-1,-1,40.495598,-3.384154,0.017,111,D3,Normal,motor
112,111,40.495434,-3.384447,591.3,4,5,233.8,0.352,0,1,0,1,-0.0064,0.0042,0.0124,-0.0052,0.0037,0.0132,-1.5727,0.0426,-1.2157,-0.154458333,-0.028958333,3.098458333,1.791666667,-1,-1,0,111,-1,-1,-,-1,-1,40.495434,-3.384447,0.046,111,D3,Normal,motor
113,112.8,40.495262,-3.384753,591.3,4,5,232.4,1.406,0,1,0,1,-0.0149,0.0024,0.0103,-0.0138,0.0042,0.011,-1.5729,0.0416,-1.2137,-0.20808,-0.00708,3.12396,1.8,-1,-1,0.125,112.125,-1,-1,-,-1,-1,40.495262,-3.384753,0.117,112.8,D3,Normal,motor
114,111.7,40.495083,-3.385042,591.7,4,5,232.7,1.055,0,1,0,1,0.0219,0.0075,0.0073,0.0148,0.0072,0.0073,-1.5725,0.0449,-1.2119,-0.231347826,0.021043478,3.131695652,1.913043478,-1,-1,0,112.1714286,-1,-1,-,-1,-1,40.495083,-3.385043,0.014,111.7,D3,Normal,motor
115,112.1,40.494907,-3.385331,591.8,4,5,232,0.703,0,1,0,1,-0.025,-0.0046,0.0088,-0.0176,-0.0057,0.0089,-1.574,0.0448,-1.2055,-0.216769231,0.032846154,3.181038462,1.846153846,-1,-1,0,111.95,-1,-1,-,-1,-1,40.494907,-3.385331,0.02,112.1,D3,Normal,motor
116,112.5,40.494732,-3.385619,591.7,3,5,231.7,1.055,0,1,0,1,0.0011,-0.0083,0.0129,0.0017,-0.004,0.0125,-1.5749,0.0537,-1.2004,-0.357952381,0.010238095,3.127,1.714285714,-1,-1,0,112.35,-1,-1,-,-1,-1,40.494732,-3.385619,0.043,112.5,D3,Normal,motor
117,113.5,40.494572,-3.38589,591.9,4,5,230.6,1.406,2,1,0,1,-0.0101,-0.0098,0.0042,-0.0117,-0.0123,0.0039,-1.5797,0.0686,-1.1879,-0.70104,-0.03076,3.13732,1.84,-1,-1,0,113.125,-1,-1,-,-1,-1,40.494572,-3.385891,0.029,113.5,D3,Normal,motor
118,114.1,40.494385,-3.386175,592.3,3,5,229.9,1.758,0,1,0,1,-0.0027,0.0211,0.0057,-0.0034,0.0167,0.0047,-1.5741,0.0616,-1.1805,-0.61736,-0.03432,3.21232,0.84,-1,-1,0,113.875,-1,-1,-,-1,-1,40.494385,-3.386176,0.01,114.1,D3,Normal,motor
119,114.2,40.494198,-3.38646,591.8,4,5,229.6,1.055,0,1,0,1,-0.0054,0.0278,0.0045,-0.0073,0.0288,0.0067,-1.5755,0.0375,-1.1846,0,0,3.291375,0,-1,-1,0,114.175,-1,-1,-,-1,-1,40.494198,-3.386461,0.061,114.2,D3,Normal,motor
120,114.4,40.494015,-3.386739,592.2,4,5,229.2,0.703,0,1,0,1,-0.004555556,-0.003888889,0.000111111,0.000555556,-0.004555556,0.000111111,-1.582111111,0.026333333,-1.188555556,0.154357143,0.033892857,3.300535714,0.678571429,-1,-1,0.625,114.325,-1,-1,-,-1,-1,40.494015,-3.386739,0.013,114.4,D3,Normal,motor
121,114.7,40.493824,-3.387025,592.8,4,5,228.9,0.703,0,1,0,1,-0.002,-0.005,0.0035,0,-0.0049,0.0034,-1.5785,0.0247,-1.1917,0.445318182,-0.036045455,3.2875,1.772727273,-1,-1,1,114.5875,-1,-1,-,-1,-1,40.493824,-3.387025,0.019,114.7,D3,Normal,motor
122,115.5,40.493633,-3.387305,592.6,3,5,229.2,0.352,0,1,0,1,0.0108,0.0128,0.0011,0.0111,0.0128,0.0027,-1.572,0.0266,-1.1997,0.056111111,-0.062703704,3.359074074,1.740740741,-1,-1,1,115.2333333,-1,-1,-,-1,-1,40.493633,-3.387305,0.014,115.5,D3,Normal,motor
123,115.7,40.493443,-3.387582,592.9,3,5,229.2,0.352,0,0,0,1,-0.012,0.003,-0.0021,-0.0108,0.0009,-0.003,-1.5694,0.0329,-1.2033,-0.238583333,-0.016583333,3.350958333,1.666666667,10.17285714,-0.514285714,1.142857143,115.6142857,-1,-1,-,-1,-1,40.493443,-3.387582,0.053,115.7,D3,Normal,motor
124,115.9,40.493259,-3.387865,592.7,3,5,228.9,0.352,0,0,0,1,-0.0088,0.0027,0.0032,-0.0105,0.0056,0.0039,-1.571,0.0322,-1.2053,-0.367772727,0.016954545,3.225863636,1.772727273,-1,-1,1,115.8142857,-1,-1,-,-1,-1,40.493259,-3.387865,0.03,115.9,D3,Normal,motor
125,116.2,40.493065,-3.388149,592.3,3,5,228.9,0.352,0,1,0,1,-0.0088,0.0011,0.0055,-0.0069,-0.0013,0.0046,-1.577,0.033,-1.2046,-0.395434783,0.026173913,3.203695652,1.739130435,-1,-1,0.833333333,116.1,-1,-1,-,-1,-1,40.493065,-3.388149,0.013,116.2,D3,Normal,motor
126,117.3,40.49287,-3.38844,592.3,3,5,228.2,0.703,0,1,0,1,-0.0212,0.0036,-0.0044,-0.0175,0.0037,-0.0024,-1.579,0.0387,-1.2039,-0.40875,0.022392857,3.213321429,1.714285714,-1,-1,0.142857143,116.9857143,-1,-1,-,-1,-1,40.49287,-3.38844,0.021,117.3,D3,Normal,motor
127,116.7,40.492672,-3.388723,593.7,3,5,227.5,1.406,0,1,0,1,-0.0025,0.009,-0.0114,-0.0101,0.0109,-0.013,-1.5813,0.0449,-1.2026,-0.371185185,0.021037037,3.179518519,1.740740741,-1,-1,0,116.8714286,-1,-1,-,-1,-1,40.492672,-3.388723,0.089,116.7,D3,Normal,motor
128,117.6,40.492477,-3.389018,594.6,3,5,227.8,0.352,0,1,0,1,-0.0034,-0.0086,-0.0037,-0.0035,-0.0065,-0.0032,-1.5807,0.0407,-1.2011,-0.380807692,0.026153846,3.1475,1.769230769,-1,-1,0,117.3428571,-1,-1,-,-1,-1,40.492477,-3.389018,0.118,117.6,D3,Normal,motor
129,117.8,40.492287,-3.38931,595.6,3,5,227.1,0.703,1,1,0,1,-0.006111111,0.002333333,0.001333333,-0.001777778,-0.001888889,-0.000666667,-1.572444444,0.034777778,-1.198222222,-0.45856,0.01612,3.15744,1.72,-1,-1,0,117.7142857,-1,-1,-,-1,-1,40.492287,-3.389311,0.028,117.8,D3,Normal,motor
130,118.3,40.492085,-3.389595,590.3,4,5,226.8,1.055,1,1,0,1,-0.010666667,0.008333333,0.006666667,-0.013333333,0.008666667,0.006444444,-1.575777778,0.034888889,-1.199555556,-0.399619048,0.023857143,3.140190476,1.666666667,-1,-1,0,118.05,-1,-1,-,-1,-1,40.492085,-3.389595,0.073,118.3,D3,Normal,motor
131,119.4,40.491882,-3.38988,591.8,4,5,226.8,0.352,0,1,0,1,-0.0025,0.0003,0.0004,-0.0033,-0.0021,0.0026,-1.5696,0.036,-1.1986,-0.320130435,0.028086957,3.205652174,1.652173913,-1,-1,0.714285714,118.9285714,-1,-1,-,-1,-1,40.491882,-3.38988,0.109,119.4,D3,Normal,motor
132,119.2,40.491676,-3.390162,592.2,4,5,226.4,0.352,0,1,0,1,-0.0092,0.0044,-0.0041,-0.0102,0.0051,-0.0034,-1.5643,0.0374,-1.1992,-0.281086957,0.048304348,3.275521739,1.739130435,-1,-1,1,119.2857143,-1,-1,-,-1,-1,40.491676,-3.390162,0.064,119.2,D3,Normal,motor
133,118.9,40.491474,-3.390445,591.8,4,5,226.1,0.703,0,1,0,1,-0.0187,0.0037,-0.0156,-0.0188,0.0078,-0.0164,-1.5606,0.0331,-1.2015,-0.171272727,0.045863636,3.250272727,1.818181818,-1,-1,1,119.0285714,-1,-1,-,-1,-1,40.491474,-3.390445,0.024,118.9,D3,Normal,motor
134,118.2,40.491268,-3.390715,592.1,4,5,226.1,0.352,0,0,0,1,-0.0112,0.0013,-0.0049,-0.0119,-0.003,-0.0053,-1.5519,0.0226,-1.2031,-0.223833333,0.021208333,3.254083333,1.75,-1,-1,1,118.4333333,-1,-1,-,-1,-1,40.491268,-3.390716,0.03,118.2,D3,Normal,motor
135,117.7,40.491066,-3.391004,591.3,4,5,226.1,0,0,0,0,1,-0.0251,0.0161,-0.0153,-0.0238,0.0164,-0.0157,-1.5519,0.0147,-1.209,-0.383884615,0.027692308,3.266153846,1.769230769,-1,-1,0,117.9142857,-1,-1,-,-1,-1,40.491066,-3.391004,0.027,117.7,D3,Normal,motor
136,118.4,40.490856,-3.391282,590.2,4,5,226.4,0.352,0,0,0,1,-0.0161,0.0067,-0.0072,-0.014,0.0086,-0.0052,-1.5532,0.0098,-1.2164,-0.326666667,0.039875,3.261083333,1.666666667,-1,-1,0,118.1,-1,-1,-,-1,-1,40.490856,-3.391282,0.028,118.4,D3,Normal,motor
137,118.8,40.49065,-3.391567,593.7,4,5,227.1,1.055,0,0,0,1,-0.0104,-0.0055,-0.0113,-0.0122,-0.0058,-0.0118,-1.5575,0.015,-1.2227,-0.19876,0.01804,3.20932,1.8,-1,-1,0,118.6285714,-1,-1,-,-1,-1,40.49065,-3.391567,0.057,118.8,D3,Normal,motor
141,115.2,40.489853,-3.392662,591.6,4,5,226.1,0.352,0,0,0,1,-0.0087,0.0027,0.0138,-0.013,-0.0005,0.0148,-1.5562,0.03,-1.229,-0.011478261,-0.040478261,3.102043478,1.739130435,-1,-1,0,115.1625,120,1,motorway,3,-1,40.490448,-3.39185,2.87,115.2,D3,Normal,motor
143,115.6,40.489452,-3.393202,590.7,4,5,226.1,0.703,0,0,0,1,-0.0066,0.011,0.003,-0.006,0.0144,0.0043,-1.5642,0.0062,-1.2397,-0.254208333,0.027875,3.200708333,1.75,-1,-1,0,115.3857143,120,1,motorway,3,-1,40.489853,-3.392662,1.558,115.6,D3,Normal,motor
144,116.1,40.48925,-3.393478,590.3,4,5,226.4,1.055,0,0,0,1,-0.0289,0.0008,0.0014,-0.025,0.0005,0.0016,-1.5621,0.0051,-1.2457,-0.129521739,0.034086957,3.148652174,1.782608696,-1,-1,0.5,115.85,120,1,motorway,3,-1,40.489452,-3.393202,1.187,116.1,D3,Normal,motor
147,116.6,40.488636,-3.394298,589.8,4,5,226.1,0.352,0,0,0,1,-0.0073,0.0157,-0.0039,-0.0173,0.0196,-0.0034,-1.5648,0.0277,-1.2474,-0.03712,0.0308,3.15524,1.68,-1,-1,0,116.5142857,120,1,motorway,3,-1,40.489048,-3.39375,2.175,116.6,D3,Normal,motor
150,116.2,40.488033,-3.39511,589.1,3,5,226.4,0.352,0,0,0,1,-0.0152,0.028,-0.004,-0.0151,0.0292,-0.0032,-1.563,0.0064,-1.2603,0.283230769,0.037730769,3.189076923,1.846153846,-1,-1,0,116.3,120,1,motorway,3,-1,40.488438,-3.394573,1.629,116.2,D3,Normal,motor
151,115.2,40.487839,-3.395375,589.2,3,5,227.1,1.055,2,0,0,1,-0.0009,0.0025,-0.007,-0.0019,0.0062,-0.0069,-1.5604,-0.0075,-1.2691,0.872416667,0.048166667,3.151875,1.833333333,-1,-1,0,115.4857143,120,1,motorway,3,-1,40.488033,-3.39511,1.068,115.2,D3,Normal,motor
154,113.9,40.487251,-3.396205,589.2,3,5,225.4,2.109,0,0,0,1,0.0018,-0.0187,-0.003,-0.0004,-0.0217,-0.0022,-1.5485,0.0749,-1.2234,-0.172518519,0.015555556,3.118888889,1.814814815,-1,-1,0,114.2857143,120,1,motorway,3,1,40.48764,-3.395657,1.661,113.9,D3,Normal,motor
156,111.5,40.486843,-3.396716,588.9,3,5,222.9,2.461,0,0,0,1,-0.0197,0.0174,0.0125,-0.0159,0.0179,0.0128,-1.5507,0.0791,-1.1889,0.1066,-0.01792,3.08244,1.8,-1,-1,0,112.4142857,120,1,motorway,3,1,40.487251,-3.396205,1.363,114.7,D3,Normal,motor
157,112,40.486633,-3.396972,588.4,4,5,222.5,1.758,0,0,0,1,-0.0101,0.013,0.0007,-0.0151,0.0123,0.002,-1.5657,0.0721,-1.1815,0.144074074,-0.01837037,3.074222222,1.962962963,-1,-1,0,111.7857143,120,1,motorway,3,1,40.486843,-3.396716,0.889,112,D3,Normal,motor
158,112,40.486427,-3.397221,589.6,4,5,222.2,0.703,0,0,0,1,-0.0073,0.0094,-0.0046,-0.0062,0.0117,-0.0065,-1.5672,0.0581,-1.1773,0.218545455,-0.033136364,3.038909091,1.818181818,-1,-1,0,112,120,1,motorway,3,1,40.486633,-3.396972,0.965,112,D3,Normal,motor
159,111.6,40.486221,-3.397465,590.5,4,5,221.5,1.055,1,0,0,1,-0.0103,-0.0167,0.001,-0.0131,-0.0181,0.0025,-1.5692,0.0594,-1.171,0.299681818,-0.015681818,3.030181818,1.818181818,-1,-1,0,111.75,120,1,motorway,3,1,40.486427,-3.397221,0.934,111.6,D3,Normal,motor
160,111.9,40.486008,-3.397712,589,4,5,220.8,1.406,0,1,0,1,-0.009888889,-0.014222222,-0.003777778,-0.002444444,-0.011555556,-0.004444444,-1.570888889,0.069444444,-1.161222222,0.33988,-0.07176,3.09132,1.88,-1,-1,0,111.8142857,120,1,motorway,3,1,40.486221,-3.397465,0.753,111.9,D3,Normal,motor
161,111.8,40.48579,-3.397951,588.9,3,5,220.4,1.055,0,1,0,1,-0.0116,0.0075,-0.0043,-0.0095,0.0058,-0.0041,-1.5727,0.068,-1.1553,0.233125,-0.065666667,3.095083333,1.916666667,-1,-1,0.857142857,111.8285714,120,1,motorway,3,1,40.486008,-3.397712,1.248,111.8,D3,Normal,motor
163,112.4,40.485363,-3.398412,589.1,3,5,219,1.406,0,1,0,1,-0.0038,-0.005,0.0314,-0.0063,-0.0042,0.0287,-1.5887,0.051,-1.1546,0.165925926,-0.040703704,3.069925926,1.851851852,-1,-1,1,112.1142857,120,1,motorway,3,1,40.48558,-3.398182,0.647,112.4,D3,Normal,motor
164,113.7,40.485142,-3.398642,589.5,3,5,218.3,1.055,0,1,0,1,-0.0027,-0.0085,0.0107,-0.004,-0.0078,0.0132,-1.6051,0.0591,-1.1514,0.257851852,-0.089518519,3.059925926,1.777777778,-1,-1,1,113.3285714,120,1,motorway,3,1,40.485363,-3.398412,0.517,112.4,D3,Normal,motor
165,115.2,40.484909,-3.398889,589.8,3,5,218,1,0,1,0,1,-0.0285,-0.0096,-0.0002,-0.0178,-0.0075,-0.0019,-1.6009,0.0697,-1.1471,0.267434783,-0.147521739,3.07926087,1.739130435,-1,-1,1,114.5571429,120,1,motorway,3,1,40.485142,-3.398643,0.793,115.2,D3,Normal,motor
166,116.5,40.48468,-3.399119,589.6,3,5,217.3,1.061,0,1,0,1,0.0063,1.00E-04,0.0049,-0.0022,-0.0039,0.0089,-1.5866,0.067,-1.1442,0.229304348,-0.098434783,3.084304348,1.782608696,-1,-1,1,116.0125,120,1,motorway,3,1,40.484909,-3.398889,0.569,116.5,D3,Normal,motor
168,117.3,40.484203,-3.399577,589.6,3,5,216.4,0.859,0,1,0,1,0.0006,0.0101,-0.0092,-0.0045,0.0124,-0.0096,-1.5572,0.0306,-1.1602,-0.109259259,-0.027888889,3.104481481,1.814814815,-1,-1,1,117.38,120,1,motorway,3,1,40.48468,-3.399119,1.34,117.5,D3,Normal,motor
169,117.3,40.483967,-3.399805,589,3,5,217.1,0.746,0,1,0,1,-0.0186,0.019,-0.0058,-0.0206,0.0188,-0.0081,-1.5451,0.0137,-1.1755,-0.17273913,-0.013652174,3.10173913,1.782608696,-1,-1,1,117.3,120,1,motorway,3,1,40.484203,-3.399577,1.274,117.3,D3,Normal,motor
171,116.4,40.483486,-3.400271,588.5,3,5,216.9,0.229,0,1,0,1,0.0059,-0.0095,0.0018,-0.0009,-0.0073,-0.0005,-1.5393,0.0203,-1.1941,-0.098769231,0.004307692,3.069230769,1.807692308,32.76142857,0.874285714,1,116.4571429,120,1,motorway,3,1,40.483734,-3.400033,1.117,116.4,D3,Normal,motor
173,115.9,40.483025,-3.400712,587.4,3,5,217.6,0.636,0,1,0,1,-0.0082,0.0025,0.0154,-0.0132,0.0032,0.0153,-1.5338,0.021,-1.211,-0.123153846,-0.026230769,3.111076923,1.807692308,29.96142857,0.652857143,1,115.9428571,120,1,motorway,3,1,40.483257,-3.400491,1.25,115.9,D3,Normal,motor
175,115.3,40.482567,-3.40116,586.3,3,5,216.7,0.861,0,1,0,1,0.001,-0.0351,-0.0005,-0.002,-0.0315,0.0002,-1.5452,0.0132,-1.2227,-0.252586207,-0.008965517,3.170931034,1.75862069,36.32571429,0.995714286,1,115.4285714,120,1,motorway,3,1,40.482796,-3.400935,1.011,115.3,D3,Normal,motor
177,115.4,40.482098,-3.4016,585.2,3,5,216.3,0.96,2,1,0,1,-0.016,0.0268,-0.008,-0.0202,0.0227,-0.0081,-1.5567,0.0343,-1.2157,-1.009,-0.075230769,3.161192308,1.615384615,-1,-1,0.5,115.3625,120,1,motorway,3,2,40.48233,-3.401383,1.273,115.4,D3,Normal,motor
179,114.3,40.481625,-3.402032,584.9,3,5,216.3,0,0,1,0,1,-0.0092,0.0191,-0.0094,-0.0117,0.0223,-0.0102,-1.5527,0.0148,-1.2349,0,0,3.16,0,-1,-1,0,114.9,120,1,motorway,3,2,40.481861,-3.401816,1.01,114.3,D3,Normal,motor
181,114.8,40.481159,-3.402458,583.9,3,5,216.3,0,0,0,0,1,-0.0078,0.0055,-0.0087,-0.0122,0.0055,-0.0082,-1.5557,0.0085,-1.25,0.176291667,0.006041667,3.160625,1.125,-1,-1,0.125,114.725,120,1,motorway,3,2,40.481396,-3.402246,1.259,114.8,D3,Normal,motor
183,113.4,40.480698,-3.402902,583.9,3,5,216.9,0.555,0,0,0,1,0.0039,-0.0077,0.0041,-0.0006,-0.0056,0.0027,-1.5622,-0.0088,-1.2681,-0.099666667,-0.034458333,3.134291667,1.75,-1,-1,1,113.9,120,1,motorway,3,2,40.480934,-3.402673,1.12,113.4,D3,Normal,motor
185,114.7,40.480244,-3.40336,582.2,3,5,216.7,0.243,0,0,0,1,0.0023,-0.0071,-0.0136,0.0028,-0.0061,-0.0125,-1.5536,-0.0033,-1.2809,-0.0522,0.0276,3.08392,1.76,-1,-1,0,114.175,120,1,motorway,3,2,40.480469,-3.40313,0.952,114.7,D3,Normal,motor
186,114,40.480019,-3.403586,585.6,3,5,217.1,0.405,0,0,0,1,-0.009,-0.0074,-0.0018,-0.006,-0.006,-0.0025,-1.5388,-0.0057,-1.2888,-0.09416,0.01536,3.17572,1.68,-1,-1,0,114.3,120,1,motorway,3,2,40.480244,-3.40336,1.07,114,D3,Normal,motor
188,112.4,40.479565,-3.404036,581.8,3,5,217.5,0.404,0,0,0,1,-0.0117,0.028,0.0007,-0.0169,0.0302,0.0001,-1.5439,-0.0181,-1.3149,-0.085538462,-0.037038462,3.192192308,1.769230769,-1,-1,1.571428571,112.5285714,120,1,motorway,3,2,40.47979,-3.403812,1.046,112.4,D3,Normal,motor
190,112.4,40.479141,-3.40449,580.3,3,5,221.1,3.66,0,0,0,1,-0.016888889,0.015777778,0.012222222,-0.016,0.012888889,0.011333333,-1.553777778,-0.029777778,-1.349333333,-0.316458333,0.022166667,3.180208333,1.666666667,-1,-1,2,112.7,120,1,motorway,3,2,40.479355,-3.404256,1.054,112.4,D3,Normal,motor
193,114,40.478508,-3.40524,580.7,4,5,223.2,1.751,0,0,0,1,-0.0165,-0.0177,-0.0069,-0.0086,-0.0174,-0.0046,-1.569,-0.0368,-1.4041,0.07548,0.05416,3.09808,1.64,-1,-1,1,113.6571429,120,1,motorway,3,2,40.47892,-3.404741,1.356,113.2,D3,Normal,motor
194,114.6,40.478302,-3.4055,580.7,3,5,223.6,2.152,0,0,0,1,0.0014,-0.0015,0.0064,-0.003,-0.0025,0.0037,-1.5637,-0.0257,-1.4124,0.21273913,-0.014608696,3.075652174,1.782608696,15.84,0.082857143,1.714285714,114.3428571,120,1,motorway,3,2,40.478508,-3.405241,1.024,114.6,D3,Normal,motor
196,114.5,40.477901,-3.40603,580.2,3,5,225.4,1.758,0,0,0,1,-0.0055,0.0135,-0.003,-0.0042,0.0127,-0.0019,-1.5706,-0.0324,-1.4329,0.1596,-0.05824,3.12504,1.76,31.96142857,1.004285714,1,114.5,120,1,motorway,3,2,40.478104,-3.405761,0.766,114.5,D3,Normal,motor
197,115.6,40.477695,-3.406302,580,3,5,226.4,2.109,0,0,0,1,-0.0011,0.0051,0.0015,-0.0037,0.002,0.0011,-1.5661,-0.0383,-1.4437,0.047956522,-0.029304348,3.141652174,1.739130435,35.42,1.106666667,1,115.2333333,120,1,motorway,3,2,40.477901,-3.406031,1.163,115.6,D3,Normal,motor
200,116.5,40.477104,-3.407136,578.2,3,5,229.2,2.461,0,0,0,1,-0.0278,0.0026,-0.006,-0.0272,0.0033,-0.0071,-1.5715,-0.0333,-1.4671,-0.122115385,-0.001384615,3.161384615,1.730769231,46.872,1.45,1,116.3,120,1,motorway,3,2,40.477493,-3.406576,1.571,116.5,D3,Normal,motor
201,116.6,40.476917,-3.407426,578.2,3,5,229.9,1.758,0,0,0,1,-0.023,0.0029,-0.0077,-0.028,0.0047,-0.0085,-1.577,-0.0455,-1.4712,-0.152782609,0.028217391,3.162521739,1.913043478,42.625,1.31625,1.75,116.5625,120,1,motorway,3,2,40.477104,-3.407137,1.13,116.6,D3,Normal,motor
204,116.7,40.476379,-3.408324,577.3,3,5,232.7,1.758,0,0,0,1,-0.0044,0.003,0.0051,-0.0044,0.0041,0.0055,-1.5732,-0.0506,-1.494,-0.059846154,0.020076923,3.125346154,1.769230769,23.76285714,0.315714286,1,116.8714286,120,1,motorway,3,2,40.476738,-3.407721,1.395,117.1,D3,Normal,motor
206,118.5,40.476036,-3.408958,581.5,3,5,234.8,2.109,0,0,0,1,-0.0168,-0.0037,-0.0179,-0.0162,-0.0049,-0.0167,-1.5727,-0.0292,-1.499,0.063448276,0.092724138,3.273034483,1.75862069,-1,-1,1,118.4142857,120,1,motorway,3,2,40.476379,-3.408324,1.326,118.3,D3,Normal,motor
208,117.6,40.4757,-3.409602,578.5,3,5,236.6,1.758,0,0,0,1,-0.0133,0.0097,-0.0068,-0.0194,0.0106,-0.0095,-1.559,-0.0382,-1.5068,0.278,-0.02696,3.13316,1.68,-1,-1,1,117.675,120,1,motorway,3,2,40.476036,-3.408958,1.794,117.6,D3,Normal,motor
210,115.5,40.475399,-3.410262,579.3,3,5,239.8,3.164,2,0,0,1,-0.012555556,0.008555556,-0.012333333,-0.013,0.014555556,-0.009777778,-1.553888889,-0.080222222,-1.540444444,0.90416,0.05196,3.16272,1.52,-1,-1,1,115.95,120,1,motorway,3,2,40.4757,-3.409603,1.417,116.7,D3,Normal,motor
211,115,40.475254,-3.410585,578.2,3,5,241.5,3.867,0,0,0,1,-0.0094,-0.0552,0.0004,-0.0097,-0.0532,-0.0002,-1.5413,-0.0453,-1.5383,0,0,3.137,0,27.19,0.72875,1,115.1875,120,1,motorway,3,1,40.475399,-3.410262,1.263,115,D3,Normal,motor
214,113.3,40.47485,-3.411574,578.1,3,5,242.6,1.406,0,0,0,1,-0.0079,-0.0227,0.0047,-0.0097,-0.0179,0.0042,-1.5753,-0.0206,-1.5136,-0.358181818,0.027590909,2.975272727,1.909090909,24.4525,0.76875,1,114.275,120,1,motorway,3,1,40.475121,-3.410913,1.314,115.9,D3,Normal,motor
216,115,40.474586,-3.412241,579.1,3,5,242.6,0.352,0,0,0,1,-0.0055,-0.0027,0.014,-0.0089,-0.004,0.0121,-1.5868,0.0081,-1.4827,-0.769925926,-0.043814815,3.107148148,1.185185185,14.09142857,0.165714286,1,114.8,120,1,motorway,3,1,40.47485,-3.411574,1.357,114.3,D3,Normal,motor
218,116.4,40.474323,-3.412924,579.8,3,5,244,1.406,0,0,0,1,-0.0386,0.0474,-0.0056,-0.0364,0.0466,-0.0044,-1.5926,-0.0487,-1.4936,0.161608696,0.019782609,3.155608696,0.956521739,-1,-1,1,116.2875,120,1,motorway,3,2,40.474586,-3.412241,1.338,116.1,D3,Normal,motor
219,117,40.474205,-3.413271,580.6,3,5,246.1,2.812,0,0,0,1,-0.0313,0.0128,-0.0079,-0.0303,0.0161,-0.0064,-1.5955,-0.0486,-1.5076,0.157458333,-0.024833333,3.101166667,1.708333333,-1,-1,1,116.7428571,120,1,motorway,3,2,40.474323,-3.412925,0.635,117,D3,Normal,motor
220,117.6,40.474087,-3.413625,580.2,4,5,247.1,3.164,0,0,0,1,-0.0131,0.0179,-0.0112,-0.0176,0.0174,-0.0127,-1.6013,-0.0488,-1.5166,0.098541667,-0.029375,3.118166667,1.666666667,-1,-1,1,117.4285714,120,1,motorway,3,2,40.474205,-3.413272,1.005,117.6,D3,Normal,motor
222,117.1,40.473877,-3.41435,581.4,3,5,250,2.812,0,0,0,1,-0.0087,-0.0096,-0.0055,-0.0056,-0.0044,-0.0054,-1.5806,-0.0612,-1.534,0.089541667,0.020958333,3.158291667,1.75,-1,-1,0,117.175,120,1,motorway,3,2,40.473976,-3.413985,0.808,117.1,D3,Normal,motor
223,115.9,40.473778,-3.414707,581.9,3,5,250.7,2.109,0,0,0,1,-0.0109,-0.0147,0.0029,-0.0128,-0.0176,0.0004,-1.5723,-0.0524,-1.534,0.1155,0.024625,3.157875,1.75,-1,-1,0,116.2428571,120,1,motorway,3,2,40.473877,-3.414351,1.133,115.9,D3,Normal,motor
226,117,40.473507,-3.415795,583.4,3,5,252.4,0.703,1,0,0,1,-0.0032,0.0059,-1.73E-19,-0.0036,0.0037,0.0008,-1.5647,0.0033,-1.5129,0.335913043,0.009478261,3.09826087,1.782608696,-1,-1,0,116.875,120,1,motorway,3,2,40.473686,-3.415068,1.395,116.5,D3,Normal,motor
227,116.6,40.473415,-3.41616,583.6,3,5,252.8,0.352,2,0,0,1,0.0149,0.0116,0.0047,0.0159,0.012,0.0043,-1.5514,-0.0101,-1.5078,0.727227273,0.057545455,3.101363636,1.818181818,-1,-1,0,116.7142857,120,1,motorway,3,2,40.473507,-3.415796,1.029,116.6,D3,Normal,motor
229,115.1,40.473251,-3.416878,584.1,3,5,253.5,0.703,0,1,0,1,0.005,-0.0085,-0.0006,0.0007,-0.0058,-0.0006,-1.553,0.0211,-1.4872,0,0,3.124555556,0,-1,-1,0,115.2875,120,1,motorway,3,1,40.473331,-3.416522,1.076,115.1,D3,Normal,motor
231,114.9,40.473087,-3.417599,583.2,3,5,253.1,0.352,0,1,0,1,-0.0025,-0.0044,-0.0013,-0.0012,-0.0042,-0.0033,-1.5559,0.0401,-1.4497,-0.01965,0.0513,3.0595,1.8,-1,-1,0,114.9,120,1,motorway,3,1,40.473171,-3.417239,0.717,114.9,D3,Normal,motor
232,117.1,40.473003,-3.417964,583.2,3,5,252.4,0.703,0,1,0,1,-0.0027,-0.0138,0.0007,-0.0037,-0.0151,0.0024,-1.5589,0.0561,-1.4289,0.223761905,0.022571429,3.036571429,1.80952381,-1,-1,0,116.4714286,120,1,motorway,3,1,40.473087,-3.417599,0.945,117.1,D3,Normal,motor
233,114.4,40.472916,-3.418322,582.4,3,5,251.7,1.406,0,1,0,1,0.003,0.0239,-0.0093,0.0043,0.021,-0.0088,-1.5531,0.0466,-1.4131,0.166761905,-0.037714286,3.043380952,1.904761905,-1,-1,0,115.75,120,1,motorway,3,1,40.473003,-3.417964,1.04,114.4,D3,Normal,motor
235,113.6,40.472733,-3.419036,581.7,3,5,251.7,0,0,1,0,1,0.0041,0.0008,-0.0081,0.0076,0.0012,-0.0077,-1.5481,0.0276,-1.4038,0.162758621,-0.12,3.083448276,1.862068966,-1,-1,0,113.5333333,120,1,motorway,3,1,40.472824,-3.418679,0.708,113.6,D3,Normal,motor
236,113.2,40.472645,-3.419393,581.6,3,5,251.7,0,0,1,0,1,-0.0029,-0.0055,0.0048,-0.0043,-0.003,0.0036,-1.543,0.0243,-1.3981,0.235846154,-0.141115385,3.136923077,1.807692308,-1,-1,0,113.3714286,120,1,motorway,3,1,40.472733,-3.419036,0.836,113.2,D3,Normal,motor
237,113.3,40.472553,-3.419742,581.1,3,5,252.1,0.352,0,0,0,1,-0.0032,-0.0053,-0.0024,-0.0076,-0.0067,-0.0016,-1.5497,0.0377,-1.3915,0.305304348,-0.189869565,3.130608696,1.739130435,-1,-1,0,113.2625,120,1,motorway,3,1,40.472645,-3.419394,0.98,113.3,D3,Normal,motor
238,113,40.472473,-3.420096,580.5,3,5,251.7,0.352,0,0,0,1,-0.0245,0.0004,-0.009,-0.0187,0.0007,-0.0086,-1.5562,0.0408,-1.3835,0.297035714,-0.144571429,3.096785714,1.821428571,-1,-1,0,113.0857143,120,1,motorway,3,1,40.472553,-3.419743,0.986,113,D3,Normal,motor
239,113,40.472378,-3.420448,579.7,3,5,251.4,0.703,0,0,0,1,-0.0314,-0.0026,-0.0073,-0.0297,-0.0009,-0.0058,-1.5618,0.041,-1.3758,0.367173913,-0.144391304,3.087782609,1.913043478,-1,-1,0,113,120,1,motorway,3,1,40.472473,-3.420097,1.215,113,D3,Normal,motor
241,113.5,40.472202,-3.42115,578.8,3,5,251,0.352,0,0,0,1,-0.0155,0.0121,0.001,-0.0109,0.0156,0.0013,-1.5666,0.044,-1.3613,0.267285714,-0.04925,3.207214286,1.857142857,-1,-1,0,113.5,120,1,motorway,3,1,40.472282,-3.420797,0.856,113.5,D3,Normal,motor
242,113.7,40.472107,-3.421503,578.1,3,5,250.7,0.352,0,0,0,1,-0.0173,0.0041,-0.0037,-0.0198,0.0015,-0.0027,-1.5629,0.0313,-1.3559,0.30832,-0.10304,3.00984,1.72,-1,-1,0,113.6142857,120,1,motorway,3,1,40.472202,-3.421151,0.651,113.7,D3,Normal,motor
243,113.2,40.472008,-3.421854,578,3,5,250.7,0.352,0,0,0,1,-0.0021,0.0148,-0.0063,-0.0046,0.0183,-0.0056,-1.5588,0.0404,-1.3543,0.27726087,-0.09773913,3.085434783,1.826086957,-1,-1,0,113.3875,120,1,motorway,3,1,40.472107,-3.421503,0.591,113.2,D3,Normal,motor
244,112.7,40.471916,-3.422199,577.7,3,5,250.7,0,0,0,0,1,-0.005,-0.0035,-0.0042,-0.0012,-0.0034,-0.0062,-1.5505,0.0347,-1.3494,0.313130435,-0.015,3.034956522,1.913043478,-1,-1,0,112.8875,120,1,motorway,3,1,40.472008,-3.421854,0.416,113.2,D3,Normal,motor
245,112.3,40.471836,-3.422523,578.3,3,5,250.7,0,0,0,0,1,0.0036,-0.0181,0.0147,0.002,-0.0177,0.0143,-1.5447,0.0303,-1.3416,0.40896,-0.07104,2.94624,1.8,-1,-1,0,112.4142857,120,1,motorway,3,1,40.471916,-3.422199,0.751,112.3,D3,Normal,motor
246,112.4,40.471741,-3.422868,578.1,4,5,249.6,1.055,0,0,0,1,-0.0069,0.0017,0.0044,-0.0094,0.0009,0.0049,-1.5552,0.0398,-1.334,0.349818182,-0.087090909,3.022409091,1.818181818,-1,-1,0,112.3571429,120,1,motorway,3,1,40.471836,-3.422523,0.569,112.4,D3,Normal,motor
247,112.7,40.471645,-3.423191,576.9,4,5,249.3,1.406,0,0,0,1,-0.0175,-0.0233,0.0117,-0.0114,-0.0229,0.0108,-1.5629,0.0457,-1.3226,0.136772727,-0.066090909,3.032772727,1.909090909,-1,-1,0.5,112.5875,120,1,motorway,3,1,40.471741,-3.422868,0.588,112.7,D3,Normal,motor
248,112.8,40.471539,-3.423545,576.6,4,5,248.6,1.055,1,1,0,1,-0.0216,0.009,0.0007,-0.0246,0.007,0.0032,-1.5749,0.062,-1.3074,-0.4095,-0.090333333,3.054041667,1.791666667,-1,-1,1,112.7666667,120,1,motorway,3,1,40.471645,-3.423192,0.51,112.7,D3,Normal,motor
249,113.2,40.471439,-3.423878,576.4,4,5,247.9,1.406,0,1,0,1,-0.0079,0.0294,-0.0118,-0.007,0.0268,-0.0124,-1.5646,0.0487,-1.3017,-0.63872,-0.05412,3.09172,1,1.057142857,-0.795714286,1,113.0285714,120,1,motorway,3,1,40.471539,-3.423546,0.76,113.2,D3,Normal,motor
250,112.6,40.471336,-3.424224,576,4,5,247.9,0.703,0,1,0,1,-0.007,0.0206,-0.0058,-0.0094,0.0232,-0.0064,-1.5613,0.0212,-1.306,0,0,3.123,0,15.47857143,0.494285714,1,112.8571429,120,1,motorway,3,2,40.471439,-3.423878,0.559,112.6,D3,Normal,motor
251,112.6,40.47123,-3.424571,575.9,4,5,247.9,0,0,1,0,1,-0.0088,0.0065,0.0003,-0.0102,0.0075,-0.0013,-1.5586,0.0155,-1.3111,0,0,3.122304348,0,18.205,0.581666667,1.666666667,112.6,120,1,motorway,3,2,40.471336,-3.424224,0.613,112.6,D3,Normal,motor
252,112,40.47113,-3.424899,575.8,4,5,248.2,0.352,0,1,0,1,-0.0102,0.0024,0.0101,-0.0103,0.0023,0.0103,-1.5652,0.0194,-1.3145,0,0,3.122,0,21.11428571,0.678571429,2,112.2571429,120,1,motorway,3,2,40.47123,-3.424571,0.811,112,D3,Normal,motor
253,112.9,40.471024,-3.425245,575.3,4,5,247.9,0.352,0,1,0,1,-0.0149,-0.0003,0.002,-0.0133,-0.0023,0.003,-1.5743,0.0175,-1.3181,0.132772727,0.001545455,3.124681818,1.727272727,24.19166667,0.771666667,2,112.6,120,1,motorway,3,2,40.47113,-3.424899,0.835,112.9,D3,Normal,motor
255,114.7,40.47081,-3.425937,574.9,4,5,248.6,0.703,0,1,0,1,-0.0122,0.0242,-0.0122,-0.0146,0.0249,-0.0111,-1.6004,0.0139,-1.3343,-0.214409091,-0.012727273,3.012363636,1.818181818,30.75142857,0.967142857,1.428571429,114.3142857,120,1,motorway,3,2,40.471024,-3.425245,1.41,113.8,D3,Normal,motor
256,115.4,40.470703,-3.426284,575.1,4,5,248.6,0.352,0,1,0,1,-0.0473,0.0161,-0.0284,-0.0431,0.0136,-0.0277,-1.5896,0.013,-1.3434,-0.21248,0.0316,3.12284,1.64,38.2325,1.19625,1,115.05,120,1,motorway,3,2,40.47081,-3.425937,1.121,115.4,D3,Normal,motor
258,114,40.470497,-3.426992,577.3,4,5,250,1.406,0,1,0,1,0.0007,-0.0015,-0.0119,0.0002,-0.0005,-0.0124,-1.5726,0.0047,-1.3648,-0.18376,0.08272,3.11476,1.68,38.28166667,1.208333333,1,114.2666667,120,1,motorway,3,2,40.470596,-3.426637,1.223,114,D3,Normal,motor
260,114.1,40.470306,-3.42769,578.2,4,5,250.3,0.352,0,1,0,1,-0.0151,-0.002,0.0168,-0.0139,-0.0037,0.0196,-1.5882,0.0083,-1.3755,-0.06628,0.119,3.12208,1.64,37.615,1.196666667,1,113.05,120,1,motorway,3,2,40.470409,-3.42734,0.923,114.1,D3,Normal,motor
261,114.2,40.470211,-3.428047,575.6,4,5,250.7,0.703,0,1,0,1,-0.003555556,0.002777778,0.002333333,-0.003111111,0.003888889,0.002444444,-1.590666667,0.004777778,-1.379444444,0.273153846,0.039269231,3.1195,1.884615385,37.13,1.172857143,1,114.1571429,120,1,motorway,3,2,40.470306,-3.42769,1.168,114.2,D3,Normal,motor
264,115.3,40.469929,-3.42911,579,4,5,251.4,0.703,0,1,0,1,-0.0112,0.0117,-0.0075,-0.0093,0.0136,-0.0052,-1.5997,-0.0032,-1.3888,0.18,-0.050952381,3.045809524,1.666666667,36.44285714,1.14,1,115.0857143,120,1,motorway,3,2,40.470123,-3.428394,1.322,114.8,D3,Normal,motor
266,115.4,40.469753,-3.429838,579.8,3,5,252.4,1.055,0,1,0,1,-0.0058,0.0166,-0.0304,-0.0036,0.0174,-0.0314,-1.5681,-0.0412,-1.4167,-0.179842105,-0.036473684,3.406421053,1.684210526,43.18625,1.3475,2,115.55,120,1,motorway,3,2,40.469929,-3.42911,1.94,115.4,D3,Normal,motor
268,113.6,40.469593,-3.430564,581.6,3,5,254.5,2.109,0,1,0,1,-0.0114,-0.0052,0.0065,-0.01,-0.0056,0.0053,-1.5465,-0.0442,-1.4402,-0.367521739,0.04326087,3.464347826,1.739130435,60.58142857,1.914285714,2,113.9428571,120,1,motorway,3,2,40.469753,-3.429839,1.997,113.6,D3,Normal,motor
269,113,40.469517,-3.430923,581.4,3,5,255.2,1.406,0,1,0,1,-0.0109,-0.0042,0.0089,-0.0121,-0.0036,0.0096,-1.5414,-0.0331,-1.4477,-0.385,-0.00224,3.88052,1.64,70.126,2.23,2,113.24,120,1,motorway,3,2,40.469593,-3.430565,1.141,113,D3,Normal,motor
272,111.9,40.469315,-3.432009,583.8,3,5,257.7,1.406,1,1,0,1,-0.0046,-0.0075,0.0009,-0.006,-0.0062,0.0013,-1.5912,-0.0322,-1.4756,-0.544904762,0.026095238,3.499,1.666666667,57.05,1.815,1.5,113.05,120,1,motorway,3,2,40.46944,-3.431288,1.844,111.9,D3,Normal,motor
273,115.2,40.469257,-3.432376,586.1,4,5,258.8,1.758,0,1,0,1,-0.0114,-0.0209,0.0058,-0.0091,-0.0173,0.0064,-1.5966,-0.025,-1.4782,-0.380095238,0.076238095,3.514380952,1.80952381,31.45285714,0.861428571,1,113.7857143,120,1,motorway,3,2,40.469315,-3.432009,1.115,115.2,D3,Normal,motor
275,117.4,40.469128,-3.433131,585,4,5,258.8,0.352,0,1,0,1,0.0024,-0.0105,0.0007,-0.0028,-0.0091,1.00E-04,-1.5898,0.007,-1.4554,-0.271481481,0.053703704,3.518962963,1.814814815,-1,-1,1,117.0666667,120,1,motorway,3,2,40.469189,-3.432764,1.043,117.4,D3,Normal,motor
277,118.2,40.469009,-3.433884,585.9,3,5,258.8,0.352,0,1,0,1,-0.0098,0.0154,-0.0261,-0.0029,0.0171,-0.023,-1.5861,-0.0116,-1.4388,-0.266724138,0.036,3.443034483,1.655172414,-1,-1,1,118.15,120,1,motorway,3,2,40.469063,-3.43351,1.274,118.2,D3,Normal,motor
280,117,40.468819,-3.435046,587.4,4,5,258,0.703,0,1,0,1,-0.003444444,0.001111111,-0.006333333,-0.006777778,0.002444444,-0.007444444,-1.551222222,-0.010555556,-1.404222222,-0.18152381,0.013904762,3.482952381,1.619047619,-1,-1,0,117.2571429,120,1,motorway,3,2,40.468945,-3.434274,1.367,117.6,D3,Normal,motor
281,116.6,40.468758,-3.435422,589.4,4,5,258,0.352,0,1,0,1,0.0095,0.0023,-0.0082,0.011,-1.00E-04,-0.0079,-1.5498,-0.0171,-1.3969,-0.180208333,-0.015583333,3.370458333,1.708333333,-1,-1,0,116.75,120,1,motorway,3,2,40.468819,-3.435046,1.269,116.6,D3,Normal,motor
284,115.1,40.468571,-3.436534,588.1,3,5,257.3,0.352,0,1,0,1,-0.002,0.011,-0.0007,0.0058,0.0093,0.0008,-1.5295,0.0014,-1.3717,-0.101461538,0.019384615,3.441653846,1.730769231,-1,-1,1,115.2142857,120,1,motorway,3,2,40.468689,-3.435797,1.572,115.1,D3,Normal,motor
286,114.9,40.468441,-3.437269,589.3,3,5,256.6,0.703,0,1,0,1,-0.0139,0.0177,0.0175,-0.0136,0.0118,0.0189,-1.5456,0.0169,-1.3566,-0.164703704,-0.007222222,3.449074074,1.777777778,-1,-1,1,114.8666667,120,1,motorway,3,2,40.468571,-3.436534,1.791,114.9,D3,Normal,motor
287,115.3,40.468376,-3.437629,590.6,3,5,256.6,0.352,0,0,0,1,-0.0347,0.02,0.0141,-0.0342,0.0236,0.0137,-1.5508,0.0169,-1.3571,-0.29688,0.00356,3.44476,1.76,-1,-1,1,115.15,120,1,motorway,3,2,40.468441,-3.437269,1.236,115.3,D3,Normal,motor
289,116,40.46825,-3.438376,587.3,3,5,257,0.352,0,0,0,1,-0.003,0.0018,-0.0071,-0.0033,0.0045,-0.0055,-1.55,0.0187,-1.3585,-0.02072,0.0474,3.5368,1.76,-1,-1,1.857142857,116.1714286,120,1,motorway,3,2,40.468315,-3.438005,1.145,116,D3,Normal,motor
291,117,40.468132,-3.439123,586.3,3,5,256.6,0.352,0,0,0,1,-0.007,0.0084,-0.0119,-0.0054,0.0077,-0.0123,-1.5257,0.0127,-1.3552,0.080958333,-0.002958333,3.469333333,1.666666667,-1,-1,2,117.15,120,1,motorway,3,2,40.468185,-3.438747,1.242,117,D3,Normal,motor
294,114.3,40.467937,-3.440232,584.5,4,5,257.3,0.703,0,0,0,1,-0.0075,0.0152,0.0144,-0.0114,0.0129,0.0124,-1.5232,0.006,-1.3656,0.123961538,-0.047653846,3.466653846,1.730769231,48.4825,1.40375,1,114.45,120,1,motorway,3,2,40.468067,-3.439497,1.491,114.7,D3,Normal,motor
295,114.5,40.467876,-3.4406,583.3,4,5,257.7,0.703,0,0,0,1,-0.0151,0.04,0.0111,-0.0113,0.042,0.0133,-1.539,-0.0226,-1.3851,-0.078380952,-0.036047619,3.418142857,1.714285714,81.03285714,2.548571429,1,114.4428571,120,1,motorway,3,2,40.467937,-3.440232,1.067,114.5,D3,Normal,motor
298,114.9,40.467705,-3.441704,587.5,3,5,260.5,1.406,0,0,0,1,-0.0137,0.0035,0.0025,-0.0104,0.0001,0.0025,-1.5597,-0.0307,-1.4303,0.24026087,-0.02326087,3.436173913,1.739130435,109.4566667,3.428333333,1,114.95,120,1,motorway,3,2,40.467812,-3.440967,1.634,114.9,D3,Normal,motor
299,115.6,40.467667,-3.442068,585.2,4,5,261.2,1.406,0,0,0,1,-0.0172,-0.0039,0.0054,-0.0176,-0.0035,0.0061,-1.5648,-0.0331,-1.4441,0.34148,-0.0244,3.43688,1.68,101.7366667,3.178333333,2,115.25,120,1,motorway,3,2,40.467705,-3.441704,1.083,115.6,D3,Normal,motor
301,116.6,40.467579,-3.442822,582.8,3,5,262.6,1.406,0,0,0,1,-0.0132,-0.0083,-0.0256,-0.0166,-0.0066,-0.0256,-1.5594,-0.0121,-1.4617,0.399038462,0.020538462,3.437615385,1.653846154,-1,-1,2,116.4,120,1,motorway,3,2,40.467613,-3.442449,0.956,116.6,D3,Normal,motor
302,116.2,40.467541,-3.4432,583.4,3,5,262.6,0.703,0,0,0,1,-0.022,0.0057,-0.0307,-0.0252,0.0022,-0.0289,-1.5444,-0.012,-1.4661,0.139416667,-0.038041667,3.524791667,1.708333333,109.0742857,3.1,2.714285714,116.3714286,120,1,motorway,3,2,40.467579,-3.442823,0.782,116.2,D3,Normal,motor
303,115.2,40.467503,-3.443578,583.2,3,5,263.7,1.055,0,0,0,1,-0.018,-0.0063,-0.0251,-0.0062,-0.0014,-0.025,-1.5408,-0.011,-1.476,-0.149458333,-0.026375,3.483041667,1.75,118.1816667,3.516666667,3,115.5333333,120,1,motorway,3,2,40.467541,-3.443201,0.863,115.2,D3,Normal,motor
305,113.5,40.46743,-3.444314,583.3,3,5,263.7,0,0,0,0,1,-0.0056,-0.0041,0.0029,-0.0082,-0.0063,0.0035,-1.5339,0.0143,-1.4692,-0.08328,0.05844,3.58896,1.76,-1,-1,2,113.7,120,1,motorway,3,2,40.467503,-3.443578,1.348,114.1,D3,Normal,motor
307,113.2,40.467365,-3.445045,584.1,3,5,263.7,0,0,0,0,1,-0.0247,-0.0011,0.0221,-0.0233,0.0008,0.0238,-1.5618,0.0178,-1.4561,-0.147291667,0.009833333,3.361875,1.708333333,4.688571429,-0.681428571,2,112.8571429,120,1,motorway,3,2,40.46743,-3.444315,1.596,113.2,D3,Normal,motor
309,114.8,40.467304,-3.445794,582.9,3,5,263.3,0.352,0,0,0,1,-0.0195,0.0053,-0.019,-0.0138,0.0043,-0.0156,-1.5651,0.014,-1.45,-0.08608,-0.01404,3.35764,1.84,15.225,-0.168333333,1,114.7666667,120,1,motorway,3,2,40.467365,-3.445045,1.491,114.7,D3,Normal,motor
310,114.4,40.467274,-3.446159,582.6,3,5,263.7,0.352,0,0,0,1,-0.006,0.01,-0.015555556,-0.009666667,0.009333333,-0.015777778,-1.561,0.013777778,-1.446555556,-0.19836,0.01388,3.10332,1.44,17.68,-0.091666667,1,114.6,120,1,motorway,3,2,40.467304,-3.445794,0.724,114.4,D3,Normal,motor
311,114.4,40.467239,-3.446529,584.3,3,5,263.3,0.352,0,0,0,1,-0.0162,0.0153,-0.0128,-0.0135,0.0145,-0.0124,-1.5621,0.0226,-1.4442,-0.386413793,0.018724138,3.405689655,1.655172414,-1,-1,1,114.4,120,1,motorway,3,2,40.467274,-3.446159,0.898,114.4,D3,Normal,motor
312,114.1,40.467205,-3.446904,584.8,3,5,263.7,0.352,0,0,0,1,-0.0213,0.0185,-0.0214,-0.0297,0.0213,-0.0236,-1.5585,0.0277,-1.4417,-0.2685,0.005272727,3.388409091,1.681818182,43.03333333,1.195,2.333333333,114.2,120,1,motorway,3,2,40.467239,-3.44653,0.919,114.1,D3,Normal,motor
313,113.4,40.467182,-3.447276,582.7,3,5,263.7,0.352,0,0,0,1,-0.0071,0.0194,-0.0091,-0.003,0.0188,-0.0091,-1.5462,0.0254,-1.44,-0.040115385,0.018153846,2.923038462,1.769230769,51.61333333,1.635,3.333333333,113.75,120,1,motorway,3,2,40.467205,-3.446904,1.132,113.4,D3,Normal,motor
315,111.9,40.46711,-3.448015,582.3,3,5,263.7,0,0,0,0,1,-0.0062,0.0085,-0.0021,-0.0091,0.0086,-0.0041,-1.534,0.0224,-1.4348,-0.00955,0.01095,3.05395,1.8,48.91,1.568,4,112.34,120,1,motorway,3,2,40.467144,-3.447647,0.756,111.9,D3,Normal,motor
316,110.4,40.467083,-3.448374,582,3,5,263.7,0,0,0,0,1,-0.0103,0.0112,0.0008,-0.0087,0.0105,0.0019,-1.5308,0.017,-1.4354,0.025538462,-0.047346154,3.161423077,1.769230769,45.73857143,1.481428571,3.285714286,111.0428571,120,1,motorway,3,2,40.46711,-3.448015,1.028,110.4,D3,Normal,motor
318,109.4,40.467018,-3.449088,582.1,3,5,264,0.352,0,0,0,1,0.0006,0.0031,0.0185,-0.0005,-0.0006,0.0184,-1.5356,0.0244,-1.4304,0.181416667,-0.036291667,3.168208333,1.708333333,38.64571429,1.27,3,109.6,120,1,motorway,3,2,40.467049,-3.448735,0.695,109.4,D3,Normal,motor
319,109.7,40.466995,-3.449438,586.7,3,5,264,0,0,0,0,1,-0.0113,0.0126,-0.003,-0.0098,0.0132,-0.0002,-1.5466,0.011,-1.4316,0.191083333,-0.019125,3.12375,1.625,35.22333333,1.155,3,109.6,120,1,motorway,3,2,40.467018,-3.449089,0.68,109.7,D3,Normal,motor
320,109,40.466969,-3.44979,584.9,4,5,264,0,0,0,0,1,-0.013666667,0.009333333,-0.020222222,-0.014333333,0.008555556,-0.021555556,-1.534444444,0.012,-1.433444444,0.08952381,-0.104047619,3.339285714,1.666666667,33.35428571,1.098571429,3.142857143,109.3,120,1,motorway,3,2,40.466995,-3.449439,0.737,109,D3,Normal,motor
321,107.5,40.466942,-3.450144,584.8,3,5,264.7,0.703,0,0,0,1,-0.0079,0.0171,0.0008,-0.0051,0.0218,0.0006,-1.5278,-0.0062,-1.4427,0.10948,-0.04156,3.40936,1.68,32.36833333,1.081666667,3,108,120,1,motorway,3,2,40.466969,-3.449791,1.062,107.5,D3,Normal,motor
323,106.3,40.466896,-3.450834,582.5,3,5,265.4,0.703,0,0,0,1,-0.0069,0.0155,0.0093,-0.0083,0.0122,0.0103,-1.544,0.0011,-1.4489,0.052846154,0.002346154,3.469076923,1.769230769,26.80571429,0.905714286,3,106.5142857,120,1,motorway,3,2,40.466919,-3.450496,0.673,106.3,D3,Normal,motor
325,106.2,40.466866,-3.451533,583,3,5,265.3,0.116,0,0,0,1,-0.0112,-0.0101,0.0122,-0.0076,-0.0098,0.0117,-1.5545,0.0068,-1.4547,0.256625,0.032416667,3.292875,1.666666667,25.46333333,0.863333333,4.666666667,106.2333333,120,1,motorway,3,2,40.466896,-3.450834,1.855,106.2,D3,Normal,motor
327,107.6,40.466831,-3.452238,584,3,5,266.7,1.339,0,0,0,1,-0.0099,-0.0296,0.0095,-0.0102,-0.0286,0.0107,-1.5827,0.0237,-1.4422,0.06908,-0.0514,3.37016,1.72,21.08666667,0.706666667,4,107.15,120,1,motorway,3,2,40.466866,-3.451534,1.494,106.7,D3,Normal,motor
329,109.9,40.466785,-3.45295,584.7,3,5,266.7,0,0,0,0,1,-0.0094,0.0444,-0.0111,-0.0093,0.0415,-0.0101,-1.5929,0.0174,-1.4332,-0.440192308,-0.056615385,3.412730769,0.423076923,22.63714286,0.742857143,2.571428571,109.5857143,120,1,motorway,3,3,40.466831,-3.452239,2.119,109.9,D3,Normal,motor
333,114.9,40.466721,-3.454429,586.3,3,5,269,0.415,0,0,0,1,-0.0169,-0.002,-0.0089,-0.0129,-0.004,-0.0048,-1.6042,-0.0247,-1.4959,0.041391304,-0.066217391,3.27526087,1.782608696,39.92833333,1.261666667,3,113.9,120,1,motorway,3,3,40.466763,-3.453318,2.302,112.9,D3,Normal,motor
335,115.4,40.466721,-3.455187,587.6,3,5,269.7,0.661,0,0,0,1,-0.0099,-0.0128,-0.0089,-0.011,-0.01,-0.007,-1.5713,-0.0352,-1.5132,-0.222615385,-0.004576923,3.304884615,1.769230769,42.506,1.324,2.8,115.44,120,1,motorway,3,3,40.466721,-3.45443,1.346,115.5,D3,Normal,motor
337,115.1,40.466724,-3.455927,587,3,5,271.6,1.913,0,0,0,1,-0.0148,-0.0101,-0.0165,-0.0127,-0.0121,-0.019,-1.5298,-0.015,-1.5173,-0.207458333,-0.0075,3.542958333,1.75,49.09666667,1.535,2.833333333,115.25,120,1,motorway,3,3,40.466721,-3.455188,1.393,115.4,D3,Normal,motor
338,112.2,40.466751,-3.456283,586.6,3,5,271.6,0.913,0,0,0,1,-0.0148,-0.0005,0.0127,-0.0187,-0.0011,0.0057,-1.5243,-0.0126,-1.5199,-0.247814815,-0.01437037,3.472666667,1.777777778,52.975,1.686666667,2,113.1666667,120,1,motorway,3,3,40.466724,-3.455928,1.175,112.2,D3,Normal,motor
340,111.5,40.46677,-3.457028,586.7,3,5,272.5,0.927,0,0,0,1,-0.001555556,-0.014333333,0.007222222,-0.007111111,-0.009444444,0.003777778,-1.532222222,-0.016555556,-1.529222222,-0.292173913,-0.008217391,3.552478261,1.826086957,53.576,1.726,3,111.74,120,1,motorway,3,3,40.466763,-3.456654,0.753,111.5,D3,Normal,motor
