t_sec,speed_kmh,lat,lon,alt,vert_acc,horiz_acc,course,difcourse,hdop,vdop,pdop,active,acc_x,acc_y,acc_z,acc_x_kf,acc_y_kf,acc_z_kf,roll,pitch,yaw,x_lane,phi,road_width,lane_state,dist_front,ttc_front,num_vehicles,gps_speed,max_speed,speed_rel,road_type_osm,num_lanes,lane_id,lat_osm,lon_osm,osm_delay,gps_speed_osm,driver,behavior,road_type
25,84.3,40.518829,-3.409868,623.4,3,5,324.5,0.352,0,0,0,1.0,0.0008999999999999998,0.0203,-0.023299999999999998,0.0038,0.0206,-0.0225,-1.5651,0.0289,0.018,-0.024076923076923076,-0.0043076923076923075,3.5047692307692304,-0.7307692307692307,-1.0,-1.0,0.0,84.35,100.0,1,primary,3,1,40.518341,-3.409413,2.887,84.3,D4,Normal,secondary
27,83.8,40.519184,-3.410199,623.1,3,5,324.5,0.0,0,0,0,1.0,-0.0116,0.0117,-0.007299999999999999,-0.0046,0.0091,-0.01,-1.5263,0.016900000000000002,0.0115,-0.4517037037037037,-0.033740740740740745,3.558888888888889,2.0,-1.0,-1.0,0.0,83.475,100.0,1,primary,3,1,40.518829,-3.409868,1.934,83.8,D4,Normal,secondary
29,80.5,40.519508,-3.410501,624.5,3,5,324.5,0.0,0,0,0,1.0,-0.0126,-0.0213,0.022600000000000002,-0.0123,-0.0191,0.0242,-1.5626,0.0222,0.004200000000000001,-0.22672,0.0808,3.46224,2.0,-1.0,-1.0,0.0,81.89999999999999,100.0,1,primary,3,1,40.519184,-3.410199,1.778,80.5,D4,Normal,secondary
30,84.7,40.519688,-3.410669,624.5,3,5,323.4,1.055,0,0,0,1.0,0.00039999999999999964,-0.0052,0.015099999999999999,-0.0015,-0.007299999999999999,0.0152,-1.5746,0.027600000000000003,0.0103,-0.19896153846153847,0.07430769230769231,3.4186923076923077,2.0,-1.0,-1.0,0.0,84.125,100.0,1,primary,3,1,40.519508,-3.410502,1.248,82.4,D4,Normal,secondary
33,83.7,40.520191,-3.411134,627.1,3,5,324.1,0.352,0,0,0,1.0,-0.036555555555555556,0.0012222222222222226,-0.0024444444444444453,-0.03188888888888889,0.0067777777777777775,-0.0038888888888888883,-1.5883333333333334,0.005222222222222222,0.0025555555555555557,-0.3966153846153846,0.05430769230769231,3.4606538461538463,1.9615384615384615,-1.0,-1.0,0.0,83.925,100.0,1,primary,3,1,40.519852,-3.410825,2.076,83.7,D4,Normal,secondary
36,86.2,40.520714,-3.411617,626.3,3,5,324.8,0.352,0,0,0,1.0,-0.0152,-0.0081,0.0033999999999999994,-0.0237,-0.0073999999999999995,0.004200000000000001,-1.584,0.028100000000000003,0.004200000000000001,-0.15723076923076923,0.04523076923076923,3.434923076923077,1.9615384615384615,-1.0,-1.0,0.0,86.4,100.0,1,primary,2,1,40.520363,-3.411289,2.22,86.8,D4,Normal,secondary
39,87.4,40.521244,-3.412113,627.1,3,5,324.5,0.0,0,0,0,1.0,-0.020888888888888887,-0.0067777777777777775,-0.003000000000000001,-0.012555555555555554,-0.003333333333333333,-0.003444444444444444,-1.5825555555555555,0.026000000000000002,0.0031111111111111114,-0.05142307692307692,0.03376923076923077,3.3938076923076923,1.9230769230769231,-1.0,-1.0,0.0,87.5125,100.0,1,primary,2,1,40.520889,-3.411779,2.365,87.7,D4,Normal,secondary
43,88.7,40.521957,-3.412782,629.2,3,5,324.5,0.352,0,0,0,1.0,-0.03,0.0059,0.0052,-0.0284,0.0063,0.0039,-1.591,0.0322,0.0086,-0.07156,0.01356,3.4144400000000004,2.0,-1.0,-1.0,0.0,88.775,100.0,1,primary,2,1,40.521423,-3.412281,2.598,88.7,D4,Normal,secondary
45,90.1,40.522324,-3.413128,629.9,3,5,324.8,0.703,0,0,0,1.0,0.0067,-0.0158,0.0005999999999999998,0.007000000000000001,-0.016900000000000002,0.0026000000000000003,-1.592,0.0248,0.0208,-0.19164,0.006840000000000001,3.35924,2.0,-1.0,-1.0,0.0,89.52857142857142,100.0,1,primary,2,1,40.521957,-3.412782,2.002,90.1,D4,Normal,secondary
48,89.9,40.522846,-3.413646,632.0,3,5,321.7,2.109,0,0,0,1.0,-0.0095,-0.0092,-0.0023,-0.0099,-0.009600000000000001,-0.0016,-1.5913,0.0335,0.0967,-0.08665384615384616,0.008423076923076924,3.422807692307692,1.9615384615384615,-1.0,-1.0,0.0,89.875,100.0,1,primary,2,1,40.522499,-3.413295,1.719,89.9,D4,Normal,secondary
49,89.8,40.52301,-3.413834,633.3,3,5,319.9,3.164,0,0,0,1.0,0.012222222222222223,-0.02,-0.0008888888888888893,0.005555555555555554,-0.01933333333333333,0.003333333333333333,-1.589888888888889,0.02188888888888889,0.13077777777777777,0.0009130434782608695,-0.001173913043478261,3.3987391304347825,1.9565217391304348,-1.0,-1.0,0.0,89.74285714285713,100.0,1,primary,2,1,40.522846,-3.413646,0.946,89.8,D4,Normal,secondary
50,89.6,40.52317,-3.414037,634.5,3,5,317.8,3.867,0,0,0,1.0,-0.0254,-0.0087,-0.006500000000000001,-0.008799999999999999,-0.0118,-0.0098,-1.5949,0.032,0.17099999999999999,-0.044125,-0.007791666666666666,3.502625,2.0,-1.0,-1.0,0.0,89.6,100.0,1,primary,2,1,40.52301,-3.413834,0.688,89.6,D4,Normal,secondary
52,89.6,40.523491,-3.41446,636.1,3,5,313.2,4.57,0,0,0,1.0,-0.0033,0.014599999999999998,-0.0019000000000000002,-0.004399999999999999,0.015,-0.0019000000000000002,-1.584,0.0049,0.22680000000000003,-0.43892000000000003,-0.00408,3.417,2.0,-1.0,-1.0,0.0,89.63333333333333,100.0,1,primary,2,1,40.52317,-3.414037,1.608,89.6,D4,Normal,secondary
53,89.7,40.523636,-3.414681,637.0,3,5,311.1,4.57,1,0,0,1.0,0.0048000000000000004,-0.0007000000000000001,0.006500000000000001,5.204170427930421e-19,0.0,0.0077,-1.5779,0.005599999999999999,0.2476,-0.5070833333333333,0.023541666666666666,3.358,2.0,-1.0,-1.0,0.0,89.775,90.0,3,tertiary_link,1,1,40.523491,-3.41446,1.245,89.9,D4,Normal,secondary
55,90.3,40.523918,-3.415156,638.5,3,5,307.6,3.516,0,0,0,1.0,0.0033,0.011899999999999999,0.012,-0.00010000000000000009,0.0086,0.0132,-1.5748,0.0206,0.2941,-0.44454166666666667,0.04516666666666667,3.4318333333333335,2.0,-1.0,-1.0,0.0,90.3,90.0,3,tertiary_link,1,1,40.523785,-3.414909,0.999,90.3,D4,Normal,secondary
57,91.9,40.524178,-3.415664,639.1,3,5,303.0,4.57,0,0,0,1.0,-0.0066,-0.00030000000000000024,-0.0010999999999999998,0.0043,-0.0012000000000000001,-0.0027999999999999995,-1.5798999999999999,0.0248,0.3325,-0.49060000000000004,0.03696,3.40116,1.96,-1.0,-1.0,0.0,91.975,90.0,3,tertiary_link,1,1,40.524048,-3.415409,0.827,91.9,D4,Normal,secondary
58,92.1,40.524303,-3.415932,639.5,3,5,300.2,4.219,0,0,0,1.0,-0.0006999999999999992,0.0006999999999999999,-0.0037000000000000006,-0.0107,0.00030000000000000003,-0.0025,-1.5745,0.026600000000000002,0.349,-0.4896153846153846,0.02003846153846154,3.3754615384615385,2.0,-1.0,-1.0,0.0,92.32499999999999,90.0,3,tertiary_link,1,1,40.524178,-3.415664,0.989,92.1,D4,Normal,secondary
59,93.0,40.524429,-3.416215,639.8,3,5,298.5,4.57,0,0,0,1.0,-0.012199999999999999,0.0109,-0.009,-0.0081,0.0115,-0.008199999999999999,-1.5705,0.019,0.3589,-0.47795652173913045,0.03917391304347826,3.394869565217391,2.0,-1.0,-1.0,0.0,93.08888888888889,100.0,1,primary,2,1,40.524303,-3.415932,0.992,93.0,D4,Normal,secondary
60,93.4,40.52454,-3.416472,640.6,3,5,296.4,3.867,0,0,0,1.0,-0.0021999999999999993,-0.0155,-0.016300000000000002,-0.003799999999999999,-0.013500000000000002,-0.017499999999999998,-1.5663,0.0215,0.37439999999999996,-0.47217241379310343,0.04579310344827586,3.4207241379310345,2.0,-1.0,-1.0,0.0,94.10000000000001,100.0,1,primary,2,1,40.524429,-3.416215,1.215,95.5,D4,Normal,secondary
63,93.1,40.524815,-3.417304,639.9,3,5,290.0,4.57,0,0,0,1.0,-0.006899999999999999,-0.0028000000000000004,0.014300000000000002,-0.004400000000000003,9.99999999999994e-05,0.0199,-1.5325,0.018,0.388,-0.38721428571428573,0.09207142857142857,4.0104999999999995,1.6785714285714286,-1.0,-1.0,0.0,93.5,100.0,1,primary,2,1,40.524639,-3.416746,1.584,93.1,D4,Normal,secondary
64,94.3,40.524887,-3.417592,639.4,3,5,289.3,2.461,0,0,0,1.0,-0.0144,0.013999999999999999,0.0057,-0.016300000000000002,0.0125,0.0045,-1.5474,0.016,0.3795,-0.31685714285714284,0.03557142857142857,3.9257142857142857,2.0,-1.0,-1.0,0.0,95.14,100.0,1,primary,2,1,40.524815,-3.417305,0.997,94.3,D4,Normal,secondary
65,97.1,40.524963,-3.417886,638.6,3,5,288.3,1.758,0,0,0,1.0,-0.0107,0.013500000000000002,0.0018999999999999996,-0.0089,0.013799999999999998,0.0011,-1.545,0.0173,0.3625,-0.28812,0.06012000000000001,3.58964,2.0,-1.0,-1.0,0.0,96.83333333333333,100.0,1,primary,2,1,40.524887,-3.417592,1.446,96.3,D4,Normal,secondary
67,96.5,40.525105,-3.418491,637.4,3,5,285.8,2.461,0,0,0,1.0,-0.0173,0.0241,-0.025,-0.0166,0.0339,-0.0294,-1.5351,0.014299999999999998,0.3068,0.00764,0.047560000000000005,3.5244799999999996,2.0,-1.0,-1.0,0.2222222222222222,96.86666666666666,80.0,1,primary,1,1,40.52504,-3.41819,0.691,96.5,D4,Normal,secondary
69,96.5,40.525242,-3.419089,636.2,4,5,286.5,0.703,0,0,0,1.0,-0.006399999999999999,0.03,-0.0186,-0.005599999999999999,0.0249,-0.0205,-1.5024000000000002,0.028699999999999996,0.24009999999999998,0.38099999999999995,0.04275,3.6021428571428573,2.0,-1.0,-1.0,0.0,95.9,80.0,1,primary,1,1,40.525105,-3.418491,1.609,96.5,D4,Normal,secondary
70,94.7,40.525318,-3.419397,635.5,4,5,286.5,0.0,1,0,0,1.0,-0.012111111111111109,0.02677777777777778,-0.015222222222222224,-0.00788888888888889,0.031111111111111107,-0.01411111111111111,-1.494777777777778,0.013555555555555555,0.191,0.548962962962963,0.03981481481481481,3.5564444444444443,2.0,-1.0,-1.0,0.0,94.13333333333334,80.0,1,primary,1,1,40.525242,-3.419089,0.633,94.7,D4,Normal,secondary
71,93.0,40.525387,-3.419682,634.6,4,5,288.3,1.758,1,0,0,1.0,-0.013000000000000001,0.0232,-0.0079,-0.018,0.0223,-0.0094,-1.4967000000000001,0.0043,0.1409,0.6198518518518519,0.051444444444444445,3.5660740740740744,2.0,-1.0,-1.0,0.0,93.17999999999999,80.0,1,primary,1,1,40.525318,-3.419397,1.213,93.6,D4,Normal,secondary
73,90.8,40.525543,-3.420257,633.0,4,5,291.4,3.164,2,0,0,1.0,-0.0172,-0.027200000000000002,-0.007300000000000001,-0.0194,-0.0162,-0.010199999999999999,-1.5006,-0.025,0.023,0.8600384615384615,0.07026923076923076,3.538615384615385,2.0,-1.0,-1.0,0.0,90.23333333333332,80.0,1,primary,1,1,40.525459,-3.419974,0.935,90.8,D4,Normal,secondary
74,89.1,40.525631,-3.420519,632.3,4,5,293.6,3.867,2,1,0,1.0,-0.042300000000000004,-0.0512,-0.013300000000000001,-0.027499999999999997,-0.058399999999999994,-0.0103,-1.4958,0.0064,-0.0071,0.9662916666666667,0.044375,3.453,2.0,-1.0,-1.0,0.0,88.725,80.0,1,primary,1,1,40.525543,-3.420258,0.786,89.1,D4,Normal,secondary
77,86.1,40.525921,-3.421279,630.8,6,5,298.8,4.219,1,1,0,1.0,-0.0108,-0.0032999999999999995,0.009600000000000001,-0.014499999999999999,0.0005999999999999998,0.0111,-1.5223,-0.0489,-0.1457,0.6697142857142857,-0.054214285714285715,3.549857142857143,2.0,-1.0,-1.0,0.0,86.14999999999999,80.0,1,primary,1,1,40.525631,-3.420519,2.594,86.1,D4,Normal,secondary
78,86.3,40.526024,-3.421522,630.6,4,5,302.3,5.273,1,1,0,1.0,-0.0129,-0.0216,-0.0059,-0.012,-0.016599999999999997,-0.0045,-1.5279,-0.0529,-0.1975,0.6693461538461538,0.01873076923076923,3.4297692307692307,2.0,9.78111111111111,-0.33666666666666667,0.4444444444444444,86.33333333333333,100.0,1,primary,2,1,40.525921,-3.421279,1.438,86.4,D4,Normal,secondary
80,86.0,40.526302,-3.421998,629.4,6,5,308.0,5.625,1,2,0,1.0,-0.013800000000000002,-0.0323,-0.010100000000000001,-0.014799999999999999,-0.0319,-0.0094,-1.5379999999999998,-0.037,-0.2714,0.6207272727272728,0.002,3.4111363636363636,2.0,10.68625,-0.27125,0.875,85.925,90.0,1,primary,2,1,40.526157,-3.421757,1.383,85.7,D4,Normal,secondary
82,85.6,40.526573,-3.422426,629.1,4,5,312.5,4.57,0,2,0,1.0,-0.0185,-0.0068000000000000005,0.0063,-0.0198,-0.012,0.0058,-1.5403,-0.028200000000000003,-0.3345,0.3746521739130435,-0.03317391304347826,3.4455652173913047,2.0,-1.0,-1.0,0.0,85.66666666666667,90.0,1,primary,2,1,40.526436,-3.422208,1.022,85.6,D4,Normal,secondary
84,86.2,40.526871,-3.422845,627.9,4,5,317.1,4.57,0,2,0,1.0,-0.0019000000000000006,-0.011,-0.008,-0.0021000000000000003,-0.0113,-0.0087,-1.5467,-0.0289,-0.3928,0.213875,-0.001791666666666667,3.43775,2.0,-1.0,-1.0,0.0,86.44444444444444,90.0,1,primary,2,1,40.526718,-3.422644,1.113,86.2,D4,Normal,secondary
86,86.9,40.527203,-3.423213,627.5,4,5,321.7,4.57,0,2,0,1.0,0.0034999999999999996,-0.0066,-0.0093,-0.0008999999999999994,-0.0076,-0.0093,-1.5436999999999999,-0.0351,-0.44630000000000003,0.03165384615384615,0.01780769230769231,3.516576923076923,2.0,-1.0,-1.0,0.0,87.0,90.0,1,primary,2,1,40.527035,-3.423037,0.863,86.9,D4,Normal,secondary
87,87.3,40.527374,-3.423369,626.8,4,5,324.5,4.57,0,2,0,1.0,0.00020000000000000017,-0.010100000000000001,-0.014500000000000002,0.0105,-0.0087,-0.0162,-1.5393000000000001,-0.034199999999999994,-0.4678,0.05145833333333333,0.045875,3.531041666666667,2.0,-1.0,-1.0,0.0,87.39999999999999,90.0,1,primary,2,1,40.527203,-3.423213,1.067,87.3,D4,Normal,secondary
89,87.7,40.527756,-3.423677,626.2,4,5,329.1,4.57,0,2,0,1.0,-0.006666666666666666,-0.030555555555555558,0.0015555555555555561,-0.002888888888888889,-0.028333333333333335,-0.0027777777777777783,-1.5214444444444444,-0.03211111111111111,-0.49166666666666664,0.07339999999999999,0.068,3.5343999999999998,2.0,-1.0,-1.0,0.0,87.84285714285714,90.0,1,primary,2,1,40.527569,-3.423527,1.131,88.2,D4,Normal,secondary
91,87.6,40.528145,-3.423953,625.2,4,5,332.2,3.164,0,2,0,1.0,-0.006900000000000001,-0.0308,0.0222,-0.0089,-0.0314,0.0215,-1.5402,-0.013300000000000001,-0.4709,0.0033333333333333327,0.0265,3.4313749999999996,2.0,-1.0,-1.0,0.0,88.4625,90.0,1,primary,2,1,40.527946,-3.423817,1.051,87.6,D4,Normal,secondary
94,91.5,40.528751,-3.424351,624.2,3,5,333.6,0.352,0,2,0,1.0,-0.0209,-0.0342,-0.0131,-0.0206,-0.0354,-0.0102,-1.5558,-0.0195,-0.40940000000000004,-0.055625,0.049416666666666664,3.472,2.0,-1.0,-1.0,0.125,91.825,90.0,1,primary,2,1,40.528339,-3.424087,1.605,91.5,D4,Normal,secondary
95,92.8,40.52895,-3.424484,624.0,3,5,333.6,0.352,0,2,0,1.0,-0.0054,-0.0224,-0.0184,-0.0072,-0.0241,-0.0194,-1.5317,-0.0091,-0.3785,0.09891304347826087,0.04769565217391304,3.4717391304347824,2.0,-1.0,-1.0,0.0,92.825,90.0,1,primary,2,1,40.528751,-3.424351,0.719,92.8,D4,Normal,secondary
96,92.9,40.529167,-3.424628,623.8,3,5,333.3,0.352,0,2,0,1.0,-0.004499999999999998,-0.022,-0.0186,-0.0075000000000000015,-0.0209,-0.0183,-1.5195,-0.005,-0.3405,0.22321428571428573,0.032607142857142855,3.480571428571429,2.0,-1.0,-1.0,0.0,92.525,90.0,1,primary,2,1,40.52895,-3.424485,0.967,92.9,D4,Normal,secondary
97,91.4,40.529362,-3.424765,623.5,3,5,332.2,1.406,0,2,0,1.0,0.0021999999999999993,-0.016,-0.0125,-0.004999999999999999,-0.016800000000000002,-0.0158,-1.5045,0.0039,-0.3012,0.19185185185185183,0.0003703703703703703,3.536703703703704,2.0,-1.0,-1.0,0.0,90.6875,90.0,1,primary,2,1,40.529167,-3.424628,0.776,91.4,D4,Normal,secondary
99,91.2,40.529758,-3.425044,623.2,4,5,330.1,2.109,0,2,0,1.0,-0.009000000000000001,-0.01390909090909091,-0.011909090909090909,-0.009363636363636364,-0.011636363636363637,-0.010454545454545454,-1.493,0.01636363636363636,-0.22954545454545452,-0.06799999999999999,0.00835,3.5850999999999997,2.0,-1.0,-1.0,0.0,89.91428571428571,90.0,1,primary,2,1,40.529362,-3.424765,1.613,91.2,D4,Normal,secondary
101,85.9,40.530128,-3.425339,621.9,4,5,327.3,2.812,0,2,0,1.0,-0.0094,0.0361,0.0466,-0.0077,0.038,0.045200000000000004,-1.5127,0.0222,-0.1456,-0.49784,-0.0226,3.58192,2.0,-1.0,-1.0,0.0,86.07142857142857,90.0,1,primary,2,1,40.529758,-3.425045,1.559,85.9,D4,Normal,secondary
103,86.2,40.530483,-3.42566,620.9,4,5,324.8,2.461,0,2,0,1.0,-0.0198,-0.0002999999999999999,-0.036,-0.0211,0.00019999999999999982,-0.0299,-1.5413999999999999,0.0124,-0.0732,-0.509925925925926,0.05411111111111112,3.5522962962962965,2.0,-1.0,-1.0,0.0,86.51428571428572,90.0,1,primary,2,1,40.530128,-3.425339,1.633,86.2,D4,Normal,secondary
104,87.3,40.530655,-3.425821,620.1,4,5,323.4,2.109,0,2,0,1.0,-0.030222222222222223,0.013444444444444446,-0.02388888888888889,-0.03177777777777778,0.013222222222222224,-0.02822222222222222,-1.5252222222222223,0.014222222222222223,-0.03755555555555556,-0.44117241379310346,0.060206896551724134,3.6045862068965517,2.0,-1.0,-1.0,0.0,87.13333333333333,90.0,1,primary,2,1,40.530483,-3.42566,1.039,87.3,D4,Normal,secondary
106,85.3,40.530991,-3.42616,619.9,3,5,320.3,3.164,0,2,0,1.0,-0.036111111111111115,0.005666666666666667,0.024,-0.030888888888888893,0.004333333333333333,0.017333333333333333,-1.508888888888889,0.002111111111111111,0.015333333333333334,-0.428,0.08096153846153846,3.6213076923076923,2.0,-1.0,-1.0,0.5714285714285714,84.72857142857143,90.0,1,primary,2,1,40.530823,-3.425986,0.881,85.3,D4,Normal,secondary
107,84.0,40.5313,-3.426524,618.6,3,5,316.8,3.164,0,2,0,1.0,-0.036,0.0097,0.04,-0.0354,0.009600000000000001,0.0413,-1.5401,0.002,0.035699999999999996,-0.3375416666666667,0.06745833333333333,3.533791666666666,2.0,-1.0,-1.0,0.0,83.475,90.0,1,primary,2,1,40.530991,-3.42616,0.799,83.3,D4,Normal,secondary
108,85.6,40.531452,-3.426721,618.7,3,5,315.4,3.516,0,2,0,1.0,-0.048299999999999996,0.0132,0.0198,-0.04,0.0112,0.020499999999999997,-1.5563,0.0077,0.05789999999999999,-0.23192307692307693,0.055115384615384615,3.5359230769230767,2.0,-1.0,-1.0,0.0,84.6,90.0,1,primary,2,1,40.531143,-3.426334,0.83,84.0,D4,Normal,secondary
109,85.6,40.531452,-3.426721,618.7,3,5,315.4,3.164,0,2,0,1.0,-0.0017999999999999984,0.0185,-0.009,-0.0125,0.0199,-0.0051,-1.5547,0.0159,0.0794,-0.2108,0.02052,3.50616,2.0,-1.0,-1.0,0.0,85.55714285714285,90.0,1,primary,2,1,40.5313,-3.426524,0.972,85.6,D4,Normal,secondary
110,85.5,40.531597,-3.426926,618.8,3,5,313.9,2.812,0,2,0,1.0,-0.0295,0.019,0.006900000000000001,-0.0303,0.019899999999999998,0.0036,-1.5451000000000001,-0.0049,0.0925,-0.187,0.023384615384615386,3.554346153846154,2.0,-1.0,-1.0,0.5555555555555556,85.73333333333333,90.0,1,primary,2,1,40.531452,-3.426722,0.71,85.5,D4,Normal,secondary
111,86.2,40.53175,-3.427123,618.9,3,5,312.9,2.461,0,2,0,1.0,-0.0257,-0.0092,0.0028000000000000004,-0.0264,-0.0078,0.0052,-1.5571,-0.0007,0.1081,-0.14823809523809522,0.03242857142857143,3.538476190476191,2.0,-1.0,-1.0,0.0,85.6,90.0,1,primary,2,1,40.531597,-3.426927,0.712,86.2,D4,Normal,secondary
112,84.7,40.531887,-3.427326,618.7,4,5,311.5,2.461,0,2,0,1.0,-0.0356,0.0075,0.0076,-0.0322,0.0064,0.0077,-1.5663,0.0049,0.1264,-0.12781481481481483,0.028814814814814817,3.5373703703703705,2.0,-1.0,-1.0,0.0,84.82000000000001,90.0,1,primary,2,1,40.53175,-3.427124,0.945,84.7,D4,Normal,secondary
113,85.0,40.532024,-3.427537,619.4,3,5,309.4,3.516,0,2,0,1.0,-0.0343,0.0132,-0.0024000000000000002,-0.0354,0.0131,-0.0026000000000000003,-1.5755000000000001,0.0029000000000000002,0.1413,-0.19688,-0.00376,3.48616,2.0,-1.0,-1.0,0.0,84.96666666666667,90.0,1,primary,2,1,40.531887,-3.427326,0.77,85.0,D4,Normal,secondary
114,84.9,40.532154,-3.427756,619.7,3,5,307.6,3.867,0,2,0,1.0,-0.0298,0.0029000000000000002,0.0153,-0.029699999999999997,0.0033,0.015,-1.5768,-0.0025,0.1514,-0.2965714285714286,0.04139285714285714,3.49025,2.0,-1.0,-1.0,0.0,84.7125,90.0,1,primary,2,1,40.532024,-3.427537,1.075,84.9,D4,Normal,secondary
116,85.3,40.53241,-3.428208,620.9,3,5,305.5,2.109,0,2,0,1.0,-0.006,0.0167,-0.0006999999999999998,-0.0062,0.014599999999999998,0.0008,-1.5873000000000002,0.0012000000000000001,0.1752,-0.2986,0.03264,3.50516,2.0,-1.0,-1.0,0.0,85.1125,90.0,1,primary,2,1,40.532284,-3.42798,0.917,85.3,D4,Normal,secondary
118,83.9,40.53265,-3.428666,622.6,3,5,302.0,3.516,0,2,0,1.0,-0.0048,0.0017000000000000001,0.0114,-0.009600000000000001,0.0010999999999999998,0.011399999999999999,-1.5847,-0.005900000000000001,0.1961,-0.2261363636363636,0.021045454545454548,3.4410909090909088,2.0,-1.0,-1.0,0.0,83.23333333333333,90.0,1,primary,2,1,40.53241,-3.428208,1.578,83.9,D4,Normal,secondary
119,83.4,40.532856,-3.429135,624.2,4,5,299.2,2.109,0,2,0,1.0,-0.008888888888888889,0.005333333333333333,2.8912057932946783e-19,-0.007666666666666667,0.007666666666666667,0.003111111111111111,-1.5895555555555556,-0.011000000000000001,0.2038888888888889,-0.16254545454545455,0.02831818181818182,3.4618181818181815,2.0,-1.0,-1.0,0.0,82.4625,90.0,1,primary,2,1,40.53265,-3.428666,1.087,83.4,D4,Normal,secondary
121,84.0,40.532955,-3.429372,625.8,3,5,297.8,3.516,0,2,0,1.0,-0.0115,0.0179,0.0013999999999999998,-0.011800000000000001,0.0129,0.0012000000000000001,-1.595,0.006,0.2291,-0.07829166666666666,0.019875,3.43625,2.0,-1.0,-1.0,0.0,83.55,90.0,1,primary,2,1,40.532856,-3.429135,0.831,84.0,D4,Normal,secondary
123,83.0,40.533138,-3.429871,628.3,3,5,294.6,3.164,0,2,0,1.0,-0.017499999999999998,0.0046,-0.0108,-0.0144,0.0059,-0.0106,-1.5967,-0.0012000000000000001,0.2404,-0.14439130434782607,0.019217391304347825,3.437869565217391,2.0,-1.0,-1.0,0.0,82.76666666666667,90.0,1,primary,2,1,40.532955,-3.429373,2.193,82.3,D4,Normal,secondary
125,81.6,40.533295,-3.43038,630.5,3,5,291.8,2.812,0,2,0,1.0,-0.0126,0.0034999999999999996,0.0007000000000000001,-0.011699999999999999,0.0036999999999999997,-0.0012,-1.5942,-0.0129,0.24710000000000001,-0.16538461538461538,3.84615384615385e-05,3.462615384615385,2.0,-1.0,-1.0,0.0,81.39999999999999,90.0,1,primary,2,1,40.533222,-3.430132,1.029,81.6,D4,Normal,secondary
128,80.1,40.533489,-3.431133,633.7,3,5,287.6,2.812,0,2,0,1.0,-0.009000000000000001,0.0038,-9.999999999999991e-05,-0.0137,0.0050999999999999995,0.0006000000000000001,-1.5972000000000002,-0.0064,0.25860000000000005,-0.27782142857142855,0.027035714285714284,3.4433214285714286,2.0,-1.0,-1.0,0.0,80.1,90.0,1,primary,2,1,40.533367,-3.430636,1.999,80.1,D4,Normal,secondary
131,78.5,40.533661,-3.431886,636.7,4,5,283.4,2.812,0,1,0,1.0,-0.0123,-0.0094,-0.003999999999999999,-0.0091,-0.010199999999999999,-0.0046,-1.6015000000000001,-0.014199999999999999,0.2589,-0.23096296296296295,0.02737037037037037,3.4420740740740743,2.0,-1.0,-1.0,0.0,79.03333333333333,90.0,1,primary,2,1,40.533546,-3.43137,2.182,80.1,D4,Normal,secondary
133,79.1,40.533741,-3.432393,639.3,3,5,280.5,2.812,0,1,0,1.0,-0.004499999999999999,0.0134,0.0063,-0.005300000000000001,0.013500000000000002,0.0034000000000000002,-1.5978999999999999,-0.0027,0.26139999999999997,-0.23924,0.01768,3.5826800000000003,2.0,-1.0,-1.0,0.1111111111111111,78.96666666666665,90.0,1,primary,2,1,40.533703,-3.432137,1.119,78.7,D4,Normal,secondary
141,78.6,40.533875,-3.434453,647.9,3,5,271.8,1.758,0,0,0,1.0,-0.005333333333333333,0.00911111111111111,-0.00044444444444444447,-0.003444444444444445,0.011333333333333332,0.0012222222222222226,-1.5979999999999999,0.002111111111111111,0.22088888888888888,-0.05211538461538461,0.060038461538461534,3.547807692307692,2.0,-1.0,-1.0,0.8888888888888888,78.56666666666666,90.0,1,primary,2,1,40.533768,-3.432647,7.008,78.6,D4,Normal,secondary
143,78.6,40.533878,-3.43496,649.8,3,5,269.3,2.461,0,0,0,1.0,-0.011899999999999999,0.0008000000000000001,-0.0047,-0.013999999999999999,-9.999999999999991e-05,-0.0054,-1.6069,0.0009000000000000001,0.1893,0.13177777777777777,0.07062962962962963,3.4535185185185187,2.0,-1.0,-1.0,0.0,78.5,90.0,1,primary,2,1,40.533878,-3.434706,1.402,78.2,D4,Normal,secondary
145,77.5,40.53389,-3.435749,653.1,3,5,269.6,0.703,0,0,0,1.0,-0.0076,-0.0121,0.0022000000000000006,-0.009,-0.007300000000000001,0.0034000000000000002,-1.5952,0.0123,0.1551,0.34500000000000003,0.0663076923076923,3.413307692307692,2.0,-1.0,-1.0,0.0,78.30000000000001,90.0,1,primary,2,1,40.533886,-3.435223,1.099,77.5,D4,Normal,secondary
147,78.0,40.533886,-3.435999,654.2,4,5,270.0,0.352,0,0,0,1.0,-0.0088,0.0008000000000000004,0.0132,-0.01,0.0003000000000000001,0.0142,-1.5946,0.0243,0.13269999999999998,0.234375,0.007166666666666666,3.2340416666666667,2.0,-1.0,-1.0,0.0,77.83333333333333,90.0,1,primary,2,1,40.53389,-3.435749,1.193,77.5,D4,Normal,secondary
161,81.2,40.533867,-3.43959,666.8,4,5,269.3,0.703,0,0,0,1.0,-0.0012000000000000003,-0.0055,0.0063,0.0015,-0.0055,0.0045,-1.6011,0.018099999999999998,0.0369,0.04607407407407407,0.03014814814814815,3.3926296296296297,2.0,-1.0,-1.0,0.0,81.225,90.0,1,primary,2,1,40.533882,-3.436255,12.788,81.2,D4,Normal,secondary
162,81.3,40.533875,-3.439853,667.2,4,5,269.6,0.352,0,0,0,1.0,-0.014499999999999999,-0.0045000000000000005,0.0025,-0.010100000000000001,-0.0056,0.0043,-1.5971,0.023100000000000002,0.0375,0.03179166666666667,0.009041666666666667,3.3960416666666666,2.0,-1.0,-1.0,0.4444444444444444,81.56666666666666,90.0,1,primary,2,1,40.533867,-3.43959,0.802,81.3,D4,Normal,secondary
164,83.6,40.533878,-3.440405,668.3,4,5,270.0,1.055,0,0,0,1.0,-0.007999999999999998,-0.0003000000000000001,0.007000000000000001,-0.0091,-0.0006999999999999999,0.0068000000000000005,-1.5950000000000002,0.0216,0.036,-0.03462068965517241,0.023068965517241382,3.3716206896551726,2.0,-1.0,-1.0,0.0,83.77499999999999,90.0,1,primary,2,1,40.533875,-3.439853,1.564,83.6,D4,Normal,secondary
166,85.0,40.533886,-3.440968,669.1,4,5,268.9,1.055,0,0,0,1.0,-0.0183,0.0067,-0.013600000000000001,-0.0215,0.0063,-0.0132,-1.5798999999999999,0.0186,0.0327,-0.06826923076923076,0.01276923076923077,3.4252307692307693,2.0,-1.0,-1.0,0.0,85.825,90.0,1,primary,2,1,40.533878,-3.440405,2.088,87.2,D4,Normal,secondary
168,87.5,40.533867,-3.441529,669.4,4,5,269.6,0.703,0,0,0,1.0,-0.0042,0.0023,-0.0306,-0.0021000000000000003,0.0021999999999999997,-0.0349,-1.5311,0.027100000000000003,0.034,0.022230769230769228,0.018884615384615385,3.6432692307692305,2.0,-1.0,-1.0,0.0,87.15,90.0,1,primary,2,1,40.533871,-3.441246,0.742,87.5,D4,Normal,secondary
169,86.1,40.533867,-3.441814,669.2,4,5,269.3,0.703,0,0,0,1.0,-0.0134,0.0018999999999999996,0.028599999999999997,-0.012,0.0032999999999999995,0.027899999999999998,-1.543,0.028200000000000003,0.0366,0.05446153846153846,0.016076923076923075,3.5782692307692305,2.0,-1.0,-1.0,0.0,86.02499999999999,90.0,1,primary,2,1,40.533867,-3.441529,0.653,86.1,D4,Normal,secondary
170,85.8,40.533859,-3.442093,669.3,4,5,269.6,0.352,0,0,0,1.0,-0.0058,0.0201,-0.006500000000000001,-0.0035000000000000005,0.0154,-0.0036999999999999997,-1.5426,0.0303,0.0398,0.023846153846153847,0.020884615384615387,3.5721923076923074,2.0,-1.0,-1.0,0.375,85.75,90.0,1,primary,2,1,40.533867,-3.441815,0.983,85.8,D4,Normal,secondary
171,85.6,40.533859,-3.442381,668.9,4,5,269.3,0.352,0,0,0,1.0,0.008,-0.0099,-0.0376,0.0018000000000000002,-0.005900000000000001,-0.037,-1.5261,0.024,0.040299999999999996,0.020640000000000002,0.02812,3.6189999999999998,2.0,13.2925,-0.15875,1.625,85.77499999999999,90.0,1,primary,2,1,40.533859,-3.442093,1.421,86.3,D4,Normal,secondary
184,86.1,40.53384,-3.446,664.9,4,5,270.4,0.352,0,0,0,1.0,0.0038,-0.0086,0.0068000000000000005,0.0012000000000000001,-0.0072,0.0087,-1.5695999999999999,0.0204,0.0368,0.16570370370370371,0.05225925925925926,3.4551851851851856,1.962962962962963,-1.0,-1.0,0.0,86.55,90.0,1,primary,2,1,40.533855,-3.442682,12.386,87.9,D4,Normal,secondary
186,89.7,40.53384,-3.446562,664.2,4,5,269.6,0.703,0,0,0,1.0,0.0026000000000000003,0.0009000000000000001,-0.0388,-0.0015000000000000002,-0.0014000000000000002,-0.0337,-1.5727,0.0219,0.040600000000000004,0.2042962962962963,0.008851851851851852,3.4682962962962964,1.962962962962963,-1.0,-1.0,0.5714285714285714,89.95714285714287,90.0,1,primary,2,1,40.533836,-3.446287,0.957,89.7,D4,Normal,secondary
187,90.6,40.533836,-3.446858,664.0,6,5,269.3,0.352,0,0,0,1.0,0.0035000000000000005,-0.0002,-0.0338,0.006900000000000001,0.0010999999999999998,-0.037,-1.5387,0.019200000000000002,0.0396,0.20244444444444445,0.02507407407407407,3.53337037037037,1.962962962962963,-1.0,-1.0,0.125,90.57499999999999,90.0,1,primary,2,1,40.53384,-3.446562,0.881,90.6,D4,Normal,secondary
188,90.5,40.533833,-3.447158,663.5,6,5,269.6,0.352,0,0,0,1.0,-0.0060999999999999995,-0.0024000000000000002,-0.0222,-0.0098,-0.002,-0.023100000000000002,-1.5189,0.0227,0.0392,0.15208695652173912,0.035434782608695654,3.5728695652173914,1.9130434782608696,5.341111111111111,-0.6366666666666667,0.3333333333333333,90.03333333333333,90.0,1,primary,2,1,40.533836,-3.446858,0.595,90.5,D4,Normal,secondary
189,87.8,40.533817,-3.447744,663.0,4,5,269.6,0.352,0,0,0,1.0,-0.020888888888888887,-0.015888888888888886,-0.013888888888888888,-0.00811111111111111,-0.012888888888888887,-0.013555555555555555,-1.5084444444444443,0.023111111111111114,0.04088888888888889,0.15330434782608696,0.011782608695652175,3.566,1.9565217391304348,-1.0,-1.0,0.2857142857142857,88.72857142857141,90.0,1,primary,2,1,40.533833,-3.447159,1.031,89.1,D4,Normal,secondary
191,87.3,40.533821,-3.448029,662.5,6,5,269.3,0.352,0,0,0,1.0,-0.004700000000000001,-0.0052,-0.0126,-0.0042,-0.004399999999999999,-0.0127,-1.501,0.0218,0.042499999999999996,-0.05470833333333333,-0.0018333333333333333,3.5508333333333333,1.9166666666666667,-1.0,-1.0,0.0,87.03333333333333,90.0,1,primary,2,1,40.533817,-3.447744,1.218,86.1,D4,Normal,secondary
194,86.8,40.533825,-3.44889,661.4,4,5,269.6,0.0,0,0,0,1.0,-0.007300000000000001,-0.0079,-0.0005000000000000004,-0.009600000000000001,-0.0094,0.004200000000000001,-1.549,0.0215,0.0421,-0.13433333333333333,0.026851851851851852,3.495222222222222,1.8888888888888888,-1.0,-1.0,0.0,87.25714285714285,90.0,1,primary,2,1,40.533821,-3.448319,1.536,86.8,D4,Normal,secondary
196,87.9,40.533825,-3.449461,660.8,4,5,269.3,1.406,0,0,0,1.0,-0.0121,0.0010999999999999996,-0.016300000000000002,-0.0106,0.0008,-0.0161,-1.5455999999999999,0.020399999999999998,0.0423,-0.21375862068965518,0.018517241379310347,3.5301724137931036,1.8275862068965518,-1.0,-1.0,0.0,87.7125,90.0,1,primary,2,1,40.533825,-3.44889,1.691,87.9,D4,Normal,secondary
197,87.4,40.533821,-3.449744,660.3,4,5,269.6,1.055,0,0,0,1.0,-0.006900000000000001,0.0004999999999999998,-0.0134,-0.008299999999999998,0.0012000000000000003,-0.016800000000000002,-1.5306,0.013300000000000001,0.0398,-0.1931153846153846,0.034692307692307696,3.5015384615384613,1.8461538461538463,24.46,0.3114285714285714,0.2857142857142857,87.6857142857143,90.0,1,primary,2,1,40.533825,-3.449461,1.037,87.4,D4,Normal,secondary
199,87.5,40.533825,-3.450341,659.4,4,5,268.9,2.109,0,0,0,1.0,-0.0010000000000000002,0.0017000000000000001,0.0099,-0.0042,0.0013000000000000002,0.009600000000000001,-1.5428000000000002,0.0298,0.0447,-0.15004,0.02188,3.48268,1.92,79.26833333333333,3.2616666666666667,1.6666666666666667,87.53333333333335,90.0,1,primary,2,1,40.533829,-3.450051,1.064,87.5,D4,Normal,secondary
202,90.0,40.533806,-3.451212,658.8,3,5,269.6,0.352,0,0,0,1.0,0.0029000000000000002,-0.0059,-0.0243,0.005700000000000001,-0.0063,-0.025,-1.5503,0.0177,0.044599999999999994,-0.32655555555555554,0.024481481481481483,3.5587037037037033,1.8888888888888888,66.51571428571428,2.6685714285714286,1.0,89.74285714285715,90.0,1,primary,2,1,40.533817,-3.450639,1.932,90.0,D4,Normal,secondary
204,90.4,40.53381,-3.451805,658.3,3,5,269.6,0.703,0,0,0,1.0,-0.0149,-0.0008,-0.0113,-0.0126,-0.0001,-0.014100000000000001,-1.5389,0.020800000000000003,0.0422,-0.34888461538461535,0.020307692307692308,3.6156538461538466,1.8846153846153846,64.55999999999999,2.575714285714286,1.0,90.25714285714287,90.0,1,primary,2,1,40.533806,-3.451212,1.814,90.4,D4,Normal,secondary
206,89.6,40.53381,-3.452398,657.5,3,5,269.3,0.352,0,0,0,1.0,-0.019700000000000002,0.0076,-0.0097,-0.0184,0.0078,-0.009,-1.5393000000000001,0.0209,0.0408,-0.37473076923076926,0.022000000000000002,3.521,1.9230769230769231,57.980000000000004,2.33,1.0,89.6,90.0,1,primary,2,1,40.53381,-3.451805,1.824,89.6,D4,Normal,secondary
207,89.6,40.53381,-3.452694,657.2,3,5,269.6,0.352,0,0,0,1.0,-0.0056,-0.0004,-0.015,-0.0060999999999999995,-0.0013000000000000002,-0.014099999999999998,-1.5371000000000001,0.0225,0.0391,-0.37473076923076926,0.013384615384615384,3.519576923076923,1.9230769230769231,53.57714285714286,2.152857142857143,1.0,89.57142857142857,90.0,1,primary,2,1,40.53381,-3.452398,0.995,89.6,D4,Normal,secondary
212,86.9,40.533806,-3.454148,655.0,4,5,270.0,0.352,0,0,0,1.0,-0.011800000000000001,-0.0093,-0.0279,-0.0104,-0.0093,-0.0299,-1.5096,0.0109,0.0359,-0.36778571428571427,0.019714285714285715,3.5519285714285713,1.8928571428571428,32.75142857142857,1.362857142857143,1.0,86.44285714285715,90.0,1,primary,2,1,40.53381,-3.452695,5.319,85.3,D4,Normal,secondary
216,84.1,40.53381,-3.455261,653.0,4,5,269.6,0.352,0,0,0,1.0,-0.021,-0.0076,0.010700000000000001,-0.019,-0.0070999999999999995,0.009,-1.5099,0.0068000000000000005,0.032,-0.3879130434782609,0.034217391304347824,3.5712608695652173,1.8695652173913044,26.304999999999996,1.1333333333333333,1.0,83.56666666666666,90.0,1,primary,2,1,40.533806,-3.454425,3.271,82.5,D4,Normal,secondary
218,82.1,40.533791,-3.455815,652.4,4,5,269.6,0.703,0,0,0,1.0,-0.014299999999999998,-0.0075,-0.0106,-0.0125,-0.0055,-0.008,-1.5407,0.0182,0.0314,-0.3027037037037037,0.05051851851851851,3.5395555555555553,1.9259259259259258,25.02625,1.10125,1.125,81.82499999999999,90.0,1,primary,2,1,40.533794,-3.455535,1.189,81.0,D4,Normal,secondary
222,83.7,40.533787,-3.456861,651.5,4,5,269.6,0.352,0,0,0,1.0,-0.0006000000000000009,0.0058,-0.0199,-0.0058,0.006500000000000001,-0.0172,-1.5652,0.025500000000000002,0.0407,-0.3401666666666667,-0.00225,3.5351250000000003,1.9166666666666667,22.74,0.9766666666666666,1.0,83.83333333333333,90.0,1,primary,2,1,40.533775,-3.456063,2.588,83.7,D4,Normal,secondary
224,84.5,40.533802,-3.457412,651.0,4,5,269.6,0.0,0,0,0,1.0,-0.0125,-0.010400000000000001,-0.0186,-0.0113,-0.0102,-0.018,-1.5370000000000001,0.0132,0.034,-0.45899999999999996,0.03884615384615385,3.5732692307692306,1.9230769230769231,21.948333333333334,0.9383333333333334,1.0,84.3,90.0,1,primary,2,1,40.533787,-3.456862,1.967,84.5,D4,Normal,secondary
225,83.3,40.533783,-3.457686,651.0,4,5,269.6,0.0,0,0,0,1.0,-0.0097,-9.999999999999983e-05,-0.0123,-0.011399999999999999,-0.0010999999999999998,-0.0124,-1.5275,0.0165,0.0359,-0.4705714285714286,0.04171428571428571,3.544642857142857,1.8928571428571428,21.124285714285715,0.9157142857142857,1.0,83.01428571428572,90.0,1,primary,2,1,40.533802,-3.457413,1.183,82.3,D4,Normal,secondary
227,81.1,40.533768,-3.45821,650.8,4,5,269.6,0.0,0,0,0,1.0,-0.0194,0.004200000000000001,-0.0048000000000000004,-0.020200000000000003,0.0053,-0.0037000000000000006,-1.5197999999999998,0.0195,0.0315,-0.49710714285714286,0.028892857142857144,3.548321428571428,1.8571428571428572,19.271428571428572,0.8614285714285714,1.0,80.72857142857141,90.0,1,primary,2,1,40.533783,-3.457946,0.917,81.1,D4,Normal,secondary
228,79.8,40.533764,-3.458469,650.6,4,5,269.6,0.0,0,0,0,1.0,-0.008299999999999998,0.0009999999999999998,-0.005200000000000001,-0.0083,0.0002999999999999999,-0.0047,-1.5166,0.0258,0.032,-0.4738148148148148,0.04055555555555555,3.596111111111111,1.9259259259259258,18.135,0.8216666666666667,1.0,79.33333333333333,90.0,1,primary,2,1,40.533768,-3.45821,0.544,79.8,D4,Normal,secondary
229,78.4,40.533764,-3.458729,650.5,4,5,269.3,0.352,0,0,0,1.0,-0.030888888888888886,0.0047777777777777775,-0.003777777777777778,-0.02611111111111111,0.0057777777777777775,-0.006111111111111111,-1.521111111111111,0.02188888888888889,0.030888888888888893,-0.4664,0.03744,3.5976,1.88,17.36714285714286,0.8028571428571428,1.0,77.94285714285715,90.0,1,primary,2,1,40.533764,-3.45847,0.865,78.4,D4,Normal,secondary
230,76.8,40.53376,-3.458985,650.5,3,5,269.6,0.352,0,0,0,1.0,-0.0137,0.0002999999999999999,0.008400000000000001,-0.0129,0.0026000000000000003,0.0095,-1.5346,0.0205,0.0299,-0.43934782608695655,0.044521739130434786,3.5477826086956523,1.7826086956521738,16.515,0.7783333333333333,1.0,76.5,90.0,1,primary,2,1,40.533764,-3.458729,0.821,76.8,D4,Normal,secondary
230,76.8,40.53376,-3.458985,650.5,3,5,269.6,0.352,0,0,0,1.0,-0.0137,0.0002999999999999999,0.008400000000000001,-0.0129,0.0026000000000000003,0.0095,-1.5346,0.0205,0.0299,-0.43934782608695655,0.044521739130434786,3.5477826086956523,1.7826086956521738,16.515,0.7783333333333333,1.0,76.5,90.0,1,primary,2,1,40.53376,-3.458985,0.504,75.9,D4,Normal,secondary
232,75.5,40.533756,-3.459475,650.8,3,5,269.6,0.352,0,0,0,1.0,0.0263,0.0062,0.0311,0.0166,0.0066,0.0339,-1.5497,0.0263,0.0314,-0.40861538461538466,0.01553846153846154,3.4078846153846154,1.9230769230769231,15.668571428571429,0.7471428571428572,1.0,75.47142857142856,90.0,1,primary,2,1,40.533756,-3.459226,0.843,75.5,D4,Normal,secondary
233,76.1,40.533756,-3.459977,651.3,3,5,269.6,0.0,0,0,0,1.0,-0.024,0.0033,0.0156,-0.022,0.0055,0.0167,-1.5612,0.0214,0.028700000000000003,-0.3718571428571429,0.04971428571428572,3.4886190476190473,1.9047619047619047,16.5675,0.7875000000000001,1.0,75.6625,90.0,1,primary,2,1,40.533756,-3.459475,0.909,75.4,D4,Normal,secondary
234,76.1,40.533756,-3.459977,651.3,3,5,269.6,0.0,0,0,0,1.0,-0.020399999999999998,-0.0079,0.014599999999999998,-0.0211,-0.007000000000000001,0.015099999999999999,-1.5756000000000001,0.0177,0.0279,-0.3306666666666667,0.06196296296296296,3.5142592592592594,1.962962962962963,17.431428571428572,0.8200000000000001,1.0,76.32857142857142,90.0,1,primary,2,1,40.533756,-3.459724,0.789,76.1,D4,Normal,secondary
235,76.9,40.533756,-3.460234,651.5,3,5,269.3,0.352,0,0,0,1.0,-0.014800000000000002,-0.0137,0.0108,-0.0159,-0.013800000000000002,0.0107,-1.5901,0.015099999999999999,0.03,-0.24272413793103448,0.06606896551724138,3.47948275862069,1.8620689655172413,17.307142857142857,0.8028571428571428,1.0,77.67142857142858,90.0,1,primary,2,1,40.533756,-3.459977,1.421,78.7,D4,Normal,secondary
237,79.5,40.533733,-3.460724,652.0,3,5,270.0,0.703,0,0,0,1.0,-0.015600000000000003,0.0055,-0.0171,-0.0125,0.0029,-0.016800000000000002,-1.5864,0.0253,0.0374,-0.4188846153846154,0.018653846153846153,3.472692307692308,1.8846153846153846,16.580000000000002,0.7485714285714286,1.4285714285714286,79.67142857142858,90.0,1,primary,2,1,40.533737,-3.460467,1.091,79.5,D4,Normal,secondary
239,80.2,40.533745,-3.461256,652.5,4,5,269.6,0.352,0,0,0,1.0,0.006333333333333333,-0.0032222222222222222,-0.017555555555555557,-0.002333333333333334,-0.0028888888888888888,-0.021555555555555557,-1.555777777777778,0.021111111111111112,0.02822222222222222,-0.5180434782608696,0.022434782608695653,3.491391304347826,1.826086956521739,16.023333333333333,0.725,1.0,79.7,90.0,1,primary,2,1,40.533745,-3.460986,0.71,80.2,D4,Normal,secondary
240,79.2,40.533745,-3.461519,653.0,4,5,269.6,0.352,0,0,0,1.0,-0.0021999999999999997,0.0006,-0.0064,-0.0005000000000000001,9.999999999999991e-05,-0.0079,-1.5466,0.023399999999999997,0.0267,-0.5150370370370371,0.025222222222222226,3.49162962962963,1.9259259259259258,15.752857142857142,0.7214285714285714,1.0,78.60000000000001,90.0,1,primary,2,1,40.533745,-3.461256,0.978,79.2,D4,Normal,secondary
241,77.8,40.533741,-3.461776,653.9,4,5,269.6,0.0,0,0,0,1.0,-0.0218,-0.0102,0.0158,-0.0237,-0.010199999999999999,0.0155,-1.5549,0.020300000000000002,0.028599999999999997,-0.5117407407407407,0.03425925925925926,3.478037037037037,1.8888888888888888,15.365714285714287,0.7071428571428571,1.0,78.0,90.0,1,primary,2,1,40.533745,-3.46152,1.461,78.5,D4,Normal,secondary
243,77.8,40.533752,-3.462286,654.3,3,5,270.0,1.055,1,0,0,1.0,-0.0095,0.0051,-0.0088,-0.0091,0.0068000000000000005,-0.007000000000000001,-1.5767,0.014500000000000002,0.029599999999999998,-0.5868,0.02052,3.41628,1.96,14.924285714285714,0.6885714285714286,1.0,78.11428571428571,90.0,1,primary,2,1,40.533745,-3.46203,0.696,77.8,D4,Normal,secondary
244,78.9,40.533749,-3.462546,655.2,3,5,269.3,1.758,1,0,0,1.0,-0.004,-0.0013000000000000004,-0.0132,-0.003999999999999999,-0.0016,-0.014300000000000002,-1.5665,0.016800000000000002,0.028200000000000003,-0.5341666666666667,0.026083333333333333,3.4586666666666663,1.9166666666666667,15.084285714285715,0.6885714285714286,1.0,78.92857142857143,90.0,1,primary,2,1,40.533752,-3.462286,0.816,78.9,D4,Normal,secondary
245,79.0,40.533737,-3.462806,655.4,3,5,269.3,0.703,0,0,0,1.0,-0.0059,-0.0036,0.0128,-0.0036000000000000003,-0.0036000000000000003,0.0107,-1.5675000000000001,0.0213,0.03,-0.5088571428571429,0.022095238095238095,3.4539047619047616,1.8571428571428572,15.217142857142857,0.6971428571428572,1.0,78.57142857142857,90.0,1,primary,2,1,40.533749,-3.462546,0.54,79.0,D4,Normal,secondary
246,77.5,40.533737,-3.463308,655.9,3,5,269.3,0.352,1,0,0,1.0,-0.0097,0.005599999999999999,0.0052,-0.0118,0.0042,0.0075,-1.5710000000000002,0.029199999999999997,0.0342,-0.5361153846153847,0.02773076923076923,3.4701923076923076,1.8846153846153846,15.43125,0.715,1.0,77.5,90.0,1,primary,2,1,40.533737,-3.462806,0.864,77.5,D4,Normal,secondary
247,77.5,40.533737,-3.463308,655.9,3,5,269.3,0.352,0,0,0,1.0,-0.0137,0.0154,-0.013500000000000002,-0.014499999999999999,0.0167,-0.0118,-1.5710000000000002,0.0201,0.033,-0.5204166666666666,0.0265,3.516541666666667,1.9166666666666667,15.314285714285715,0.7085714285714285,1.0,77.58571428571429,90.0,1,primary,2,1,40.533741,-3.463065,0.602,77.5,D4,Normal,secondary
248,77.8,40.53373,-3.463565,656.0,3,5,269.6,0.352,0,0,0,1.0,-0.0054,-0.003,-0.0173,-0.005,-0.0024000000000000002,-0.0169,-1.5534,0.019200000000000002,0.0332,-0.49844827586206897,0.05010344827586207,3.5291724137931038,2.0,15.598571428571429,0.7242857142857143,1.0,77.62857142857142,90.0,1,primary,2,1,40.533737,-3.463308,0.922,77.8,D4,Normal,secondary
249,77.2,40.533737,-3.463823,656.4,4,5,269.6,0.352,0,0,0,1.0,-0.016,0.010222222222222223,-0.035555555555555556,-0.012888888888888887,0.009333333333333334,-0.033888888888888885,-1.5382222222222222,0.02588888888888889,0.03588888888888889,-0.5045,0.0678,3.5652,2.0,16.02857142857143,0.7514285714285714,1.1428571428571428,76.55714285714285,90.0,1,primary,2,1,40.53373,-3.463565,0.674,77.2,D4,Normal,secondary
250,75.7,40.533733,-3.464068,656.6,3,5,269.6,0.0,0,0,0,1.0,-0.0084,0.0154,-0.0206,-0.0102,0.0161,-0.020999999999999998,-1.5247,0.0284,0.0332,-0.4786923076923077,0.08442307692307692,3.552,2.0,16.44666666666667,0.7883333333333334,1.3333333333333333,75.06666666666666,90.0,1,primary,2,1,40.533737,-3.463823,0.655,75.7,D4,Normal,secondary
251,73.8,40.53373,-3.464314,657.1,3,5,269.6,0.0,0,0,0,1.0,-0.014100000000000001,0.0023,0.028699999999999996,-0.0114,0.0035000000000000005,0.0211,-1.5218,0.0355,0.029699999999999997,-0.3655714285714286,0.08804761904761904,3.5100952380952384,2.0,16.92125,0.82875,1.25,73.5375,90.0,1,primary,2,1,40.533733,-3.464068,0.62,73.8,D4,Normal,secondary
252,71.7,40.53373,-3.464556,657.4,3,5,270.0,0.352,0,0,0,1.0,-0.0169,0.0091,0.0258,-0.017599999999999998,0.0058,0.032100000000000004,-1.5508,0.047099999999999996,0.034600000000000006,-0.3804444444444445,0.08177777777777778,3.504814814814815,2.0,17.15375,0.85875,1.0,71.85,90.0,1,primary,2,1,40.53373,-3.464314,1.029,71.7,D4,Normal,secondary
254,72.0,40.533737,-3.465019,658.0,4,5,270.4,0.352,1,0,0,1.0,-0.018099999999999998,0.029599999999999998,0.0193,-0.019200000000000002,0.0327,0.0221,-1.5787,0.014599999999999998,-0.0117,-0.5648181818181818,0.06881818181818182,3.5315,2.0,18.65,0.9287500000000001,1.0,72.1,90.0,1,primary,2,1,40.533733,-3.464783,1.279,72.4,D4,Normal,secondary
257,73.4,40.533794,-3.465741,659.0,4,5,277.4,4.57,0,0,0,1.0,-0.020300000000000002,0.0064,-0.0191,-0.0196,0.0067,-0.0191,-1.5592000000000001,0.008400000000000001,-0.11200000000000002,0.12377777777777778,0.08618518518518518,3.3434814814814815,2.0,36.19,1.6471428571428572,2.142857142857143,73.25714285714287,90.0,1,primary,2,1,40.533749,-3.465266,2.128,72.9,D4,Normal,secondary
259,71.3,40.533852,-3.466186,659.1,3,5,281.2,3.867,0,0,0,1.0,-0.01325,-0.02875,0.0145,-0.014375,-0.026875,0.00775,-1.5471249999999999,0.006,-0.170125,0.4730434782608696,0.05452173913043478,3.2704347826086955,2.0,18.956666666666667,0.9633333333333333,1.0,70.8,90.0,1,primary,2,1,40.533817,-3.465974,0.972,71.3,D4,Normal,secondary
260,69.8,40.533894,-3.466413,659.7,3,5,283.0,4.219,0,0,0,1.0,-0.015090909090909092,0.00818181818181818,0.022363636363636363,-0.01490909090909091,0.0020909090909090908,0.023636363636363636,-1.5774545454545454,0.011181818181818182,-0.1889090909090909,0.38472,0.006200000000000001,3.25108,2.0,18.834285714285716,0.9671428571428571,1.0,70.02857142857142,90.0,1,primary,2,1,40.533852,-3.466187,0.792,69.8,D4,Normal,secondary
261,70.1,40.533985,-3.466866,660.1,3,5,286.2,3.516,0,0,0,1.0,-0.017099999999999997,0.0104,0.0036999999999999997,-0.015,0.015,0.006,-1.5913,-0.0077,-0.22559999999999997,0.2295909090909091,-0.014363636363636363,3.237681818181818,2.0,18.997500000000002,0.97125,1.0,70.475,90.0,1,primary,2,1,40.533894,-3.466413,0.923,70.6,D4,Normal,secondary
262,71.7,40.534046,-3.467085,660.7,3,5,289.7,3.164,0,0,0,1.0,-0.018444444444444444,-0.004,0.006666666666666666,-0.02033333333333333,-0.004777777777777778,0.006333333333333333,-1.5971111111111111,-0.011888888888888888,-0.2541111111111111,0.15596153846153846,0.016192307692307693,3.231692307692308,2.0,19.41375,0.99125,1.0,70.7,90.0,1,primary,2,1,40.533943,-3.46664,0.837,70.1,D4,Normal,secondary
263,71.7,40.534046,-3.467085,660.7,3,5,289.7,4.922,0,0,0,1.0,-0.0079,0.0062,0.0047,-0.0098,0.0073999999999999995,0.0040999999999999995,-1.5955,-0.0193,-0.2845,0.13713636363636364,0.027681818181818182,3.2061818181818182,2.0,19.72714285714286,0.9842857142857142,1.0,72.12857142857143,90.0,1,primary,2,1,40.533985,-3.466867,0.965,71.7,D4,Normal,secondary
264,73.2,40.534107,-3.467307,661.0,3,5,292.5,6.328,0,0,0,1.0,-0.017599999999999998,-0.0262,0.0006000000000000003,-0.0128,-0.0252,0.0009000000000000001,-1.5987,-0.0158,-0.3094,0.14956521739130435,0.03152173913043478,3.222782608695652,2.0,19.9625,0.97875,1.0,73.55,90.0,1,primary,2,1,40.534046,-3.467085,1.164,74.6,D4,Normal,secondary
266,75.6,40.53429,-3.467737,661.8,3,5,297.8,5.273,0,0,0,1.0,-0.027600000000000003,-0.0083,-0.013300000000000001,-0.020999999999999998,-0.0048000000000000004,-0.014300000000000002,-1.5815,-0.0203,-0.3606,0.2308,0.038239999999999996,3.46312,2.0,20.425714285714285,0.9742857142857143,1.5714285714285714,75.57142857142857,90.0,1,primary,2,1,40.534199,-3.46753,0.834,75.6,D4,Normal,secondary
267,75.5,40.534386,-3.467956,662.1,4,5,299.9,5.273,0,0,0,1.0,-0.006999999999999999,-0.0126,-0.0052,-0.0108,-0.0131,-0.007000000000000001,-1.5817,-0.0224,-0.38,0.1858695652173913,0.028217391304347826,3.475347826086957,2.0,19.655714285714286,0.9385714285714286,1.5714285714285714,75.38571428571429,90.0,1,primary,2,1,40.53429,-3.467737,1.469,75.1,D4,Normal,secondary
269,75.6,40.534592,-3.468371,662.8,3,5,304.5,4.57,0,0,0,1.0,-0.0076,-0.0036,0.011300000000000001,-0.0106,-0.0021999999999999997,0.0031,-1.5579,-0.0162,-0.4184,0.03352,0.02084,3.53712,2.0,20.84,1.0,1.0,74.86666666666666,90.0,1,primary,2,1,40.534485,-3.468161,0.908,75.6,D4,Normal,secondary
270,74.7,40.534821,-3.468768,663.2,3,5,309.4,4.57,0,0,0,1.0,-0.0073999999999999995,0.0111,0.028499999999999998,-0.0091,0.0073999999999999995,0.0274,-1.5776999999999999,-0.0199,-0.4389,-0.014208333333333335,0.03625,3.408333333333333,2.0,20.181428571428572,0.9857142857142858,1.0,73.77142857142859,90.0,1,primary,2,1,40.534592,-3.468371,1.032,73.4,D4,Normal,secondary
272,75.3,40.534939,-3.468958,663.6,3,5,311.8,5.273,0,0,0,1.0,-0.0134,-0.0075,-0.0043,-0.0165,-0.0095,-0.0036,-1.5968,-0.026000000000000002,-0.4817,0.04377777777777778,0.0507037037037037,3.4175925925925927,2.0,21.12857142857143,1.0057142857142858,1.0,75.52857142857142,100.0,3,primary_link,1,1,40.534821,-3.468768,0.831,75.3,D4,Normal,secondary
273,76.1,40.535069,-3.469135,664.1,3,5,315.0,5.625,0,0,0,1.0,-0.009899999999999999,0.0126,-0.0206,-0.0067,0.012,-0.0196,-1.5889,-0.029100000000000004,-0.5011,0.2526086956521739,0.06443478260869565,3.4259565217391303,2.0,20.37625,0.9612499999999999,1.375,76.19999999999999,100.0,3,primary_link,1,1,40.534939,-3.468958,1.338,76.5,D4,Normal,secondary
275,76.4,40.535355,-3.469469,664.6,3,5,320.3,5.273,0,0,0,1.0,-0.012399999999999998,-0.0218,-0.0052,-0.016499999999999997,-0.024,-0.0097,-1.5664,-0.0075,-0.5271,0.09679166666666666,-0.014291666666666666,3.9622083333333333,0.8333333333333334,21.502857142857145,1.0171428571428571,1.0,76.1857142857143,90.0,1,primary,2,1,40.53521,-3.469302,1.049,76.4,D4,Normal,secondary
277,74.6,40.535641,-3.469763,665.1,4,5,324.1,3.867,2,1,0,1.0,-0.0115,-0.0064,0.0054,-0.0079,-0.0087,0.006500000000000001,-1.5955,0.0099,-0.5304,0.7891304347826086,0.029521739130434786,3.372,2.0,5.21,-0.4328571428571429,1.0,75.42857142857143,90.0,1,primary,2,1,40.535503,-3.469622,0.688,74.6,D4,Normal,secondary
278,78.3,40.535954,-3.470034,666.1,3,5,328.0,3.867,1,1,0,1.0,-0.0312,0.0211,0.0053,-0.032100000000000004,0.0186,0.0035000000000000005,-1.5971,-0.0126,-0.5402,0.59396,-0.039599999999999996,3.38164,2.0,14.524285714285714,0.3985714285714286,1.0,77.72857142857143,100.0,3,primary_link,1,1,40.535641,-3.469763,0.914,77.5,D4,Normal,secondary
279,79.5,40.536129,-3.47016,666.4,3,5,331.2,3.867,0,1,0,1.0,-0.023777777777777776,0.018555555555555558,0.0035555555555555557,-0.020777777777777777,0.017333333333333333,-9.637352644315594e-20,-1.6005555555555557,-0.037333333333333336,-0.5614444444444444,0.35348,-0.06868,3.4322,2.0,19.927142857142858,0.9128571428571429,1.0,78.64285714285714,100.0,3,primary_link,1,1,40.535793,-3.469894,0.944,78.3,D4,Normal,secondary
280,79.5,40.536129,-3.47016,666.4,3,5,331.2,5.273,0,1,0,1.0,-0.012300000000000002,-0.0048000000000000004,0.0033,-0.0191,-0.0031,0.0042,-1.5973000000000002,-0.0453,-0.5822999999999999,0.33388461538461545,-0.07653846153846154,3.4554615384615386,2.0,19.385,0.8733333333333334,1.1666666666666667,79.76666666666667,100.0,3,primary_link,1,1,40.535954,-3.470034,0.765,79.5,D4,Normal,secondary
281,81.0,40.536484,-3.470397,667.1,4,5,336.4,5.977,0,1,0,1.0,-0.0251,-0.0078,-0.0019999999999999996,-0.0199,-0.0098,-0.0027,-1.5963,-0.0363,-0.594,0.2539130434782609,-0.05217391304347826,3.5011304347826084,2.0,19.854285714285712,0.8871428571428571,1.0,80.5,100.0,3,primary_link,1,1,40.536129,-3.470161,0.887,80.3,D4,Normal,secondary
282,80.5,40.536674,-3.470499,667.6,4,5,339.3,5.273,0,1,0,1.0,-0.0077,0.005600000000000001,-0.028599999999999997,-0.008400000000000001,0.0054,-0.028000000000000004,-1.5962,-0.0376,-0.6087,0.07254545454545454,-0.025590909090909088,3.481,2.0,19.51875,0.87,1.25,80.875,100.0,3,primary_link,1,1,40.536301,-3.470288,0.711,81.0,D4,Normal,secondary
283,80.5,40.536674,-3.470499,667.6,4,5,339.3,5.273,0,1,0,1.0,-0.0218,-0.0303,0.0028000000000000004,-0.026500000000000003,-0.0269,0.0008000000000000001,-1.5999,-0.036699999999999997,-0.6182000000000001,0.01206896551724138,0.000413793103448276,3.4539310344827587,2.0,19.363333333333333,0.87,1.0,80.2,100.0,3,primary_link,1,1,40.536484,-3.470397,1.17,79.6,D4,Normal,secondary
285,82.7,40.53706,-3.470677,668.8,4,5,343.1,3.867,0,1,0,1.0,-0.0048000000000000004,-0.0308,-0.0097,-0.005,-0.0298,-0.0112,-1.5833,-0.014799999999999999,-0.603,-0.17403846153846156,0.01830769230769231,3.494923076923077,2.0,17.66875,0.7675000000000001,1.0,83.0,100.0,3,primary_link,1,1,40.536865,-3.47059,0.67,82.7,D4,Normal,secondary
286,83.9,40.537258,-3.470745,669.3,4,5,344.2,2.461,0,1,0,1.0,-0.0149,-0.0274,-0.0022999999999999995,-0.013500000000000002,-0.026000000000000002,-0.0041,-1.5797,-0.0048000000000000004,-0.5814999999999999,-0.2389230769230769,0.008346153846153847,3.531230769230769,2.0,17.451428571428572,0.7485714285714286,1.0,83.9,90.0,1,primary,2,1,40.53706,-3.470677,0.697,83.9,D4,Normal,secondary
287,83.9,40.53746,-3.470824,669.7,4,5,344.2,1.055,0,1,0,1.0,-0.012,-0.0245,-0.0356,-0.0088,-0.0268,-0.029099999999999997,-1.5701,0.0007,-0.5545,-0.29448148148148146,-0.002666666666666667,3.528592592592593,2.0,17.05142857142857,0.7371428571428572,1.0,83.52857142857144,90.0,1,primary,2,1,40.537258,-3.470745,0.838,83.9,D4,Normal,secondary
288,82.6,40.537663,-3.470887,669.8,4,5,345.2,1.055,0,1,0,1.0,-0.006899999999999999,-0.013500000000000002,-0.0249,-0.008400000000000001,-0.013600000000000001,-0.028599999999999997,-1.5379999999999998,0.0103,-0.525,-0.3705862068965517,0.010103448275862069,3.5776206896551725,2.0,17.692857142857143,0.7814285714285714,1.0,81.74285714285713,90.0,1,primary,2,1,40.53746,-3.470824,0.853,82.6,D4,Normal,secondary
289,79.6,40.537857,-3.470937,670.2,4,5,346.3,2.109,0,1,0,1.0,-0.0095,0.016300000000000002,0.0351,-0.0132,0.013999999999999999,0.027700000000000002,-1.5421,0.0079,-0.5019,-0.48162962962962963,0.04611111111111112,3.518148148148148,2.0,18.137999999999998,0.82,1.0,79.64,90.0,1,primary,2,1,40.537663,-3.470887,1.179,79.8,D4,Normal,secondary
291,80.6,40.538242,-3.471047,670.6,4,5,346.3,0.352,0,1,0,1.0,-0.0126,-0.006599999999999999,0.0097,-0.0134,-0.007200000000000001,0.0106,-1.5807,0.0091,-0.4565,-0.33375,0.06558333333333334,3.436208333333333,2.0,17.926666666666666,0.7983333333333333,1.6666666666666667,80.78333333333333,90.0,1,primary,2,1,40.538052,-3.47099,1.13,81.7,D4,Normal,secondary
293,81.7,40.538639,-3.471169,671.4,4,5,345.9,0.352,0,1,0,1.0,-0.013900000000000001,0.0055,0.009600000000000001,-0.020200000000000003,0.0047,0.008499999999999999,-1.5881,0.0248,-0.4096,-0.34804166666666664,0.031166666666666665,3.435333333333333,2.0,19.95,0.8771428571428571,1.0,81.95714285714287,90.0,1,primary,2,1,40.538441,-3.471105,0.769,81.7,D4,Normal,secondary
294,82.6,40.538834,-3.471241,671.8,4,5,345.6,0.352,0,1,0,1.0,-0.002000000000000001,0.013799999999999998,0.0025,0.0008999999999999994,0.0128,0.0034000000000000002,-1.5894,0.0208,-0.39390000000000003,-0.3584,0.0325,3.4248,2.0,20.084285714285716,0.8714285714285713,1.0,82.94285714285714,90.0,1,primary,2,1,40.538639,-3.471169,1.101,83.8,D4,Normal,secondary
296,84.3,40.539246,-3.471378,672.8,6,5,346.3,0.703,0,1,0,1.0,0.004200000000000001,0.004399999999999999,-0.004399999999999999,-0.004200000000000001,0.0041,-0.004,-1.5983,0.022,-0.3644,-0.3062,0.04584,3.4062799999999998,2.0,20.626666666666665,0.8833333333333333,1.0,84.0,90.0,1,primary,2,1,40.539043,-3.471311,0.83,84.3,D4,Normal,secondary
298,85.8,40.539658,-3.471514,673.5,6,5,345.6,0.703,0,1,0,1.0,-0.0018999999999999983,0.016,-0.026500000000000003,0.0009999999999999987,0.0149,-0.0254,-1.5854000000000001,0.0303,-0.33870000000000006,-0.31833333333333336,0.0449,3.3870666666666667,2.0,21.138571428571428,0.8857142857142858,1.0,86.02857142857142,90.0,1,primary,2,1,40.539246,-3.471378,1.883,85.8,D4,Normal,secondary
299,86.6,40.539871,-3.471587,674.1,4,5,345.9,0.703,0,1,0,1.0,-0.007000000000000001,0.0093,-0.0118,-0.0084,0.009600000000000001,-0.013199999999999998,-1.5779999999999998,0.0249,-0.3299,-0.2954,0.06168,3.40776,2.0,22.06714285714286,0.9171428571428571,1.0,86.54285714285713,90.0,1,primary,2,1,40.539658,-3.471514,0.84,86.6,D4,Normal,secondary
300,86.4,40.540081,-3.471657,674.8,4,5,345.9,0.352,0,1,0,1.0,0.004200000000000001,0.0189,-0.0212,0.0049,0.0174,-0.019200000000000002,-1.5698,0.0184,-0.3224,-0.21458333333333335,0.03441666666666667,3.403833333333333,2.0,22.244285714285716,0.9299999999999999,1.0,86.05714285714286,90.0,1,primary,2,1,40.539871,-3.471587,0.651,86.4,D4,Normal,secondary
301,86.1,40.540493,-3.471795,675.6,4,5,345.6,0.352,0,1,0,1.0,-0.0056,-0.0039,-0.0167,-0.0032,-0.0011,-0.0178,-1.5553000000000001,0.019700000000000002,-0.3141,-0.14744,0.03212,3.4360000000000004,2.0,23.085714285714285,0.9728571428571428,1.0,85.45714285714287,90.0,1,primary,2,1,40.540081,-3.471657,0.536,85.2,D4,Normal,secondary
302,86.1,40.540493,-3.471795,675.6,4,5,345.6,0.703,0,1,0,1.0,-0.013800000000000002,0.0004,-0.004399999999999999,-0.0156,0.0003000000000000001,-0.005900000000000001,-1.5487,0.0217,-0.3045,-0.15988,0.03484,3.4496800000000003,2.0,23.939999999999998,1.0071428571428571,1.0,85.55714285714285,90.0,1,primary,2,1,40.540287,-3.471727,1.226,84.2,D4,Normal,secondary
304,83.3,40.540897,-3.471926,676.3,4,5,345.6,0.0,0,0,0,1.0,-0.003,0.0060999999999999995,0.015,-0.0018999999999999996,0.0053,0.016800000000000002,-1.5809,0.0089,-0.297,-0.23840740740740743,0.02762962962962963,3.406851851851852,2.0,23.21857142857143,1.0014285714285713,1.0,83.41428571428571,30.0,1,primary_link,1,1,40.540695,-3.471859,1.233,83.7,D4,Normal,secondary
306,85.4,40.541309,-3.472059,677.2,6,5,345.9,0.352,0,0,0,1.0,-0.0017000000000000001,-0.0020000000000000005,-0.016900000000000002,-0.0023,-0.0013,-0.0184,-1.5714000000000001,0.0051,-0.29209999999999997,-0.24347368421052634,0.00010526315789473658,3.504578947368421,2.0,22.752857142857145,0.9614285714285714,1.0,85.22857142857143,30.0,1,primary_link,1,1,40.5411,-3.471992,1.322,84.2,D4,Normal,secondary
308,84.7,40.541718,-3.472185,678.4,6,5,345.9,0.0,0,0,0,1.0,-0.020700000000000003,-0.0010000000000000005,-0.004399999999999999,-0.0237,-0.0019999999999999996,-0.0021999999999999997,-1.569,0.005200000000000001,-0.2905,-0.22942307692307692,0.007230769230769231,3.5005384615384614,2.0,21.754285714285714,0.9257142857142858,1.0,84.44285714285715,30.0,1,primary_link,1,1,40.541515,-3.472123,0.738,84.7,D4,Normal,secondary
309,83.8,40.541924,-3.472253,678.8,6,5,345.9,0.0,0,0,0,1.0,-0.0109,-0.0031,-0.0191,-0.011,-0.0036999999999999997,-0.0213,-1.5394999999999999,0.005699999999999999,-0.2912,-0.19392307692307692,0.01996153846153846,3.5403461538461536,2.0,20.994,0.906,1.0,83.4,30.0,1,primary_link,1,1,40.541718,-3.472185,0.755,83.8,D4,Normal,secondary
310,82.8,40.542133,-3.472322,679.3,6,5,345.9,0.0,0,0,0,1.0,-0.011300000000000001,-0.004,-0.0024999999999999996,-0.010100000000000001,-0.003,-0.0023,-1.5261999999999998,0.0072,-0.2923,-0.09729629629629628,0.0357037037037037,3.5452222222222223,2.0,20.195714285714285,0.8857142857142858,1.0,82.14285714285714,30.0,1,primary_link,1,1,40.541924,-3.472253,0.761,82.8,D4,Normal,secondary
311,80.5,40.542324,-3.472382,679.9,6,5,345.9,0.0,0,0,0,1.0,-0.0033,-0.0092,0.0089,-0.0064,-0.009,0.0076,-1.5187,0.0086,-0.2905,0.009551724137931034,0.05420689655172414,3.466413793103448,2.0,19.400000000000002,0.8728571428571429,1.0,79.95714285714287,30.0,1,primary_link,1,1,40.542133,-3.472322,0.813,80.5,D4,Normal,secondary
312,78.6,40.542519,-3.472445,680.4,4,5,346.6,0.703,0,0,0,1.0,-0.0059,-0.0038,0.00010000000000000061,-0.005300000000000001,-0.0053,0.0009999999999999998,-1.5202,0.0107,-0.28659999999999997,0.11678947368421051,0.03489473684210526,3.453736842105263,1.5789473684210527,19.81875,0.91125,1.0,78.27499999999999,30.0,1,primary_link,1,1,40.542324,-3.472382,0.808,78.6,D4,Normal,secondary
313,77.3,40.542706,-3.472508,680.8,4,5,346.3,0.352,0,0,0,1.0,-0.0209,-0.0007000000000000001,0.0045,-0.0202,-1.7347234759768072e-19,0.0036,-1.5208,0.0214,-0.28569999999999995,-0.208,0.012037037037037037,4.03,1.7037037037037037,17.424285714285713,0.6857142857142857,1.0,76.61428571428571,30.0,1,primary_link,1,1,40.542519,-3.472445,1.046,77.3,D4,Normal,secondary
315,73.4,40.543072,-3.47262,681.5,4,5,346.3,0.0,0,0,0,1.0,-0.0112,-0.0202,0.05,-0.0043,-0.0209,0.0462,-1.5425,0.0194,-0.2756,0.19907407407407407,0.031074074074074073,3.6075555555555554,2.0,22.860000000000003,1.125714285714286,1.0,73.08571428571429,30.0,1,primary_link,1,1,40.542892,-3.472558,0.776,73.4,D4,Normal,secondary
316,72.0,40.543423,-3.472752,682.7,3,5,345.6,0.703,0,0,0,1.0,-0.0078,0.0032,0.0318,-0.0109,0.0019,0.034300000000000004,-1.5751000000000002,0.017099999999999997,-0.2701,0.2425217391304348,0.006478260869565217,3.343391304347826,2.0,24.425714285714285,1.22,1.0,72.21428571428571,30.0,1,primary_link,1,1,40.543072,-3.47262,0.922,72.3,D4,Normal,secondary
317,72.0,40.543423,-3.472752,682.7,3,5,345.6,0.703,0,0,0,1.0,-0.020300000000000002,0.0132,0.0166,-0.0206,0.0131,0.0162,-1.5875,0.0081,-0.27040000000000003,0.11780769230769231,0.001153846153846154,3.332730769230769,2.0,26.01142857142857,1.2857142857142858,1.4285714285714286,72.82857142857144,30.0,1,primary_link,1,1,40.543247,-3.472683,0.726,72.0,D4,Normal,secondary
318,74.9,40.543602,-3.472817,683.3,4,5,345.9,0.352,0,0,0,1.0,-0.0107,-0.0012000000000000001,0.0186,-0.0123,-0.0003000000000000002,0.019200000000000002,-1.5915000000000001,0.0081,-0.2757,0.09655555555555556,0.012444444444444445,3.3362962962962963,2.0,27.68,1.3342857142857143,1.0,74.64285714285714,30.0,1,primary_link,1,1,40.543423,-3.472752,0.556,74.9,D4,Normal,secondary
319,74.0,40.543781,-3.47287,684.1,4,5,345.9,0.352,0,0,0,1.0,-0.015444444444444446,-0.0054444444444444445,-0.006,-0.013555555555555555,-0.006333333333333333,-0.005111111111111111,-1.6076666666666668,0.02411111111111111,-0.2707777777777778,0.08183333333333333,-0.0013750000000000001,3.356291666666667,2.0,30.744285714285716,1.49,1.0,74.2,90.0,1,primary,2,1,40.543602,-3.472817,0.666,74.0,D4,Normal,secondary
320,74.7,40.543968,-3.472944,684.4,3,5,344.9,1.055,0,0,0,1.0,-0.0097,0.0093,-0.0036999999999999997,-0.006999999999999999,0.0081,-0.0038,-1.6085,0.0204,-0.2673,-0.010565217391304348,-0.01526086956521739,3.352913043478261,2.0,31.1525,1.49875,1.0,74.8,90.0,1,primary,2,1,40.543781,-3.47287,1.225,75.1,D4,Normal,secondary
321,75.1,40.544147,-3.473015,685.3,4,5,345.2,0.703,0,0,0,1.0,-0.004699999999999999,0.0029,-0.0016,-0.0099,0.003,-0.0018,-1.6075,0.0115,-0.2702,-0.10951851851851852,0.0009629629629629628,3.3571851851851853,2.0,30.831666666666667,1.4733333333333334,1.0,75.3,90.0,1,primary,2,1,40.544147,-3.473015,0.433,76.3,D4,Normal,secondary
