t_10hz_mean,timestamp_mean,speed_kmh_mean,lat_mean,lon_mean,alt_mean,vert_acc_mean,horiz_acc_mean,course_mean,difcourse_mean,hdop_mean,vdop_mean,pdop_mean,active_mean,acc_x_mean,acc_y_mean,acc_z_mean,acc_x_kf_mean,acc_y_kf_mean,acc_z_kf_mean,roll_mean,pitch_mean,yaw_mean,x_lane_mean,phi_mean,road_width_mean,lane_state_mean,dist_front_mean,ttc_front_mean,num_vehicles_mean,gps_speed_mean,max_speed_mean,speed_rel_mean,num_lanes_mean,lat_osm_mean,lon_osm_mean,osm_delay_mean,gps_speed_osm_mean,speed_ratio_mean,label
1199.5,119.95,113.15013836486195,40.52954810248566,-3.441662862693961,635.9075227973052,5.553245686365935,5.245833333333334,291.9864498615667,2.299452606869843,0.3948661128433858,2.3114289535729937,0.15416666666666667,0.91125,-0.013935000000000001,-0.0006162499999999997,-0.003387083333333333,-0.01408541666666667,-0.0005799999999999998,-0.00341625,-1.5833624999999998,-0.0090725,0.016700000000000017,-0.6683870833333333,-0.7876775,2.2983670833333334,0.95125,-0.9589458333333334,-0.9975458333333334,0.02875,113.33270833333333,90.74066547510404,1.1308333333333334,1.962153983692436,40.52948333388743,-3.4408698427629503,1.6230840237706696,112.82189707757449,1.3461728057119884,0
1459.5,145.95,114.15008333333334,40.53416698125,-3.4469599079166664,646.9161250000001,5.488333333333333,5.245833333333334,302.15095833333334,2.292565833333333,0.3591666666666667,2.3325,0.15416666666666667,1.0,-0.014069166666666669,-0.0017095833333333336,-0.003435416666666667,-0.014350416666666668,-0.0017508333333333334,-0.0034375,-1.5830274999999998,-0.008637916666666664,-0.08845166666666669,0.11013583333333332,0.022387083333333335,3.3343220833333334,1.9766666666666666,-0.9589458333333334,-0.9975458333333334,0.03,114.16166666666666,86.03333333333333,1.1308333333333334,1.8345833333333332,40.53370736583333,-3.445720895833333,1.9420020833333331,114.04045833333332,1.4810552314814815,0
1719.5,171.95,113.64,40.53753123291666,-3.454224030416667,656.6280416666667,5.6241666666666665,5.245833333333334,300.94775,2.2736591666666666,0.28375,2.1979166666666665,0.15416666666666667,1.0,-0.014204583333333331,-0.0014191666666666669,-0.002666666666666667,-0.01444,-0.0014458333333333337,-0.0026691666666666665,-1.5828383333333333,-0.013372083333333331,-0.20741125000000002,0.13755333333333336,0.027581249999999998,3.2534154166666664,1.9875,-1.0,-1.0,0.019583333333333335,113.64233333333333,85.15833333333333,1.0891666666666666,1.84375,40.536876123750005,-3.4526463224999997,2.135032083333333,112.81529166666665,1.4866528703703703,0
1979.5,197.95,113.90595833333333,40.54063869083333,-3.4616210437499997,668.014375,5.746666666666667,5.245833333333334,295.7524166666667,2.2116975,0.17166666666666666,1.7579166666666666,0.11333333333333333,1.0,-0.014045416666666668,-8.708333333333373e-05,-0.0019470833333333334,-0.014136666666666665,-0.0001166666666666664,-0.0018879166666666664,-1.5852833333333334,-0.003713333333333335,-0.28513416666666663,0.06610083333333333,0.02919833333333333,3.1826725000000002,1.9866666666666666,-1.0,-1.0,0.01875,113.91654166666665,84.65291666666667,1.0783333333333334,1.8508333333333333,40.539999869166664,-3.459574817916667,2.760698333333333,113.19254166666666,0.8105969907407409,0
2239.5,223.95,114.56533333333336,40.54310395166667,-3.4693554104166666,680.5365833333334,5.824166666666667,5.245833333333334,293.36966666666666,2.384397916666667,0.25833333333333336,1.3679166666666667,0.005,1.0,-0.013069583333333332,-0.001685833333333333,-0.0034145833333333333,-0.013302916666666666,-0.0017449999999999998,-0.003414166666666667,-1.5827020833333334,-0.014207499999999996,-0.48382499999999995,0.09415583333333336,0.02606291666666667,3.1114820833333336,1.98375,-1.0,-1.0,0.025416666666666667,114.60295833333332,84.73208333333334,1.0941666666666667,1.8741666666666668,40.542583765,-3.46645268625,3.5696304166666666,113.99595833333333,0.8169646759259259,0
2499.5,249.95,116.220375,40.54560368333333,-3.477210054166667,686.3491666666666,5.839166666666666,5.245833333333334,294.5969166666667,2.7794416666666666,0.22,1.2579166666666666,0.0,1.0,-0.015103333333333331,0.0012474999999999988,-0.005155416666666667,-0.015272083333333335,0.0011375000000000003,-0.00519875,-1.5724287499999998,-0.018155416666666667,-0.7175316666666667,0.07847416666666665,0.024764999999999995,3.058955,1.9841666666666666,-1.0,-1.0,0.018333333333333333,116.21862500000003,84.73208333333334,1.0941666666666667,1.9825,40.54507591916666,-3.4744504483333336,3.5186966666666666,115.94150000000002,0.8353540277777777,0
2759.5,275.95,115.681875,40.548572024583336,-3.48477713625,687.2305,5.798333333333333,5.183333333333334,301.99975,3.2141804166666663,0.30083333333333334,1.4729166666666667,0.0,1.0,-0.0164475,-0.0010137500000000003,-0.006279166666666666,-0.016751666666666668,-0.0011520833333333335,-0.006314166666666667,-1.5710833333333334,-0.029010000000000005,-1.0467004166666667,0.10486416666666666,0.02148625,2.9872733333333334,1.9845833333333334,-1.0,-1.0,0.017916666666666668,115.66425000000001,85.18625,1.185,2.0,40.547907663749996,-3.4823066666666667,3.464836666666667,115.80524999999999,0.8235006018518519,0
3019.5,301.95,114.46383333333334,40.55227645958333,-3.49156275,688.00125,5.75,5.10625,308.29966666666667,3.473262083333333,0.33416666666666667,1.7454166666666666,0.0,1.0,-0.016567916666666665,-0.0007575000000000006,-0.005850833333333333,-0.016769583333333334,-0.0008637500000000006,-0.0058775,-1.5722820833333333,-0.024785416666666664,-1.3555375,0.11710958333333332,0.01811875,2.9046383333333337,1.9858333333333333,-1.0,-1.0,0.015416666666666667,114.45566666666666,85.18625,1.185,2.0966666666666667,40.55146458916667,-3.4892001654166673,3.7077299999999997,114.41095833333333,0.8099668055555556,0
3279.5,327.95,115.7,40.556419697083335,-3.4981008458333336,688.2719999999999,5.581666666666667,5.0,309.2755416666667,3.2346179166666666,0.2833333333333333,1.96625,0.0,1.0,-0.01488,-0.00078125,-0.006400416666666667,-0.014976249999999998,-0.0009183333333333336,-0.0063975,-1.5705125,-0.01461875,-1.63107875,0.09345833333333332,0.021074166666666668,2.8404658333333335,1.9858333333333333,-1.0,-1.0,0.015416666666666667,115.72962499999998,84.98625,1.145,2.1166666666666667,40.555535613333326,-3.4956625124999996,3.796522916666667,115.33695833333334,0.8262246759259257,0
3539.5,353.95,116.50362499999999,40.56039061125001,-3.5051063741666666,684.4661666666667,5.450833333333334,5.0,304.30154166666665,3.17103125,0.27875,1.87625,0.0,1.0,-0.014621666666666666,0.000360833333333333,-0.006412500000000001,-0.014612916666666666,0.00033000000000000027,-0.006389999999999999,-1.5651966666666666,-0.012484583333333334,-1.8338804166666667,0.08425083333333333,0.026043333333333335,2.836495833333333,1.9858333333333333,-1.0,-1.0,0.01,116.5145,86.11541666666666,1.0958333333333334,2.1641666666666666,40.55946909291666,-3.5023749508333335,3.9526837499999994,115.99791666666667,0.7761290740740739,0
3799.5,379.95,115.39395833333333,40.56400495,-3.512754272083333,676.441875,5.34,5.0,301.10612499999996,3.1599066666666666,0.27875,1.67125,0.0,1.0,-0.014884583333333333,-0.0002262499999999997,-0.006585833333333333,-0.014892083333333334,-0.00019291666666666632,-0.006579166666666668,-1.5574654166666668,-0.016013750000000004,-2.0592120833333336,0.10215624999999999,0.01971875,2.8182670833333336,1.9825,0.21017500000000003,-0.8761208333333333,0.08958333333333333,115.3565,90.04041666666667,1.0958333333333334,2.2295833333333333,40.56326978333333,-3.5100627129166666,3.659015416666666,114.82541666666667,0.5970392592592593,0
4059.5,405.95,112.63970833333336,40.56736195125,-3.5205148333333334,664.8169166666667,5.175833333333333,5.0,299.1575416666667,3.1851129166666667,0.3229166666666667,1.6454166666666667,0.0,1.0,-0.015010833333333333,0.00025249999999999985,-0.007460833333333333,-0.014995,0.00024624999999999934,-0.007476666666666666,-1.55001875,-0.014412083333333332,-2.2626887499999997,0.08935125,0.015405833333333336,2.7796162499999997,1.9783333333333333,1.2678875,-0.7333833333333333,0.19916666666666666,112.53700000000002,90.04041666666667,1.0958333333333334,2.22375,40.56678651666667,-3.518022210416667,3.485390833333333,112.51237499999998,0.5664364814814816,0
3966.5016666666666,396.6501666666667,105.21796089325845,40.56823111735497,-3.5221511901134788,651.6340860644788,5.700552611163809,10.693683061812001,284.7835691850356,2.881274560151993,0.07833333333333334,1.3904166666666666,0.0,0.9716666666666667,-0.013427916666666668,0.0009024999999999992,-0.007208750000000001,-0.013641666666666668,0.0007658333333333334,-0.007325416666666667,-1.5499541666666667,-0.019045,-2.3045287499999993,-0.1499383333333333,-0.24278916666666664,2.4560904166666666,1.6179166666666667,1.7859041666666666,-0.6658499999999999,0.24166666666666667,107.12370833333333,89.31666666666666,1.1066666666666667,2.131666666666667,40.56614647855929,-3.523553243333951,3.028573106996122,106.8324606053096,1.1630869148772371,0
3645.6183333333333,364.56183333333337,102.09546089325845,40.57136385485497,-3.527866894696812,638.6318777311453,5.631385944497143,10.693683061812001,267.8107775183689,2.61069497681866,-0.037083333333333336,1.2766666666666666,0.0,0.9716666666666667,-0.01258375,-8.541666666666669e-05,-0.006074166666666666,-0.012771666666666667,-0.000323333333333334,-0.006137083333333333,-1.5527012500000001,-0.013322083333333335,-2.18292125,-0.20944833333333326,-0.24199958333333338,2.4580954166666666,1.55125,1.7859041666666666,-0.6658499999999999,0.23875,104.005,89.2375,1.0908333333333333,2.1220833333333333,40.56918332772595,-3.5303943325006175,1.9485889403294554,103.37708560530962,1.1293511741364963,0
3324.735,332.4735,99.68383589325843,40.573906189438304,-3.531918365530146,629.2864610644787,5.44805261116381,10.693683061812001,251.19306918503557,2.25856622681866,0.11291666666666667,1.1766666666666667,0.0,0.9716666666666667,-0.011748333333333333,-0.0021041666666666665,-0.005125833333333334,-0.011830416666666666,-0.00231,-0.005186250000000001,-1.5588320833333333,-0.015317916666666665,-1.9987416666666664,-0.12767583333333338,-0.24741541666666672,2.5278224999999996,1.4925,1.7859041666666664,-0.66585,0.23833333333333334,101.57466666666666,89.2375,1.0908333333333333,2.01375,40.57176969939262,-3.5345652025006182,1.9660693569961218,100.96537727197628,1.1025553408031632,0
3003.8516666666665,300.3851666666667,98.21129422659178,40.57573566318831,-3.5342721730301463,624.7696277311454,5.37305261116381,10.693683061812001,228.5756108517022,1.8410828934853263,0.11166666666666666,1.2316666666666667,0.04583333333333333,0.9716666666666667,-0.010282083333333332,0.0004195833333333334,-0.0025670833333333335,-0.010324583333333335,0.00022666666666666676,-0.0026208333333333335,-1.5641391666666666,-0.0017612500000000013,-1.7013958333333334,-0.15197083333333336,-0.2504220833333333,2.5249412500000004,1.4708333333333334,1.7859041666666666,-0.6658499999999999,0.23833333333333334,100.12470833333334,89.00416666666666,1.0441666666666667,1.9520833333333334,40.57373768314262,-3.5370838666672846,1.882337690329455,99.32925227197627,1.0892101556179776,0
2682.9683333333332,268.2968333333333,97.05129422659178,40.57647333860498,-3.5354357917801456,624.1222527311454,5.264719277830476,10.693683061812001,204.72523585170222,1.6962353934853263,0.15333333333333332,1.5029166666666667,0.15416666666666667,0.9716666666666667,-0.009882916666666667,0.0007958333333333336,-0.0029716666666666667,-0.009935833333333335,0.0006216666666666666,-0.0029825,-1.5673475000000001,-0.006139166666666667,-1.409755,-0.13901333333333335,-0.2524883333333333,2.5214145833333332,1.4695833333333332,1.7859041666666666,-0.6658499999999999,0.23916666666666667,98.989625,88.78333333333333,1.0,1.8879166666666667,40.57462925897595,-3.538360084167284,1.7516072736627886,98.12316893864295,1.0791749704327926,0
2362.085,236.20850000000002,94.49083589325845,40.576343701938306,-3.5351879301134788,624.3668777311453,5.263052611163809,10.693683061812001,186.12811085170222,1.713820810151993,0.245,1.7666666666666666,0.2625,0.9716666666666667,-0.009820416666666668,-1.250000000000015e-05,-0.0028258333333333334,-0.009936666666666668,-0.0001733333333333331,-0.0028625,-1.5660783333333332,-0.014565833333333333,-1.1491270833333331,-0.09108583333333338,-0.2630554166666667,2.516265833333333,1.4716666666666667,1.7859041666666666,-0.6658499999999999,0.24125,96.37904166666667,88.78333333333333,1.0,1.8745833333333333,40.57465502480928,-3.5383722133339512,1.5013035236627887,95.76196060530961,1.0507254333957556,1
2041.2016666666666,204.12016666666668,91.24141922659179,40.57526197818831,-3.5334292259468127,626.3786277311453,5.117219277830476,10.693683061812001,171.30156918503556,1.792612060151993,0.35375,2.245833333333333,0.37083333333333335,0.9716666666666667,-0.010149583333333333,0.00018249999999999996,-0.001604166666666667,-0.010276666666666667,-3.208333333333332e-05,-0.0016225,-1.5696691666666667,-0.0182625,-0.8709674999999999,-0.052539166666666644,-0.27070625000000004,2.5170320833333335,1.4716666666666667,1.7859041666666666,-0.6658499999999999,0.24083333333333334,93.13987499999999,88.78333333333333,1.0,1.9491666666666667,40.573863784809284,-3.537077301667284,1.4694764403294553,92.68454393864295,1.014620803766126,1
1720.3183333333334,172.03183333333334,89.72504422659178,40.573094661521644,-3.5303952463634785,632.3290443978121,5.208885944497143,10.693683061812001,153.88269418503555,2.090114560151993,0.4166666666666667,2.828333333333333,0.4791666666666667,0.9716666666666667,-0.0106025,0.0003445833333333334,-0.00133625,-0.010723333333333333,0.00012541666666666672,-0.0013529166666666668,-1.5792283333333335,-0.0066416666666666655,-0.5214841666666667,-0.05951166666666668,-0.27081083333333333,2.5222204166666664,1.4541666666666666,0.8628125,-0.7536208333333334,0.185,91.721875,88.875,1.0183333333333333,2.0391666666666666,40.571939966475945,-3.534178732917284,1.6716497736627887,91.05283560530961,0.9967955259883483,1
1399.435,139.9435,90.38075255992511,40.5702352369383,-3.5259799605301456,642.518544397812,5.3605526111638095,10.693683061812001,131.86898585170223,2.20906497681866,0.42083333333333334,3.295,0.5125,0.9716666666666667,-0.010735416666666667,0.0011066666666666666,-0.001352916666666667,-0.010833333333333334,0.0008683333333333332,-0.0013333333333333333,-1.58686625,-0.007980833333333335,-0.1777991666666667,-0.017455833333333313,-0.26796624999999996,2.5593545833333335,1.4583333333333333,0.28189166666666665,-0.8629375,0.10625,92.38391666666666,88.875,1.0183333333333333,2.1475,40.569102798142616,-3.5298459412506173,1.6734718569961218,91.66916893864294,1.0040811741364966,1
1297.5,129.75,94.91333333333333,40.56932066833333,-3.5257911141666667,656.160625,4.799166666666666,5.0,124.13508333333334,2.568280833333333,0.7170833333333333,3.9458333333333333,0.5125,1.0,-0.011425833333333333,-0.0009550000000000007,-0.0010220833333333332,-0.011425,-0.0009999999999999994,-0.0009416666666666666,-1.5921879166666668,-0.008582083333333332,0.027751250000000005,0.25655291666666663,-0.007459166666666669,2.8936808333333337,1.75,-0.4991958333333333,-0.9643041666666666,0.03875,94.92145833333333,90.09166666666667,1.0183333333333333,2.3070833333333334,40.56984759,-3.526370804583333,1.6780333333333333,94.68995833333334,1.053615925925926,1
1557.5,155.75,97.12704166666667,40.56618686833334,-3.51944751875,669.4694166666667,4.786666666666667,5.0,120.77191666666666,2.7572600000000005,0.8254166666666667,4.3375,0.5333333333333333,1.0,-0.012153333333333334,0.0004079166666666666,-0.002216666666666667,-0.012199166666666665,0.00036708333333333276,-0.0021149999999999997,-1.58973625,-0.003671666666666665,0.15527999999999997,0.304485,-0.009268749999999997,2.9131933333333335,1.8133333333333332,-0.4991958333333334,-0.9643041666666666,0.03875,97.13524999999998,90.09166666666667,1.0391666666666666,2.3329166666666667,40.56666654,-3.5203423550000004,2.2511558333333337,96.93741666666666,1.0782126851851852,1
1817.5,181.75,97.26024999999998,40.56340495333334,-3.5128812775000005,680.893375,4.879166666666666,5.0,118.11645833333333,2.841180833333333,0.8254166666666667,4.75,0.6416666666666667,1.0,-0.012306250000000001,0.0003945833333333328,-0.0034629166666666667,-0.012329166666666665,0.00032791666666666635,-0.0033745833333333336,-1.5855625000000002,-0.00525833333333333,0.2542054166666667,0.29239,-0.008161666666666668,2.848864583333333,1.84375,0.9513416666666664,-0.8707083333333333,0.075,97.27604166666667,90.09166666666667,1.0391666666666666,2.3329166666666667,40.56388588666667,-3.514179575,2.96088625,96.95666666666666,1.0796927777777778,1
2077.5,207.75,96.19225,40.560687539999996,-3.5063473437500003,690.035875,4.995833333333334,5.0,119.88145833333333,2.9432745833333334,0.8704166666666666,5.120833333333334,0.7291666666666666,1.0,-0.012228750000000002,5.0416666666666526e-05,-0.004590833333333334,-0.01219125,2.7499999999999655e-05,-0.00454375,-1.5811929166666667,-0.006659999999999998,0.33182375,0.2800841666666667,-0.003014583333333336,2.8309929166666667,1.9070833333333332,0.9513416666666665,-0.8707083333333333,0.075,96.213875,90.09166666666667,1.0391666666666666,2.3329166666666667,40.56119654125,-3.5076938704166665,3.143584166666667,95.86333333333333,1.0678261111111111,1
2337.5,233.75,95.48845833333334,40.55776726791667,-3.5002056408333337,695.2753333333334,4.8875,5.0,124.42283333333333,2.941954166666667,0.9329166666666666,5.270833333333333,0.7291666666666666,1.0,-0.012157916666666668,4.041666666666661e-05,-0.004437916666666666,-0.012156666666666668,-6.416666666666658e-05,-0.004436249999999999,-1.5757716666666666,-0.008732499999999999,0.42319916666666674,0.3236404166666667,0.00039124999999999945,2.833860833333333,1.9133333333333333,0.9513416666666668,-0.8707083333333333,0.07625,95.5055,90.09166666666667,1.0391666666666666,2.3329166666666667,40.55839545916667,-3.501593244166667,3.3951258333333336,95.17608333333332,1.0600062037037037,1
2597.5,259.75,95.53804166666667,40.55450921,-3.4946210179166672,696.9854583333333,4.92,5.0,129.10575000000003,2.7575670833333334,0.9495833333333333,5.454166666666667,0.7291666666666666,1.0,-0.012927083333333334,-0.00013041666666666684,-0.0041425,-0.012834583333333335,-0.0001220833333333335,-0.004149583333333333,-1.5717141666666667,-0.007553333333333334,0.5436191666666667,0.3335933333333334,0.0013212500000000012,2.855034166666667,1.9120833333333334,0.9513416666666665,-0.8707083333333333,0.09833333333333333,95.55595833333332,89.74166666666666,1.0391666666666666,2.3270833333333334,40.55523173416667,-3.4959711866666665,3.487170416666667,95.38604166666666,1.0725608333333332,1
2857.5,285.75,94.78020833333333,40.5511453175,-3.4893099216666665,697.7661666666665,4.9575,5.0,127.82108333333332,2.9699879166666667,0.8870833333333333,5.691666666666666,0.7291666666666666,1.0,-0.012945833333333333,-0.0010933333333333337,-0.00475625,-0.012849583333333333,-0.0010495833333333336,-0.00475375,-1.56965125,-6.750000000000182e-05,0.71859125,0.32175875,0.00031291666666666273,2.8675995833333334,1.9125,1.8880041666666667,-0.7989666666666667,0.16083333333333333,94.79204166666666,89.94583333333334,1.08,2.2570833333333336,40.55185035666667,-3.49064845125,3.4554804166666666,94.62766666666667,1.062191388888889,1
3117.5,311.75,94.82545833333333,40.548222305,-3.4835201445833333,695.8843333333333,4.9158333333333335,5.0,120.68254166666665,2.791282083333333,0.8704166666666666,5.65,0.7291666666666666,1.0,-0.012629999999999999,0.0006562499999999999,-0.00488875,-0.012552916666666667,0.0006695833333333332,-0.0049029166666666665,-1.5660695833333333,-0.00597,0.9073083333333333,0.34775,-0.0004012500000000004,2.8743266666666667,1.9325,4.265954166666667,-0.6430458333333333,0.23333333333333334,94.82066666666665,89.85416666666667,1.0616666666666668,2.1670833333333333,40.548678378750004,-3.484940280416666,3.3255241666666664,94.60912499999999,1.0636708333333336,1
3377.5,337.75,95.80091666666667,40.54570194083333,-3.4774121300000003,691.1626666666666,4.849166666666667,5.0,119.22770833333334,2.425102916666667,0.895,5.5625,0.6916666666666667,1.0,-0.01256625,-0.0005170833333333333,-0.004713333333333334,-0.01249625,-0.0005362500000000004,-0.004742083333333333,-1.5618629166666667,-0.013990416666666667,1.0333025,0.37247749999999996,-0.008230000000000001,2.8876883333333336,1.93,3.7809708333333343,-0.6777166666666666,0.20583333333333334,95.80495833333333,89.85416666666667,1.0616666666666668,2.05875,40.54614813083333,-3.478959454166667,3.4637700000000002,95.58245833333334,1.074509259259259,1
3637.5,363.75,96.45570833333333,40.54332689291667,-3.4712024079166666,684.1988333333334,4.706666666666667,5.0,116.825625,2.0155479166666668,0.8579166666666667,5.470833333333333,0.6916666666666667,1.0,-0.012464166666666667,-2.916666666666623e-06,-0.004379583333333333,-0.0124175,-4.083333333333337e-05,-0.004395833333333333,-1.5585025,-0.014964166666666667,1.2026041666666667,0.37204375,-0.0109225,2.874779583333333,1.9866666666666666,3.76515,-0.6787416666666667,0.20291666666666666,96.47475,89.85416666666667,1.0616666666666668,1.9633333333333334,40.5437539525,-3.472800715833334,3.5063537500000006,96.24233333333332,1.081784722222222,1
3834.15,383.415,95.56433333333334,40.540712561250004,-3.463975678333333,674.6574583333332,4.965,7.45,116.86954166666668,1.6229533333333332,0.7479166666666667,5.320833333333334,0.6916666666666667,1.0,-0.01105125,-0.0007687500000000004,-0.0034258333333333332,-0.01125625,-0.0005241666666666665,-0.0034383333333333336,-1.5531791666666668,-0.020702500000000002,1.25596375,0.23697916666666666,-0.12064583333333331,2.72045,1.8491666666666666,3.76515,-0.6787416666666667,0.20291666666666666,96.42154166666667,89.35416666666667,1.0408333333333333,1.96125,40.54062455333333,-3.4672173020833337,3.4164720833333337,95.91399999999999,1.0718805555555555,1
3545.116666666667,354.51166666666666,91.48103579373698,40.536037805139166,-3.454541432647242,662.4237748552704,5.182083333333333,10.635,136.1907412324778,1.442536014496374,0.50125,4.716666666666667,0.5875,1.0,-0.009910416666666668,0.0002225000000000001,-0.001192916666666667,-0.01044,0.0007549999999999997,-0.0012100000000000001,-1.5536787499999998,-0.016812499999999998,1.17454375,0.033543749999999976,-0.26116249999999996,2.5454333333333334,1.625,4.244770833333334,-0.6025666666666666,0.28,93.47025,86.6808473081386,1.0408333333333333,1.9225,40.53513104605197,-3.459631505609796,2.8185010458628503,92.47905596683705,1.0527452530396944,1
3256.0833333333335,325.60833333333335,92.79624412707031,40.532287162639165,-3.446937379730575,652.4538998552705,5.1745833333333335,10.635,157.55874123247776,1.3714989311630406,0.39375000000000004,4.2375,0.4791666666666667,1.0,-0.00979375,-0.00013041666666666662,-0.0006491666666666666,-0.01042625,0.00040416666666666666,-0.0006450000000000002,-1.5577770833333333,-0.01701583333333333,1.0989741666666668,-0.0242516666666666,-0.25685458333333333,2.5535987500000004,1.5995833333333334,5.16705,-0.5402125,0.3695833333333333,94.85225,87.76418064147192,1.0408333333333333,1.9483333333333333,40.5312048243853,-3.451720181026463,2.6113906291961833,93.70930596683705,1.0548959474841388,1
2967.05,296.705,93.70528579373699,40.52960659180584,-3.4404888084805756,646.1331081886036,5.33375,10.635,173.95524123247782,1.5390793478297076,0.28375000000000006,3.64125,0.37083333333333335,1.0,-0.009219583333333333,0.0007833333333333331,-0.0008124999999999999,-0.009836666666666667,0.0013195833333333332,-0.0007958333333333335,-1.5585233333333335,-0.012217083333333333,1.0549616666666664,-0.044058750000000015,-0.25589958333333335,2.5567624999999996,1.5879166666666666,7.590595833333333,-0.4061083333333333,0.43291666666666667,95.72029166666667,88.84751397480527,1.0408333333333333,1.95625,40.52832453730197,-3.4450857906097965,2.49557729586285,94.69109763350372,1.05244867896562,1
2678.016666666667,267.8016666666667,93.01332746040364,40.527895535972505,-3.4350425222305754,640.8937331886036,5.48375,10.635,189.81378289914446,1.8856343478297075,0.29208333333333336,3.1641666666666666,0.2625,1.0,-0.009425000000000001,-0.0006545833333333335,-0.0012116666666666664,-0.010086666666666667,-0.00017083333333333363,-0.001207916666666667,-1.5569754166666667,-0.01392875,0.9439908333333333,-0.03637749999999997,-0.24732249999999997,2.558437083333333,1.58875,9.3162875,-0.23282083333333334,0.5158333333333334,94.99458333333334,89.60584730813859,1.0408333333333333,1.9620833333333334,40.52640306438531,-3.439424210609796,2.402051879196183,94.26684763350373,1.0286832622989535,1
2388.983333333333,238.89833333333334,92.55424412707032,40.52728194638917,-3.430305311397242,635.823941521937,5.58375,10.635,207.49299123247778,1.8296593478297074,0.20833333333333337,2.7891666666666666,0.15416666666666667,1.0,-0.00943,0.0006591666666666667,-0.0006200000000000002,-0.010064583333333333,0.0011508333333333334,-0.0005941666666666668,-1.5583183333333332,-0.015206666666666665,0.8338008333333333,-0.06275958333333335,-0.23581416666666669,2.560287083333333,1.5908333333333333,12.659175,-0.0014083333333333315,0.5979166666666667,94.53675,89.40584730813859,1.0008333333333332,1.9820833333333334,40.525654914385306,-3.434594028526463,2.34672354586285,93.80201430017038,1.0254893734100645,2
2099.95,209.995,91.56624412707032,40.52727040138917,-3.4268944901472422,634.002316521937,5.800416666666667,10.635,227.22290789914445,1.7515697644963741,0.1841666666666667,2.4454166666666666,0.04583333333333333,1.0,-0.00914375,0.00034166666666666655,0.00017583333333333313,-0.009757916666666666,0.0008766666666666667,0.00020124999999999966,-1.5619779166666665,-0.016729166666666666,0.6776749999999999,-0.07634708333333329,-0.23053958333333333,2.5537154166666665,1.5925,12.418354166666667,0.012025000000000006,0.6175,93.563875,89.40168064147193,1.0,1.9825,40.52561158438531,-3.4309514426931296,2.202714379196183,92.82805596683706,1.0145536326693236,2
1810.9166666666667,181.09166666666667,90.28049412707031,40.52728927888917,-3.4252142476472422,635.492316521937,5.88375,10.635,246.70344956581113,1.7455651811630408,0.18250000000000005,2.1120833333333335,0.0,1.0,-0.008074583333333333,0.0006912499999999999,-0.0010979166666666665,-0.008732499999999999,0.0012083333333333332,-0.0010541666666666668,-1.562225416666667,-0.012602083333333331,0.5090883333333333,-0.10866250000000001,-0.22526124999999997,2.550625,1.5954166666666667,14.360416666666667,0.19360416666666674,0.7333333333333333,92.2795,89.40168064147193,1.0,1.9825,40.525633172718635,-3.428735737276463,2.142023129196183,91.48143096683707,1.0002675215582126,2
1521.8833333333334,152.18833333333333,90.07007746040365,40.52730042805584,-3.425287508897242,635.4913998552704,6.027916666666667,10.635,266.1918245658111,1.8012322644963743,0.14958333333333337,1.925,0.0,1.0,-0.008000833333333332,0.0014500000000000001,-0.001578333333333333,-0.008648749999999998,0.0019737500000000002,-0.0015420833333333339,-1.5597170833333334,-0.008277083333333332,0.33915666666666666,-0.13881,-0.22247625,2.5685350000000002,1.565,15.637425,0.3107125,0.8241666666666667,92.13691666666666,89.40168064147193,1.0,1.9825,40.52564791980197,-3.4277774918597963,2.50872729586285,91.15755596683705,0.9979295585952499,2
1232.85,123.285,89.86270246040364,40.527307768055834,-3.427251422230576,634.572816521937,6.209583333333334,10.635,285.6650328991445,1.7731051811630407,0.09250000000000004,1.74125,0.0,1.0,-0.009252916666666666,0.0011312499999999997,-0.0006341666666666668,-0.00995875,0.0016299999999999997,-0.0006095833333333334,-1.5572208333333333,-0.005035416666666666,0.16820499999999997,-0.12662916666666668,-0.2199904166666666,2.58638875,1.5654166666666667,20.8548,0.5574374999999999,0.8929166666666667,91.87125,88.94668064147193,0.99,1.9675,40.52565668396864,-3.429043418526463,2.26888479586285,91.94293096683705,0.49276613266932384,2
1429.5,142.95,94.23579166666667,40.529534821666665,-3.4345861075,638.6284166666667,5.6925,5.0,293.018,2.04205375,0.36,2.05375,0.0,1.0,-0.010909166666666668,0.00232,-0.0027320833333333333,-0.010971250000000002,0.0023233333333333335,-0.002727083333333333,-1.55995375,-0.01070208333333333,0.13597,0.15753791666666667,0.04428541666666667,2.8841629166666665,1.9304166666666667,22.836525,0.6677958333333334,0.9133333333333333,94.26212499999998,92.10333333333334,0.99,2.0004166666666667,40.529213339583336,-3.43217435625,2.4160004166666664,95.121125,0.5163915277777779,2
1689.5,168.95,93.75649999999999,40.53171521833334,-3.4413176087500004,643.3094583333332,5.6575,5.0,294.3976666666667,2.1768408333333333,0.4220833333333333,2.1545833333333335,0.0,1.0,-0.0112775,0.0006041666666666666,-0.002527083333333334,-0.011346666666666668,0.0005620833333333334,-0.002563333333333334,-1.5588758333333335,-0.012011666666666669,0.04972333333333333,0.20633125,0.04521875,2.8619608333333333,1.9416666666666667,23.372108333333337,0.6812458333333333,0.8795833333333334,93.72841666666667,91.87416666666667,1.1075,1.9591666666666667,40.53131955125001,-3.4388513345833327,2.5786075,94.59970833333334,0.5132286111111111,2
1949.5,194.95,92.33441666666666,40.53395814458334,-3.447690395416666,647.9038333333334,5.55,5.0,297.70266666666663,1.8619299999999999,0.41291666666666665,2.341666666666667,0.0,1.0,-0.011674583333333332,0.000741666666666667,-0.0018854166666666668,-0.01172,0.0007570833333333335,-0.0018995833333333334,-1.5607733333333333,-0.015314583333333331,-0.04109249999999998,0.23704874999999997,0.0456525,2.844444166666667,1.9645833333333333,24.749337500000003,0.8190916666666668,0.95625,92.31754166666667,86.74083333333333,1.1075,1.85875,40.53349563458334,-3.4452762175,2.6566820833333336,93.15166666666667,0.6527423611111111,2
2209.5,220.95,92.78033333333333,40.53646374583333,-3.4535741691666666,655.2582916666667,5.6241666666666665,5.0,301.0509583333333,1.6836387499999999,0.32416666666666666,2.29,0.0,1.0,-0.011458749999999998,0.000648333333333333,-0.0015745833333333332,-0.011510833333333333,0.00062625,-0.0016454166666666674,-1.5698529166666666,-0.013437083333333334,-0.09463083333333336,0.20717333333333332,0.04633083333333333,2.811632083333333,1.965,25.746870833333332,0.8580041666666667,0.9654166666666667,92.83512499999999,86.0825,1.1075,1.85875,40.535901385,-3.4512517620833334,2.761595833333333,93.01983333333334,0.6644777777777778,2
2469.5,246.95,94.22204166666667,40.53901621166666,-3.459538228749999,666.4319166666667,5.7,5.0,298.9247083333333,1.66708625,0.3120833333333333,2.0145833333333334,0.0,1.0,-0.010842500000000001,0.00014333333333333328,-0.0016220833333333337,-0.010900416666666668,8.250000000000016e-05,-0.0016916666666666668,-1.5751475000000001,-0.0137325,-0.131595,0.20715416666666667,0.045239166666666664,2.7822508333333333,1.965,24.715891666666668,0.8038208333333333,0.9716666666666667,94.31287499999999,86.0825,1.1075,1.85875,40.538271638333335,-3.456885574166666,2.6443729166666663,93.86829166666668,0.6804967592592591,2
2729.5,272.95,95.96704166666667,40.54143634625,-3.4657701404166663,677.4092499999999,5.7,5.0,297.0100416666667,1.7308112500000001,0.3120833333333333,1.8154166666666667,0.0,1.0,-0.010741666666666667,-9.874999999999985e-05,-0.002641250000000001,-0.010825000000000001,-0.00021541666666666663,-0.0027345833333333337,-1.5708929166666667,-0.011986250000000002,-0.20172541666666668,0.20442916666666666,0.044743333333333336,2.759995416666667,1.9641666666666666,23.598483333333334,0.7468250000000001,0.96625,96.03887499999999,86.0825,1.1391666666666667,1.8429166666666668,40.54032470666667,-3.4622301962499993,2.860011666666667,94.841875,0.6998856481481482,2
2989.5,298.95,96.65620833333334,40.543671349166665,-3.47206788125,685.9187916666667,5.740833333333334,5.0,296.59770833333334,2.096990416666667,0.32125,1.8079166666666666,0.0,1.0,-0.01161125,0.00044499999999999965,-0.00218625,-0.01174375,0.00040166666666666644,-0.0022820833333333334,-1.5673945833333334,-0.018669166666666667,-0.3162491666666667,0.22491958333333334,0.046186666666666674,2.7465016666666666,1.9608333333333334,23.279375,0.7208875,0.96875,96.70820833333333,86.32416666666667,1.2191666666666667,1.8029166666666667,40.5425675775,-3.4687135275,2.8708145833333334,95.59100000000001,0.7049383796296297,2
3249.5,324.95,96.85775,40.54608756875,-3.47834746875,692.6370833333333,5.741666666666666,5.0,298.77845833333333,2.483249583333333,0.33708333333333335,1.89125,0.0,1.0,-0.01216125,-0.003113333333333333,-0.0036520833333333336,-0.0122975,-0.003170416666666667,-0.003784166666666667,-1.56233125,-0.02020125,-0.45827624999999994,0.24783583333333334,0.044422083333333334,2.7221154166666666,1.9725,23.654120833333334,0.747425,0.9608333333333333,96.85475,86.32416666666667,1.2191666666666667,1.8833333333333333,40.5449516025,-3.47592946875,2.4426383333333335,95.858,0.7071777314814816,2
3509.5,350.95,95.25633333333334,40.548645127083326,-3.48450252375,696.852,5.766666666666667,5.0,301.10016666666667,2.84709125,0.3908333333333333,2.03375,0.0,1.0,-0.012629583333333333,-0.0025687499999999994,-0.002812083333333333,-0.0127075,-0.002542916666666666,-0.0029183333333333335,-1.5612233333333332,-0.02827,-0.6353041666666667,0.26953916666666666,0.04561833333333333,2.69777625,1.9925,21.88147083333333,0.7599874999999999,1.03125,95.29070833333333,86.77916666666667,1.2291666666666667,2.006666666666667,40.54744114708333,-3.4821291683333326,2.3585624999999997,93.53866666666669,1.1922434722222222,2
3769.5,376.95,95.01954166666667,40.55165940375,-3.49024335125,698.2402083333334,5.8341666666666665,5.0,308.657375,3.0080650000000007,0.3779166666666667,2.2295833333333333,0.0,1.0,-0.012793333333333332,-0.004132916666666666,-0.0020800000000000003,-0.012929583333333335,-0.004188750000000001,-0.0021883333333333334,-1.5577641666666666,-0.03148833333333333,-0.8352929166666666,0.2698641666666667,0.04317083333333333,2.6938508333333333,1.9895833333333333,19.46735,0.64975,1.0158333333333334,95.11183333333334,86.77916666666667,1.2291666666666667,2.115,40.54993152083333,-3.487388344583333,2.033030416666666,93.13404166666668,1.1896124537037038,2
4029.5,402.95,97.0715,40.555081396666665,-3.4955922066666667,697.513125,6.010833333333333,5.0,308.78141666666664,2.847774166666667,0.2575,2.22,0.0,1.0,-0.013093333333333334,-0.0022149999999999995,-0.001980416666666667,-0.013154166666666666,-0.002215,-0.0020641666666666664,-1.5548170833333332,-0.02136458333333333,-0.9123658333333333,0.23186458333333335,0.04061166666666667,2.684013333333333,1.9895833333333333,17.84097916666667,0.5386541666666668,0.9358333333333333,97.11883333333334,86.19166666666666,1.1116666666666666,2.234583333333333,40.55288534041667,-3.492383955,2.0477454166666664,94.37566666666667,1.2183675462962962,2
4289.5,428.95,98.51941666666666,40.55836254875,-3.5014223241666667,695.4172083333333,6.259166666666666,5.0,303.5335,3.02381125,0.32083333333333336,1.9195833333333334,0.0,1.0,-0.012816666666666667,-0.002135833333333333,-0.0020408333333333333,-0.012849166666666667,-0.002185416666666667,-0.002145416666666667,-1.55122125,-0.02109833333333333,-0.9994166666666666,0.23221166666666668,0.04140708333333334,2.6813641666666665,1.99125,14.085695833333332,0.29462083333333333,0.8216666666666667,98.59416666666667,89.76666666666667,1.1116666666666666,2.2941666666666665,40.55612787041667,-3.4978615008333334,2.1836549999999995,95.65520833333333,1.1077434722222221,2
4549.5,454.95,100.29804166666666,40.56136468666667,-3.5079128883333337,689.3259999999999,6.259166666666666,5.0,299.27891666666665,2.997453333333333,0.34833333333333333,1.8958333333333333,0.0,1.0,-0.013016250000000002,-0.0022208333333333333,-0.0025212499999999996,-0.013033333333333336,-0.0022633333333333325,-0.0025575,-1.5445775,-0.02088375,-1.1165495833333334,0.23725291666666667,0.04022375,2.6781820833333336,1.99125,11.129833333333334,0.07487499999999997,0.70875,100.34954166666668,90.24166666666666,1.1116666666666666,2.3020833333333335,40.559197964999996,-3.50423543125,2.2374075,97.594375,1.1118180092592593,2
4809.5,480.95,100.86666666666666,40.56418847291666,-3.514758753749999,679.448,6.259166666666666,5.0,298.5194583333333,2.9174841666666667,0.34958333333333336,2.06625,0.0,1.0,-0.013485416666666668,-0.001630416666666667,-0.002580416666666667,-0.013502916666666665,-0.0016258333333333333,-0.00261125,-1.53830125,-0.023379166666666666,-1.2526429166666666,0.23578333333333334,0.04165208333333333,2.68125,1.99125,8.807191666666668,-0.11489583333333328,0.5908333333333333,100.8615,90.24166666666666,1.1116666666666666,2.3020833333333335,40.56215246666667,-3.5112092283333336,2.288925416666667,98.49620833333333,1.1181360648148149,2
5069.5,506.95,100.00570833333335,40.56714044416667,-3.521475095,667.1495416666667,6.259166666666666,5.0,301.1114166666667,2.8559837500000005,0.4033333333333333,2.220833333333333,0.0,1.0,-0.013342083333333334,-0.001553333333333333,-0.00232,-0.013319583333333334,-0.0015066666666666668,-0.002334583333333333,-1.5351825000000001,-0.02106125,-1.3694741666666665,0.2559579166666667,0.03918208333333333,2.6646645833333333,1.9920833333333334,7.00905,-0.2814833333333333,0.48875,99.98287499999999,90.24166666666666,1.1116666666666666,2.3020833333333335,40.56552584958333,-3.518916325,2.2879599999999995,98.77704166666668,1.1085698611111112,2
1199.5,119.95,104.54253838301565,40.533994522415234,-3.446536009054116,646.8889697585989,3.3631332091275166,5.0,286.3493731954345,2.1615708531069746,0.42452137129881473,2.5010323674627646,0.042083333333333334,0.935,-0.014184999999999998,-0.0005891666666666668,-0.0034887500000000005,-0.014393333333333333,-0.0005729166666666667,-0.003412916666666667,-1.5614266666666667,-0.004464166666666665,-0.04222166666666665,-0.8320333333333334,-0.5433729166666666,2.2314841666666667,1.2033333333333334,26.077170833333334,0.6128166666666667,0.8945833333333333,104.40504166666668,89.77936151313651,1.1266666666666667,1.8424163272089382,40.52812717234463,-3.4325845208472856,3.578149378612298,104.25466513221332,-0.3232480732003173,0
1459.5,145.95,103.888875,40.53338014208333,-3.446361235416666,654.1608333333334,3.27,5.0,301.46595833333333,2.1170858333333333,0.47875,2.9404166666666667,0.08166666666666667,1.0,-0.014535416666666669,-0.0007137500000000001,-0.00294,-0.01468875,-0.0007424999999999999,-0.0028754166666666663,-1.55758,-0.004156249999999999,-0.14558125,-0.28804166666666664,0.05360499999999999,3.0149145833333333,1.9579166666666667,24.214733333333335,0.6242458333333334,0.9475,103.87720833333336,86.87416666666667,1.1266666666666667,1.7558333333333334,40.531690924166675,-3.442811668333334,3.5527854166666666,103.57570833333334,-0.26089643518518507,0
1719.5,171.95,101.76854166666666,40.536233262500005,-3.4529812724999998,661.7066666666667,3.18125,5.0,303.571125,2.0092625,0.38166666666666665,3.330416666666667,0.1675,1.0,-0.014956666666666667,-0.00015999999999999993,-0.002586666666666667,-0.015080833333333335,-0.00015916666666666672,-0.0025691666666666666,-1.55870375,-0.009133749999999998,-0.25199625,-0.26235416666666667,0.04884625,2.9964600000000003,1.9704166666666667,24.0861,0.7219416666666667,0.9533333333333334,101.78987500000001,86.00333333333333,1.0841666666666667,1.7770833333333333,40.53451131999999,-3.4494462175000007,3.626176666666667,101.42558333333334,-0.2737853240740742,0
1979.5,197.95,99.41320833333334,40.53914152875001,-3.45931216375,671.917,3.256666666666667,5.0,303.04479166666664,1.8019791666666667,0.3754166666666667,3.3245833333333334,0.1675,1.0,-0.014124583333333334,-2.1250000000000066e-05,-0.0014383333333333331,-0.01420625,-1.374999999999978e-05,-0.0014533333333333332,-1.56186625,-0.005638333333333334,-0.3173683333333333,-0.3171541666666667,0.04435375,2.980688333333333,1.9704166666666667,22.767658333333337,0.7764708333333333,1.0358333333333334,99.45129166666666,86.52,1.0841666666666667,1.8570833333333334,40.537536700416666,-3.4559896975,3.2812854166666665,99.42316666666666,-0.3082937037037036,0
2239.5,223.95,96.58370833333333,40.541709287083336,-3.4657275087499997,683.739,3.2916666666666665,5.0,299.81054166666667,1.6771620833333332,0.3879166666666667,3.1370833333333334,0.1675,1.0,-0.012795833333333334,2.3333333333333448e-05,-0.0016991666666666663,-0.012709166666666665,2.45833333333334e-05,-0.0016433333333333332,-1.5598295833333333,-0.011557083333333334,-0.37919291666666666,-0.3132791666666667,0.04178458333333333,2.9744379166666666,1.9670833333333333,13.973591666666664,0.5162166666666667,1.04125,96.63645833333334,86.52,1.09,1.8541666666666667,40.54050949333334,-3.4627707620833332,2.8672424999999997,96.82466666666667,-0.339637638888889,0
2499.5,249.95,93.73520833333333,40.54398834166666,-3.4719376291666664,692.8634999999999,3.3066666666666666,5.0,297.80875,1.8750558333333334,0.34791666666666665,3.08125,0.1675,1.0,-0.013809166666666666,0.00013500000000000003,-0.0023354166666666666,-0.013692500000000002,0.00014291666666666665,-0.0022916666666666667,-1.5566645833333332,-0.014201666666666665,-0.4727862500000001,-0.29359999999999997,0.033672916666666663,2.9764591666666664,1.9645833333333333,13.625795833333333,0.5161916666666666,1.02375,93.77483333333333,87.56166666666667,1.3066666666666666,1.7458333333333333,40.54349948916667,-3.4699927537499993,2.6814091666666666,93.54008333333334,-0.38090546296296274,0
2759.5,275.95,89.850375,40.5462729025,-3.4778190025000004,700.9305416666667,3.24375,5.0,300.22783333333336,2.20052125,0.3025,2.8691666666666666,0.1675,1.0,-0.01361125,-0.0010991666666666665,-0.0023249999999999994,-0.013521666666666666,-0.0010979166666666665,-0.0022720833333333334,-1.5549383333333333,-0.018033749999999998,-0.6327829166666668,-0.2722833333333333,0.025122083333333337,2.9619020833333334,1.975,12.790495833333335,0.5006083333333333,1.0170833333333333,89.86908333333332,88.775,1.55,1.6775,40.54599740708333,-3.4766279337499992,1.7704716666666664,90.31545833333334,1.0687510185185185,0
3019.5,301.95,86.74891666666667,40.54875047875001,-3.483340232083333,707.9015416666666,3.24375,5.0,301.313625,2.5302366666666662,0.245,2.4295833333333334,0.15708333333333332,1.0,-0.013432083333333334,-9.916666666666685e-05,-0.0020275,-0.013267083333333332,-4.874999999999972e-05,-0.0020162500000000002,-1.5522441666666666,-0.01746375,-0.7602858333333333,-0.24522083333333333,0.017407916666666672,2.9686958333333333,1.9875,12.2206625,0.5003958333333333,1.0154166666666666,86.77166666666666,88.775,1.7666666666666666,1.5691666666666666,40.54821560875,-3.481253589583333,3.39150375,86.93258333333334,1.0342903703703705,0
3279.5,327.95,85.868125,40.55139255375,-3.488624703333333,711.4052499999999,3.216666666666667,5.0,304.470875,2.7257766666666665,0.24416666666666667,2.1104166666666666,0.12541666666666668,1.0,-0.013520416666666667,-0.0014899999999999998,-0.0029374999999999996,-0.013342916666666668,-0.0014408333333333332,-0.0028545833333333335,-1.5482729166666667,-0.022590416666666665,-0.9423575,-0.23348333333333335,0.014650833333333333,2.970044166666667,1.9925,12.175083333333333,0.5033375,1.0116666666666667,85.94875,88.775,1.9833333333333334,1.4608333333333334,40.550428877083334,-3.48488865125,7.649995833333334,85.75641666666667,1.0245037962962962,0
3539.5,353.95,85.77145833333333,40.554194747083336,-3.493649099583333,711.2075833333333,3.175,5.0,305.5587083333333,2.678748333333333,0.20291666666666666,1.8545833333333333,0.12541666666666668,1.0,-0.013476666666666666,-0.00154375,-0.0021254166666666665,-0.013290833333333333,-0.0015233333333333334,-0.002130833333333333,-1.5456283333333332,-0.019892916666666663,-1.0536404166666666,-0.2324166666666667,0.01420625,2.97268,1.9904166666666667,12.459900000000001,0.5170708333333334,1.0154166666666666,85.83441666666666,87.72791666666667,2.0675,1.3970833333333332,40.552360147499996,-3.4879532125,11.96909875,85.43450000000001,0.47007032407407423,0
3799.5,379.95,88.36329166666668,40.55703350458334,-3.4988370870833343,709.0765416666667,3.16125,5.0,302.75787499999996,2.8870220833333335,0.14583333333333334,1.4983333333333333,0.11083333333333334,1.0,-0.013339583333333334,-0.0013716666666666669,-0.0027575000000000004,-0.013050833333333333,-0.00136875,-0.0027283333333333335,-1.5425066666666667,-0.015002916666666666,-1.13505125,-0.20840833333333333,0.01351,2.960818333333333,1.9904166666666667,12.801241666666664,0.5133666666666666,1.0129166666666667,88.391875,89.66791666666667,2.0475,1.4279166666666667,40.55510023166667,-3.4930009125,12.569745,87.976375,-0.6308065277777778,0
4059.5,405.95,89.90725,40.559700195000005,-3.504575664166667,704.0266666666666,3.15875,5.0,298.2980833333333,2.8747274999999997,0.23,1.2241666666666666,0.0025,1.0,-0.01314625,-0.0011245833333333333,-0.0024487500000000004,-0.012769166666666667,-0.0010995833333333333,-0.00244,-1.5359266666666667,-0.013620833333333332,-1.2420491666666664,-0.2295375,0.031352083333333336,2.9598866666666668,1.985,13.506475,0.5318375,1.0070833333333333,89.88820833333334,89.66791666666667,2.0475,1.4279166666666667,40.55780570333333,-3.4986451566666665,12.594907083333334,89.48291666666667,-0.6136514351851852,0
4319.5,431.95,91.966125,40.5622204825,-3.510697710833333,694.828625,3.098333333333333,5.0,296.8715833333334,2.7968004166666667,0.20916666666666667,1.1816666666666666,0.0,1.0,-0.013549166666666668,-0.0009154166666666669,-0.0023412500000000004,-0.013312500000000001,-0.0008679166666666668,-0.00233625,-1.53124125,-0.011570833333333332,-1.3705166666666668,-0.2212375,0.036539583333333334,2.97287375,1.9691666666666667,14.147166666666665,0.5463833333333334,1.0175,91.94991666666667,89.66791666666667,2.0475,1.4279166666666667,40.56025471583333,-3.5045799166666667,12.661430416666667,91.45254166666668,-0.5907750462962965,0
4579.5,457.95,93.67445833333333,40.56482221708333,-3.516946547916667,683.2825833333333,3.069166666666667,5.0,299.210125,2.7456925,0.22583333333333333,1.3258333333333334,0.0,1.0,-0.013277500000000001,-0.0010508333333333335,-0.0026333333333333334,-0.013072916666666667,-0.00107375,-0.002622083333333334,-1.5272058333333334,-0.012715,-1.5128008333333332,-0.2254833333333333,0.03741291666666667,2.9680066666666667,1.9595833333333332,14.362345833333336,0.5461833333333334,1.0525,93.58670833333332,89.66791666666667,2.0475,1.4279166666666667,40.56283833458333,-3.5108465520833336,12.621622499999999,93.09616666666668,-0.5717935648148147,0
4839.5,483.95,94.29391666666668,40.567858032083336,-3.5231256245833342,670.2082083333335,3.0620833333333333,5.0,304.2723333333334,2.6577933333333332,0.23416666666666666,1.27375,0.0,1.0,-0.013442083333333332,-0.001837083333333333,-0.0024625,-0.013227500000000001,-0.0018412499999999998,-0.002469583333333333,-1.5233079166666665,-0.00829625,-1.6351320833333334,-0.21856666666666663,0.033680416666666664,2.9505583333333334,1.9629166666666666,14.120279166666666,0.5331416666666666,1.0704166666666666,94.20316666666668,88.80541666666667,1.875,1.5141666666666667,40.56577496291666,-3.5172243025,12.572327083333334,94.077875,-0.5568503703703706,0
4881.94,488.194,94.01691666666667,40.570540743229564,-3.527736635388559,656.2403076923889,3.0970833333333334,5.0,298.7374986762576,2.3751137399482976,0.23601682690277703,1.271108573687499,0.0,0.965,-0.01338625,-0.0009158333333333333,-0.0037625000000000007,-0.013141666666666668,-0.0007404166666666669,-0.003742916666666667,-1.5246870833333332,-0.0041024999999999985,-1.6182141666666667,-0.5352625000000001,-0.2887275,2.5558341666666666,1.5754166666666667,13.929583333333333,0.499575,1.0354166666666667,93.94591666666668,88.65509415048543,1.6583333333333334,1.5622114716828472,40.566267364533715,-3.5167529044871024,12.35882901482686,93.3462500868123,-0.55884417842851,0
4468.54,446.85400000000004,94.13905427827277,40.57262963217946,-3.53059937507253,644.4752243046433,3.205416666666667,5.0,280.8940965660042,2.3050789235450684,0.2552547794937276,1.287048835907258,0.0,0.9079166666666667,-0.013062083333333334,1.2916666666666724e-05,-0.004145,-0.012714583333333333,0.0001370833333333334,-0.004064166666666667,-1.5320891666666667,-0.009418333333333332,-1.5028787499999998,-1.0300875,-0.80664375,1.8793916666666666,0.9129166666666667,12.248524999999999,0.32387499999999997,0.9275,94.09349999999999,89.01859349996018,1.4416666666666667,1.682306805916827,40.564753667499765,-3.5110163998633093,11.759720970724887,93.71545440700905,-0.560971953680546,0
4055.14,405.514,94.1561376116061,40.57523241092946,-3.53433090257253,636.4515993046433,3.245416666666667,5.0,263.0187632326708,2.0412789235450686,0.2827547794937276,1.350798835907258,0.0,0.9079166666666667,-0.012199583333333335,-1.3750000000000058e-05,-0.003470833333333334,-0.0119775,3.375000000000026e-05,-0.00336875,-1.5373104166666667,-0.002993333333333334,-1.35474375,-0.9735791666666668,-0.8136041666666667,1.899934166666667,0.9041666666666667,10.585258333333334,0.154325,0.82,94.08133333333333,89.01859349996018,1.225,1.7906401392501599,40.56774290624976,-3.5163565490299757,7.4793509707248855,93.91974607367571,-0.5607821388657311,0
3641.74,364.174,94.04897094493943,40.57697027134613,-3.5369392925725305,631.86989097131,3.30125,5.0,238.65980489933747,1.8502726735450683,0.343588112827061,1.5978821692405913,0.0,0.9079166666666667,-0.011540416666666668,0.0009412500000000001,-0.0037741666666666666,-0.011337916666666666,0.0010370833333333334,-0.003651666666666667,-1.5414445833333335,0.0014949999999999994,-1.12913625,-0.9621595833333333,-0.8112337500000001,1.90945,0.8883333333333333,8.751225000000002,-0.022554166666666663,0.7079166666666666,93.98166666666667,89.01859349996018,1.0083333333333333,1.8989734725834932,40.5703443795831,-3.5210515611133086,3.204972220724886,93.90203774034238,-0.5619728796064722,0
3228.34,322.834,92.45067927827277,40.577779759262796,-3.5385233967391967,629.4475993046432,3.40375,5.0,216.09288823267082,1.703369340211735,0.42817144616039426,1.9862155025739245,0.03916666666666667,0.9079166666666667,-0.01094875,0.0007775000000000002,-0.0032633333333333334,-0.010781666666666665,0.0008970833333333335,-0.00314625,-1.5419770833333333,-0.004638333333333333,-0.9582474999999999,-0.8874979166666667,-0.8164666666666667,1.9360799999999998,0.8716666666666667,6.766199999999998,-0.1958166666666667,0.6008333333333333,92.37708333333333,90.42151016662685,1.0,1.9514734725834932,40.571582061249764,-3.523273251946642,1.5350426373915524,92.56816274034236,1.0230058240972315,0
2814.94,281.49399999999997,90.45059594493944,40.577833282596124,-3.538674888405864,628.9009743046432,3.4675,5.0,196.28326323267083,1.6632376735450685,0.42317144616039426,2.3099655025739247,0.135,0.9079166666666667,-0.011000833333333333,0.0008108333333333335,-0.00326,-0.010849583333333334,0.0009612499999999998,-0.0030958333333333337,-1.5468516666666667,-0.007151666666666667,-0.7838033333333333,-0.7965325000000001,-0.8331429166666667,1.9541304166666669,0.87,4.8486666666666665,-0.36611666666666665,0.49916666666666665,90.3985,90.42151016662685,1.0,1.9514734725834932,40.57177611416643,-3.523834112363309,1.585329720724886,90.67587107367571,1.0007826759490834,1
2401.54,240.154,88.4540126116061,40.57722615634613,-3.53730263882253,630.9239326379767,3.5533333333333332,5.0,178.5628048993375,1.7669351735450687,0.4327547794937276,2.4837155025739244,0.2375,0.9079166666666667,-0.010502083333333334,0.0015308333333333335,-0.00330875,-0.010398333333333332,0.0016587499999999999,-0.003113333333333333,-1.5495075,-0.01023875,-0.6248333333333332,-0.7971370833333333,-0.8344283333333333,1.9767529166666669,0.885,3.0765541666666665,-0.5313041666666666,0.38208333333333333,88.40462500000001,90.42151016662685,1.0,1.9514734725834932,40.57146611791643,-3.5231690481966416,1.9653993040582192,88.71695440700904,0.9785984166898241,1
1988.14,198.814,87.0508876116061,40.575728555512796,-3.5346922567391963,634.17976597131,3.5533333333333332,5.0,163.66976323267082,1.812330173545068,0.49358811282706094,2.572882169240591,0.2375,0.9079166666666667,-0.0109275,0.001927083333333333,-0.0030575000000000003,-0.010802083333333334,0.00203125,-0.0028925,-1.5532475,-0.009810416666666667,-0.4803733333333333,-0.76178375,-0.8312695833333333,2.0012825,0.8879166666666667,3.3502291666666664,-0.58995,0.3275,87.03129166666666,90.42151016662685,1.0,2.05314013925016,40.5700952770831,-3.5207025094466426,1.8995663873915525,87.36470440700904,0.9630081389120464,1
1574.74,157.474,86.6985126116061,40.57321486217946,-3.5311141025725297,640.38814097131,3.6245833333333333,5.0,146.1520132326708,2.0298385068784017,0.5702547794937276,2.9053821692405912,0.2375,0.9079166666666667,-0.011064166666666667,0.002235833333333333,-0.003129583333333333,-0.010907083333333333,0.0023554166666666667,-0.0029929166666666667,-1.5603091666666666,-0.005839999999999999,-0.28937625000000006,-0.7609241666666666,-0.8227370833333332,2.0331995833333334,0.8429166666666666,4.189583333333333,-0.6382416666666667,0.20708333333333334,86.69699999999999,90.73817683329351,1.0633333333333332,2.0981401392501597,40.56766580666643,-3.5172190819466427,1.9311888873915526,87.0319960736757,0.955915731504639,1
1223.5,122.35,88.72517927827278,40.57037326061685,-3.5265854800878476,650.3273334788583,3.6491666666666664,5.0,127.8903813835021,2.2391332207493018,0.6332379026066152,3.3629818539099228,0.3225,0.9179166666666667,-0.011439166666666667,0.002564583333333333,-0.0016183333333333334,-0.011333333333333334,0.0025004166666666664,-0.0014916666666666667,-1.5705258333333334,-0.006857499999999999,-0.08941791666666667,-0.6756,-0.7229312500000001,2.1516008333333336,0.9579166666666666,3.0632291666666664,-0.7898,0.13083333333333333,88.73520833333333,90.8346878814834,1.0633333333333332,2.2719127297453787,40.56546452635773,-3.5143536390929837,1.9735343642181165,88.86380003936526,0.9776935010446205,1
1483.5,148.35,89.62904166666667,40.56854585083334,-3.524251869166667,663.2529583333333,3.627083333333333,5.0,126.3603333333333,2.4883216666666668,0.69,3.8041666666666667,0.38083333333333336,1.0,-0.011611250000000002,0.00043875000000000007,-0.0017629166666666665,-0.011649583333333335,0.00040624999999999993,-0.0016666666666666668,-1.5688341666666668,-0.0071416666666666686,-0.09216875000000002,0.04300000000000001,0.017621666666666667,3.15145625,1.8795833333333334,7.220020833333333,-0.55245,0.24125,89.63791666666667,90.31666666666666,1.0633333333333332,2.339583333333333,40.569068121250005,-3.5253900737500006,1.9528533333333333,89.858125,0.9927011111111111,1
1743.5,174.35,89.49879166666666,40.56555434708333,-3.5184043233333333,676.1194583333333,3.589583333333333,5.0,120.73945833333333,2.6440187500000003,0.8125,4.2775,0.4891666666666667,1.0,-0.01197875,0.001635833333333333,-0.0022774999999999996,-0.011899583333333331,0.00165625,-0.0021895833333333337,-1.56695875,-0.00405375,0.016721666666666645,0.03156,0.019652083333333337,3.1563725,1.8829166666666666,11.699045833333333,-0.2707541666666667,0.34875,89.51033333333334,90.5375,1.1908333333333334,2.2758333333333334,40.566042278750004,-3.5195637045833337,1.9831433333333333,89.74666666666667,0.9890202777777777,1
2003.5,200.35,89.965,40.56303474333334,-3.5123791279166667,687.7175416666668,3.5329166666666665,5.0,118.18162500000001,2.7972308333333333,0.79875,4.679583333333333,0.5975,1.0,-0.0123125,0.0009529166666666665,-0.0020762500000000004,-0.012271666666666667,0.0009762499999999996,-0.0019658333333333333,-1.5649166666666667,-0.006884583333333333,0.06472791666666668,0.03945500000000001,0.01565625,3.170389166666667,1.90125,15.5107625,-0.02012500000000003,0.46,89.98104166666667,90.64583333333333,1.2125,2.265,40.563510067083335,-3.513559215416667,2.0091012500000005,90.18941666666667,0.9930763425925924,1
2263.5,226.35,90.70133333333332,40.56053424458334,-3.5063075125,697.3892083333334,3.495,5.0,119.40429166666668,2.883054583333333,0.8004166666666667,4.837083333333333,0.6916666666666667,1.0,-0.0122475,0.0008749999999999998,-0.0027179166666666667,-0.012199583333333333,0.00080875,-0.002580416666666667,-1.5607875000000002,-0.0074954166666666685,0.1208675,0.013629583333333332,0.01789,3.1827858333333334,1.9166666666666667,19.350675,0.22726250000000003,0.5645833333333333,90.73241666666667,90.64583333333333,1.2125,2.265,40.561081967499995,-3.5075785974999993,2.01097,90.68529166666667,1.0012578240740742,1
2523.5,252.35,91.041375,40.557804921666666,-3.5004409445833335,703.0804166666667,3.4520833333333334,5.0,123.92916666666666,2.9394412500000002,0.7383333333333333,4.69625,0.6108333333333333,1.0,-0.01239,-0.00021833333333333324,-0.0040574999999999995,-0.012373333333333332,-0.0002833333333333335,-0.00392625,-1.5553070833333333,-0.009656666666666668,0.16935625,-0.040359583333333324,0.02250875,3.1884591666666666,1.9279166666666667,21.84535,0.42976250000000005,0.66625,91.07074999999999,90.64583333333333,1.2125,2.265,40.5583459325,-3.50157284375,2.0137208333333336,91.03591666666667,1.005036064814815,1
2783.5,278.35,92.3325,40.554743036666665,-3.4950302483333324,705.6646666666668,3.3495833333333334,5.0,127.948625,2.7573874999999997,0.7341666666666666,4.487916666666667,0.5025,1.0,-0.012905,-0.0004099999999999999,-0.004028333333333333,-0.012860833333333333,-0.00043416666666666685,-0.003923333333333333,-1.5534029166666665,-0.00838625,0.26228750000000006,-0.03309916666666666,0.0234575,3.2088374999999996,1.92875,26.127583333333334,0.6892833333333334,0.795,92.36675000000001,88.22083333333333,1.2125,2.2245833333333334,40.555116536250004,-3.4955905895833332,1.6033429166666666,92.22695833333334,1.108857824074074,1
3043.5,304.35,93.38570833333334,40.55151504666667,-3.4898056399999997,706.9729583333334,3.3491666666666666,5.0,126.686875,2.94916375,0.73875,4.39375,0.48333333333333334,1.0,-0.013086249999999999,-0.0016483333333333335,-0.005185,-0.013027500000000001,-0.0016483333333333335,-0.005098333333333333,-1.5506037499999998,-0.0013912499999999995,0.41647708333333333,-0.10434333333333333,0.0297075,3.2291808333333334,1.93375,29.68807083333333,0.8933375000000001,0.8683333333333333,93.41162499999999,88.66666666666667,1.3016666666666667,2.1033333333333335,40.55183875416667,-3.4903451825,1.5093433333333333,93.27412499999998,1.1156024537037035,1
3303.5,330.35,93.2315,40.54862141,-3.4840822791666666,705.24675,3.29375,5.0,119.81379166666666,2.85485,0.7058333333333333,4.3275,0.48333333333333334,1.0,-0.012821250000000001,-0.0005175,-0.005425833333333335,-0.012764583333333333,-0.00057625,-0.005366666666666667,-1.5438075,-0.006424583333333332,0.6093712500000001,-0.11891083333333334,0.028032916666666664,3.24565125,1.9554166666666666,29.336304166666668,0.9573125000000001,0.9179166666666667,93.22854166666667,88.35,1.2383333333333333,2.058333333333333,40.54889439,-3.484665644583333,1.5080041666666666,93.13225,1.1170661574074074,1
3563.5,356.35,92.62066666666666,40.546100994583334,-3.4781728154166665,700.4685416666666,3.254166666666667,5.0,118.25408333333333,2.58415875,0.7004166666666667,4.159166666666667,0.42333333333333334,1.0,-0.012757916666666667,-0.00073375,-0.005797916666666667,-0.012676666666666666,-0.0007758333333333335,-0.00574875,-1.5395416666666668,-0.013482499999999998,0.7384254166666667,-0.13745666666666667,0.024562916666666663,3.260733333333333,1.945,31.498987500000002,1.1527916666666667,1.0254166666666666,92.62704166666667,88.35,1.2383333333333333,1.95,40.54636318041666,-3.4787408170833336,1.4791708333333333,92.52566666666665,1.1102791203703704,1
3823.5,382.35,91.96708333333333,40.54372442458333,-3.472284032916667,693.30125,3.1816666666666666,5.0,115.87595833333333,2.2202979166666665,0.6991666666666667,4.129166666666666,0.3958333333333333,1.0,-0.012740416666666666,8.541666666666688e-05,-0.005054583333333333,-0.012654166666666666,-2.958333333333359e-05,-0.005026666666666666,-1.53664875,-0.013741666666666666,0.9172512500000001,-0.1214875,0.024127083333333334,3.269028333333333,1.9454166666666666,31.46750416666667,1.2144166666666667,1.03125,91.97725,88.35,1.2383333333333333,1.8416666666666666,40.543957755,-3.4728049925000004,1.4108075,91.73366666666666,1.1030170833333333,1
4083.5,408.35,92.10766666666665,40.54148053291666,-3.466362954166666,685.4791666666666,3.2333333333333334,5.0,116.87316666666666,1.9330470833333333,0.655,4.129166666666666,0.3958333333333333,1.0,-0.011805833333333331,-0.0004979166666666664,-0.004760833333333333,-0.011747916666666667,-0.0005624999999999998,-0.00472375,-1.5352104166666667,-0.017910833333333334,1.0143225,-0.15687333333333336,0.027827083333333332,3.2582595833333334,1.94625,28.806070833333337,1.1055458333333332,1.035,92.11179166666666,88.17916666666666,1.1391666666666667,1.89,40.54171893875,-3.466868444583333,1.3738395833333334,91.89774999999999,1.106293564814815,1
