t_sec,speed_kmh,lat,lon,alt,vert_acc,horiz_acc,course,difcourse,hdop,vdop,pdop,active,acc_x,acc_y,acc_z,acc_x_kf,acc_y_kf,acc_z_kf,roll,pitch,yaw,x_lane,phi,road_width,lane_state,dist_front,ttc_front,num_vehicles,gps_speed,max_speed,speed_rel,road_type_osm,num_lanes,lane_id,lat_osm,lon_osm,osm_delay,gps_speed_osm,driver,behavior,road_type
14,85.5,40.505798,-3.355894,606.3,6,5,274.6,2.109,0,0,0,1.0,-0.0044,-0.0149,-0.1075,-0.006499999999999999,-0.0099,-0.10769999999999999,-1.6401,-0.0002000000000000001,-0.9102,0.051037037037037034,0.004481481481481481,3.4294074074074072,-0.2962962962962963,-1.0,-1.0,0.0,83.05,-1.0,2,-,-1,1,40.506252,-3.355367,1.351,82.7,D1,Normal,motor
16,85.5,40.505817,-3.356466,606.4,6,5,274.9,0.352,2,0,0,1.0,0.014700000000000001,-0.014400000000000001,-0.019700000000000002,0.0099,-0.0117,-0.0198,-1.5649000000000002,0.0221,-0.8934000000000001,-0.48732,-0.02756,3.1809600000000002,2.0,-1.0,-1.0,0.0,85.65555555555555,120.0,1,motorway,3,1,40.505798,-3.355895,1.52,85.7,D1,Normal,motor
18,85.2,40.505844,-3.357017,605.4,6,5,274.9,0.352,2,0,0,1.0,-0.0162,-0.0095,0.0109,-0.0187,-0.0064,0.0092,-1.5463,-0.0026000000000000003,-0.8899000000000001,0.24425925925925926,0.09166666666666667,3.3346666666666667,0.8148148148148148,-1.0,-1.0,0.2222222222222222,85.55555555555556,90.0,1,motorway_link,2,-1,40.505817,-3.356466,1.23,85.6,D1,Normal,motor
20,87.2,40.505878,-3.357584,604.5,4,5,275.6,0.703,2,0,0,1.0,-0.004200000000000001,0.0021,-0.027599999999999996,-0.008400000000000001,-0.0008,-0.024,-1.5566,0.0075,-0.885,0.8084583333333333,-0.04758333333333333,3.2106250000000003,2.0,3.245,-0.4625,1.0,86.15,90.0,1,motorway_link,2,-1,40.505844,-3.357018,1.778,86.0,D1,Normal,motor
22,86.8,40.50592,-3.358151,603.7,4,5,276.3,0.703,1,4,0,1.0,-0.0079,-0.011,-0.0046,-0.0076,-0.011899999999999999,-0.008299999999999998,-1.5328,-0.0036,-0.8824,0.4431481481481481,-0.003074074074074074,3.327555555555555,1.962962962962963,13.89875,0.575,1.0,86.975,120.0,1,motorway,4,-1,40.505878,-3.357584,1.326,87.0,D1,Normal,motor
24,86.4,40.505959,-3.358722,603.9,4,5,275.6,0.703,0,4,0,1.0,-0.020200000000000003,-0.0102,-0.0206,-0.020200000000000003,-0.0060999999999999995,-0.0201,-1.5297,0.0103,-0.8565999999999999,0.25807407407407407,-0.009666666666666667,3.6124814814814816,1.8888888888888888,16.983333333333334,0.7066666666666666,1.2222222222222223,86.55555555555556,120.0,1,motorway,4,-1,40.50592,-3.358151,1.688,86.6,D1,Normal,motor
27,85.0,40.505993,-3.359544,603.2,4,5,272.8,2.109,1,5,1,1.0,-0.0078,-0.0262,-0.0109,-0.0109,-0.0246,-0.0101,-1.5387,0.053000000000000005,-0.7803,0.5134137931034484,0.017551724137931036,3.2307586206896555,2.0,18.005555555555556,0.77,2.0,84.22222222222223,120.0,1,motorway,3,-1,40.505959,-3.358723,2.142,84.0,D1,Normal,motor
29,83.9,40.505997,-3.360087,603.7,4,5,269.3,3.516,0,5,1,1.0,-0.021400000000000002,0.0434,0.0158,-0.0185,0.0426,0.0166,-1.5377,0.0484,-0.7247999999999999,0.37837499999999996,-0.017374999999999998,3.2838333333333334,1.9166666666666667,19.037777777777777,0.8155555555555556,3.0,84.07777777777777,120.0,1,motorway,3,-1,40.505993,-3.359544,1.914,84.1,D1,Normal,motor
33,88.9,40.505928,-3.3612,603.7,4,5,262.3,4.219,0,4,0,1.0,-0.0121,0.0619,0.013300000000000001,-0.007999999999999998,0.055600000000000004,0.0153,-1.6359,0.0499,-0.5814,-0.6963076923076923,-0.013884615384615384,3.3151153846153845,0.9615384615384616,11.025714285714287,0.04999999999999998,1.8571428571428572,86.58571428571429,120.0,1,motorway,3,0,40.505997,-3.360088,3.996,86.2,D1,Normal,motor
35,93.8,40.505852,-3.3618,605.1,4,5,260.5,1.758,0,4,0,1.0,-0.0091,-0.003,-0.0113,-0.0092,-0.003,-0.0127,-1.6235,0.0098,-0.5524000000000001,0.3223846153846154,0.045884615384615385,3.300538461538461,1.6538461538461537,10.462222222222222,0.09000000000000001,2.0,91.84444444444443,120.0,1,motorway,3,0,40.505928,-3.3612,1.218,91.6,D1,Normal,motor
36,95.3,40.505806,-3.362112,605.5,4,5,259.5,2.461,0,4,0,1.0,-0.0035000000000000005,0.0030999999999999995,-0.0126,-0.004,0.0062,-0.011300000000000001,-1.6106000000000003,0.0007000000000000001,-0.5359,0.18296296296296297,-0.03540740740740741,3.2283333333333335,1.9259259259259258,17.004444444444445,0.6511111111111112,2.0,94.13333333333333,120.0,1,motorway,3,0,40.505852,-3.3618,0.858,93.8,D1,Normal,motor
38,96.9,40.505699,-3.362735,606.2,4,5,257.0,2.461,0,4,0,1.0,-0.0142,0.0027,-1.7347234759768072e-19,-0.0134,-0.0012999999999999997,0.0004,-1.5904,0.002,-0.4986,-0.19018518518518518,0.060740740740740734,3.160037037037037,1.8888888888888888,21.64375,0.81,2.0,96.19999999999999,120.0,1,motorway,3,0,40.505806,-3.362112,1.902,96.1,D1,Normal,motor
42,102.5,40.505383,-3.364004,607.9,4,5,250.7,3.164,0,3,0,1.0,-0.0033,0.0070999999999999995,-0.0014999999999999996,-0.0035000000000000005,0.013000000000000001,0.0004999999999999999,-1.6107,0.013300000000000001,-0.43179999999999996,-0.3389655172413793,0.0759655172413793,3.2049310344827586,1.9655172413793103,23.6875,0.845,1.0,100.925,120.0,1,motorway,3,0,40.505699,-3.362735,3.796,100.7,D1,Normal,motor
45,104.6,40.505077,-3.364972,608.1,4,5,245.7,3.516,0,3,0,1.0,-0.003300000000000001,0.009,-0.0087,-0.0029000000000000002,0.0064,-0.013600000000000001,-1.5507,0.0241,-0.3894,-0.30492592592592593,0.09211111111111112,3.3998518518518517,1.8888888888888888,23.823,0.817,1.0,104.96,120.0,1,motorway,3,0,40.505383,-3.364004,2.913,105.0,D1,Normal,motor
47,105.3,40.504837,-3.365581,609.6,4,5,242.2,3.516,0,3,0,1.0,-0.010600000000000002,-0.019700000000000002,0.014300000000000002,-0.011899999999999999,-0.019700000000000002,0.016300000000000002,-1.5756000000000001,0.0308,-0.367,-0.21719999999999998,0.11004,3.25996,1.96,23.531111111111112,0.8122222222222223,1.1111111111111112,104.2,120.0,1,motorway,3,0,40.505077,-3.364972,1.32,104.2,D1,Normal,motor
49,107.0,40.504578,-3.366187,610.6,4,5,239.4,2.812,0,2,0,1.0,0.004100000000000001,0.0261,-0.0052,-0.0019999999999999996,0.0233,-0.0062,-1.5531000000000001,0.0392,-0.3579,-0.23692592592592593,0.09966666666666667,3.1831111111111112,1.8888888888888888,24.40888888888889,0.8244444444444444,2.0,106.55555555555556,120.0,1,motorway,3,0,40.504837,-3.365581,2.065,107.0,D1,Normal,motor
51,106.3,40.504295,-3.366757,609.0,4,5,237.7,1.758,0,2,0,1.0,-0.0021000000000000003,0.005,0.0156,-0.0008,0.014599999999999998,0.0116,-1.5295,0.042499999999999996,-0.375,-0.23266666666666666,0.11283333333333334,3.3408333333333338,1.875,21.97,0.74,2.0,106.84444444444445,120.0,1,motorway,3,0,40.504436,-3.366474,1.041,106.3,D1,Normal,motor
60,116.7,40.502861,-3.36947,610.1,4,5,236.7,0.765,0,2,0,1.0,-0.006,-0.0027,-0.0079,-0.003,-0.0043,-0.0075,-1.5645,-0.006,-0.5226,-0.14584615384615385,0.048423076923076916,3.2045384615384616,1.8846153846153846,-1.0,-1.0,0.0,115.9125,120.0,1,motorway,3,1,40.504143,-3.367038,7.415,115.8,D1,Normal,motor
62,117.5,40.50256,-3.370119,605.5,4,5,237.0,0.27,0,2,0,1.0,-0.0037000000000000006,0.0178,-0.0004,0.0004000000000000007,0.0222,0.00030000000000000003,-1.5657999999999999,-0.0225,-0.5666,0.15666666666666665,0.131,3.124375,1.75,-1.0,-1.0,0.0,116.97500000000001,120.0,1,motorway,3,1,40.502861,-3.369471,1.148,116.9,D1,Normal,motor
65,119.0,40.502117,-3.371135,605.5,3,5,239.1,0.352,0,2,0,1.0,-0.013000000000000001,-0.0299,-0.0095,-0.0106,-0.029699999999999997,-0.0098,-1.5561,0.0334,-0.5952999999999999,-0.1901153846153846,0.007692307692307693,3.3816923076923073,1.0,-1.0,-1.0,0.0,118.61111111111111,120.0,1,motorway,3,1,40.50256,-3.37012,2.661,118.5,D1,Normal,motor
66,119.2,40.501953,-3.371472,604.9,3,5,238.0,1.055,0,2,0,1.0,-0.013500000000000002,-0.024,-0.0189,-0.0158,-0.028600000000000004,-0.0172,-1.5471,0.0494,-0.5856,-0.172,0.13139285714285714,3.4949642857142855,1.8571428571428572,149.72375,4.28625,0.75,119.025,120.0,1,motorway,3,1,40.502117,-3.371136,0.864,119.0,D1,Normal,motor
69,117.1,40.501469,-3.37244,603.9,3,5,237.3,0.352,0,2,0,1.0,-0.014100000000000001,0.0186,0.0086,-0.010600000000000002,0.020900000000000002,0.007300000000000001,-1.5292,0.027000000000000003,-0.5885999999999999,0.02196,0.046799999999999994,3.4330000000000003,1.92,38.76888888888889,0.43444444444444447,1.2222222222222223,117.41111111111111,120.0,1,motorway,3,1,40.501953,-3.371473,2.767,117.5,D1,Normal,motor
70,116.8,40.501308,-3.372756,602.4,3,5,237.3,0.0,0,2,0,1.0,-0.005666666666666666,0.009333333333333334,0.0016666666666666668,-0.007333333333333334,0.008888888888888889,0.0027777777777777775,-1.5364444444444443,0.012222222222222223,-0.5935555555555555,0.02347826086956522,0.0371304347826087,3.4173043478260867,1.8695652173913044,-1.0,-1.0,2.0,117.1,120.0,1,motorway,3,1,40.501469,-3.372441,0.85,117.1,D1,Normal,motor
72,116.3,40.500992,-3.373397,601.6,3,5,237.3,0.0,0,2,0,1.0,-0.0085,0.0237,-0.0014000000000000006,-0.014799999999999999,0.0187,-0.0016999999999999997,-1.5362,0.016300000000000002,-0.5976999999999999,-0.034,0.04212,3.37956,1.84,-1.0,-1.0,1.0,116.3875,120.0,1,motorway,3,1,40.501308,-3.372756,1.698,116.4,D1,Normal,motor
75,117.2,40.500507,-3.374349,600.7,3,5,237.3,0.0,0,2,0,1.0,-0.013900000000000001,0.0086,0.0068000000000000005,-0.0113,0.0103,0.0091,-1.5461,0.0158,-0.5986,0.01084,0.06984,3.3414800000000002,1.76,-1.0,-1.0,0.0,116.66666666666667,120.0,1,motorway,3,1,40.500992,-3.373398,2.169,116.6,D1,Normal,motor
77,116.2,40.500183,-3.374978,601.5,4,5,236.6,0.703,0,2,0,1.0,-0.005599999999999998,-0.0067,-0.0235,-0.0083,-0.0081,-0.0221,-1.528,0.026000000000000002,-0.5951,-0.28550000000000003,0.07979166666666666,2.77225,1.5833333333333333,-1.0,-1.0,0.5555555555555556,116.64444444444445,120.0,1,motorway,3,1,40.500507,-3.37435,1.509,116.7,D1,Normal,motor
80,112.9,40.499718,-3.375908,597.7,4,5,238.4,1.758,2,1,0,1.0,-0.0021999999999999997,0.0127,0.0079,-0.0079,0.020200000000000003,0.0089,-1.5265,-0.026000000000000002,-0.6202,0.6692,0.14812,3.4673200000000004,1.84,2.2357142857142853,-0.76,1.0,114.1,120.0,1,motorway,3,1,40.500183,-3.374978,2.306,114.1,D1,Normal,motor
82,113.3,40.49942,-3.376548,598.3,4,5,237.3,1.055,0,1,0,1.0,-0.00877777777777778,-0.015444444444444446,0.01,-0.0025555555555555557,-0.018777777777777775,0.01,-1.5306666666666666,0.021444444444444447,-0.6037777777777777,0.0,0.0,3.2784444444444443,0.0,-1.0,-1.0,1.0,113.3,120.0,1,motorway,3,1,40.499718,-3.375909,1.458,113.3,D1,Normal,motor
90,109.3,40.498184,-3.378973,594.7,4,5,236.2,0.352,0,0,0,1.0,0.0010999999999999992,0.003799999999999999,0.0085,9.99999999999994e-05,0.0034999999999999996,0.0089,-1.5370000000000001,0.0314,-0.588,0.34872,-0.0011200000000000001,3.3160000000000003,1.92,102.2825,3.39,1.0,108.6,120.0,1,motorway,3,1,40.49942,-3.376549,7.513,108.6,D1,Normal,motor
92,107.0,40.497887,-3.379556,594.7,3,5,235.9,0.352,0,0,0,1.0,-0.0103,-0.0053,0.012,-0.0058,-0.0037000000000000006,0.0057,-1.5208,0.0249,-0.587,0.15726923076923077,-0.021115384615384616,3.4140769230769235,1.9230769230769231,197.75285714285715,6.581428571428572,1.0,108.20000000000002,120.0,1,motorway,3,1,40.498184,-3.378973,1.379,108.4,D1,Normal,motor
94,109.0,40.497585,-3.380155,593.6,3,5,234.5,1.406,2,0,0,1.0,-0.017599999999999998,-0.0243,0.019700000000000002,-0.0137,-0.026500000000000003,0.020300000000000002,-1.5686,0.0536,-0.5645,-0.7409259259259259,-0.05618518518518518,3.353444444444445,1.962962962962963,116.21571428571428,3.8757142857142854,1.7142857142857142,108.05714285714286,120.0,1,motorway,3,1,40.497887,-3.379556,1.41,107.9,D1,Normal,motor
100,113.0,40.496628,-3.381976,596.0,3,5,236.6,0.352,0,1,0,1.0,-0.010499999999999999,0.036699999999999997,0.007200000000000001,-0.0129,0.0315,0.0073999999999999995,-1.5615999999999999,-0.0037000000000000006,-0.6169,0.2427037037037037,0.009925925925925927,3.3594444444444442,1.8888888888888888,16.073333333333334,0.5133333333333333,1.0,112.82222222222222,120.0,1,motorway,3,2,40.497585,-3.380156,5.148,112.8,D1,Normal,motor
101,113.4,40.496475,-3.382278,592.5,3,5,237.7,1.406,2,1,0,1.0,-0.018099999999999998,0.005699999999999999,0.0021999999999999997,-0.0189,0.0103,0.0019999999999999996,-1.5681,-0.0246,-0.6361,0.7268275862068966,0.10789655172413794,3.368344827586207,1.8620689655172413,18.0225,0.575,1.0,113.05,120.0,1,motorway,3,2,40.496628,-3.381976,0.605,113.0,D1,Normal,motor
102,114.5,40.496323,-3.382595,593.0,4,5,237.7,1.055,0,1,0,1.0,-0.0029000000000000007,-0.042499999999999996,0.0024000000000000002,-0.0008,-0.039,0.0026000000000000003,-1.5676,0.0073999999999999995,-0.6365999999999999,0.41375,0.03585714285714286,3.3185357142857144,0.4642857142857143,6.26125,-0.40625,1.0,113.53750000000001,120.0,1,motorway,3,1,40.496475,-3.382278,1.013,114.5,D1,Normal,motor
104,114.2,40.496006,-3.383219,594.0,3,5,235.5,2.109,0,1,0,1.0,-0.0132,-0.00039999999999999964,0.0016,-0.012,-0.0033,0.0004,-1.5566,0.0626,-0.6027,-0.18644827586206897,0.030655172413793105,3.201103448275862,1.7586206896551724,-1.0,-1.0,1.0,114.73333333333332,120.0,1,motorway,3,1,40.496166,-3.382904,0.746,114.8,D1,Normal,motor
105,114.5,40.495846,-3.383532,593.6,3,5,234.8,1.758,0,1,0,1.0,-0.0031000000000000003,-0.011300000000000001,-0.003,-0.0039,-0.01,-0.0036,-1.5539999999999998,0.0576,-0.5909,0.06157692307692308,0.06688461538461539,3.2718461538461536,1.9615384615384615,-1.0,-1.0,1.0,114.23333333333332,120.0,1,motorway,3,1,40.496006,-3.383219,0.777,114.2,D1,Normal,motor
106,114.5,40.495678,-3.383837,593.7,4,5,234.1,1.406,0,1,0,1.0,-0.014299999999999998,0.0075000000000000015,-0.0058,-0.0137,0.004399999999999999,-0.0050999999999999995,-1.5492,0.0611,-0.5791,0.2058846153846154,0.014730769230769231,3.3395,1.9615384615384615,-1.0,-1.0,1.0,114.5,120.0,1,motorway,3,1,40.495846,-3.383533,0.958,114.5,D1,Normal,motor
107,114.4,40.495522,-3.384142,594.1,4,5,233.8,1.055,0,1,0,1.0,-0.0198,0.0201,-0.006,-0.0147,0.0217,-0.0055,-1.5452,0.056499999999999995,-0.5747,0.2027037037037037,-0.008333333333333333,3.3381111111111115,1.5925925925925926,-1.0,-1.0,0.5,114.4875,120.0,1,motorway,3,1,40.495678,-3.383838,0.699,114.5,D1,Normal,motor
108,114.4,40.49535,-3.384444,593.7,4,5,233.8,0.352,0,1,0,1.0,0.0028000000000000004,0.0038000000000000004,0.0024,-0.0010000000000000002,0.0031,0.0021999999999999997,-1.5398999999999998,0.057499999999999996,-0.5710999999999999,0.18708333333333335,0.002458333333333333,3.0694166666666667,1.5833333333333333,-1.0,-1.0,0.8571428571428571,114.4,120.0,1,motorway,3,1,40.495522,-3.384143,1.009,114.4,D1,Normal,motor
110,112.9,40.495003,-3.385071,593.6,4,5,233.1,0.703,0,1,0,1.0,-0.017875000000000002,0.003625,0.0035,-0.013375,0.0075,0.0017499999999999998,-1.54225,0.035,-0.567,0.07272727272727274,-0.010954545454545455,3.360136363636364,1.9090909090909092,-1.0,-1.0,1.5,112.63749999999999,120.0,1,motorway,3,1,40.495171,-3.384761,0.791,112.6,D1,Normal,motor
111,113.3,40.494823,-3.385368,593.4,4,5,232.0,1.055,0,1,0,1.0,-0.004099999999999999,-0.0052,0.0033,-0.005200000000000001,-0.0079,0.004,-1.5439,0.0411,-0.563,0.11862962962962964,0.012333333333333333,3.3555925925925925,1.8888888888888888,-1.0,-1.0,2.0,112.95,120.0,1,motorway,3,1,40.495003,-3.385071,0.825,112.9,D1,Normal,motor
112,113.3,40.49464,-3.385658,593.3,4,5,231.3,1.758,0,1,0,1.0,-0.0005999999999999992,0.0103,0.0026000000000000003,-0.0010999999999999996,0.0082,0.0021999999999999997,-1.5436999999999999,0.0441,-0.5561,0.04356,-0.00728,3.3355200000000003,1.92,-1.0,-1.0,2.0,113.3,120.0,1,motorway,3,1,40.494823,-3.385368,1.04,113.3,D1,Normal,motor
115,114.3,40.494106,-3.386519,592.4,3,5,231.0,0.352,0,1,0,1.0,-0.0137,-0.014799999999999999,0.0123,-0.012199999999999999,-0.0125,0.015099999999999999,-1.5658999999999998,0.035699999999999996,-0.5599000000000001,-0.04353571428571429,0.03735714285714286,3.2268214285714287,1.8928571428571428,-1.0,-1.0,1.0,113.8625,120.0,1,motorway,3,1,40.494465,-3.385944,1.293,113.8,D1,Normal,motor
116,115.1,40.493916,-3.386803,592.6,4,5,230.6,0.703,0,1,0,1.0,-0.008,0.0125,0.0091,-0.011600000000000001,0.011,0.008799999999999999,-1.5732,0.0411,-0.5576000000000001,0.009615384615384616,0.04253846153846154,3.1898846153846154,1.8846153846153846,-1.0,-1.0,1.0,114.39999999999999,120.0,1,motorway,3,1,40.494106,-3.386519,1.05,115.1,D1,Normal,motor
118,116.9,40.493534,-3.387376,593.7,4,5,229.9,0.703,0,1,0,1.0,-0.0059,0.0016,-0.006899999999999999,-0.0058,0.0035000000000000005,-0.0104,-1.568,0.0381,-0.5561,0.0615,0.01953846153846154,3.240076923076923,1.9230769230769231,-1.0,-1.0,1.0,116.28750000000001,120.0,1,motorway,3,1,40.493729,-3.387081,0.908,116.2,D1,Normal,motor
119,117.5,40.49334,-3.387671,593.1,4,5,229.1,0.858,0,1,0,1.0,0.0117,-0.024300000000000002,-0.0039,0.0125,-0.0191,-0.0032,-1.5641,0.0356,-0.5546,0.08587499999999999,0.03325,3.2282083333333333,2.0,-1.0,-1.0,1.0,117.03333333333333,120.0,1,motorway,3,1,40.493534,-3.387377,0.716,116.9,D1,Normal,motor
120,117.8,40.493145,-3.387969,593.0,4,5,228.9,1.055,0,1,0,1.0,-0.01,-0.004111111111111111,-0.006555555555555555,-0.005555555555555556,-0.007777777777777778,-0.005666666666666667,-1.5618888888888889,0.03377777777777778,-0.5507777777777778,0.09403703703703704,0.006740740740740741,3.2756296296296292,1.8888888888888888,-1.0,-1.0,1.0,117.5,120.0,1,motorway,3,1,40.49334,-3.387672,0.722,117.5,D1,Normal,motor
121,118.2,40.492943,-3.388267,593.2,4,5,228.9,0.197,0,1,0,1.0,0.0025,0.0068000000000000005,-0.0093,-0.0014000000000000006,0.005200000000000001,-0.008499999999999999,-1.558,0.0323,-0.5509000000000001,0.066,-0.012785714285714286,3.2887142857142857,1.9285714285714286,-1.0,-1.0,1.0,117.85,120.0,1,motorway,3,1,40.493145,-3.387969,0.657,117.8,D1,Normal,motor
122,118.0,40.492752,-3.388546,592.3,6,5,227.7,1.14,0,1,0,1.0,-0.011699999999999999,-0.0041,-0.0077,-0.0062,-0.0016,-0.0068000000000000005,-1.5535,0.0306,-0.5501,0.07123076923076924,0.012884615384615383,3.4572692307692305,1.5,-1.0,-1.0,1.1428571428571428,118.17142857142858,120.0,1,motorway,3,1,40.492943,-3.388267,0.887,118.2,D1,Normal,motor
123,118.3,40.492561,-3.38883,592.3,6,5,227.1,1.719,0,0,0,1.0,-0.003700000000000001,-0.009,-0.0062,-0.0019,-0.0094,-0.0063,-1.5505,0.0174,-0.5511,-0.06714285714285714,0.01107142857142857,3.360071428571429,1.9285714285714286,-1.0,-1.0,1.125,118.0375,120.0,1,motorway,3,1,40.492752,-3.388546,0.692,118.0,D1,Normal,motor
124,118.7,40.492359,-3.389119,592.6,6,5,227.1,0.579,0,0,0,1.0,0.0007000000000000013,-0.0166,-0.0038,-0.0077,-0.0118,-0.0056,-1.548,0.0098,-0.5537000000000001,-0.10983333333333334,0.025041666666666667,3.296875,1.9166666666666667,-1.0,-1.0,1.5555555555555556,118.34444444444443,120.0,1,motorway,3,1,40.492561,-3.38883,0.818,118.3,D1,Normal,motor
125,117.7,40.492165,-3.38941,593.0,6,5,227.1,0.0,0,0,0,1.0,-0.010499999999999999,-0.0089,-0.005,-0.0043,-0.0137,-0.0034000000000000002,-1.5458,0.0268,-0.5531,-0.11800000000000001,0.0308,3.2882,1.96,-1.0,-1.0,2.0,118.55714285714285,120.0,1,motorway,3,1,40.492359,-3.389119,0.642,118.7,D1,Normal,motor
126,118.4,40.491966,-3.389699,592.3,6,5,226.6,0.511,0,0,0,1.0,-0.010599999999999998,0.0036,-0.0010999999999999998,-0.010100000000000001,0.004,-0.0010999999999999998,-1.5475999999999999,0.015,-0.5549000000000001,-0.10296428571428572,0.03192857142857143,3.3653214285714284,1.8928571428571428,-1.0,-1.0,2.0,117.78750000000001,120.0,1,motorway,3,1,40.492165,-3.38941,0.9,117.7,D1,Normal,motor
127,118.5,40.491764,-3.389988,592.2,6,5,226.1,1.032,0,0,0,1.0,-0.013000000000000001,-0.012,0.0046,-0.0121,-0.011800000000000001,0.0027999999999999995,-1.5497,0.013500000000000002,-0.5588000000000001,-0.07811538461538461,0.07715384615384614,3.3634615384615385,1.9230769230769231,-1.0,-1.0,2.0,118.41250000000001,120.0,1,motorway,3,1,40.491966,-3.389699,0.829,118.4,D1,Normal,motor
129,117.6,40.491348,-3.390556,591.8,6,5,226.1,0.0,0,0,0,1.0,-0.0211,0.007000000000000001,-0.003,-0.0217,0.0079,-0.0056,-1.5455999999999999,0.0328,-0.5583,0.113375,0.013916666666666667,3.3471666666666664,1.9583333333333333,27.448749999999997,0.22749999999999998,2.0,118.475,120.0,1,motorway,3,1,40.491764,-3.389988,1.922,118.6,D1,Normal,motor
131,117.9,40.490936,-3.391115,590.8,6,5,226.1,0.0,0,0,0,1.0,-0.0155,0.007300000000000001,0.0018000000000000002,-0.013000000000000001,0.0087,0.0012000000000000001,-1.5433999999999999,0.0219,-0.5739,0.034999999999999996,0.03395833333333333,3.3220833333333335,1.9166666666666667,39.73375,0.73,1.75,117.72500000000001,120.0,1,motorway,3,1,40.491348,-3.390557,1.265,117.7,D1,Normal,motor
132,118.1,40.490719,-3.391402,590.6,6,5,226.1,0.0,0,0,0,1.0,-0.014599999999999998,0.0098,-0.0064,-0.014799999999999999,0.0081,-0.007200000000000001,-1.5463,0.0216,-0.5803999999999999,0.084125,0.03166666666666667,3.3004166666666666,1.9583333333333333,72.96875,2.10875,1.0,117.92500000000001,120.0,1,motorway,3,1,40.490936,-3.391115,0.752,117.9,D1,Normal,motor
133,118.1,40.490513,-3.39168,590.3,6,5,225.0,1.115,0,0,0,1.0,-0.00039999999999999975,-0.013000000000000001,-0.0087,-0.0025999999999999994,-0.007000000000000001,-0.0067,-1.5511,0.0199,-0.5867,0.1346153846153846,0.014961538461538462,3.294346153846154,1.9615384615384615,76.99625,2.2262500000000003,1.0,118.1,120.0,1,motorway,3,1,40.490719,-3.391402,0.951,118.1,D1,Normal,motor
135,117.9,40.490105,-3.392232,589.9,6,5,225.9,0.919,1,0,0,1.0,-0.013500000000000002,0.020200000000000003,-0.0062,-0.0132,0.0175,-0.004399999999999999,-1.5538,0.0486,-0.5781,-0.34515999999999997,-0.045720000000000004,3.30932,1.92,23.26875,-0.015000000000000013,1.0,117.8125,120.0,1,motorway,3,1,40.490513,-3.391681,1.915,117.8,D1,Normal,motor
137,119.2,40.4897,-3.392772,589.6,6,5,225.9,0.0,0,1,0,1.0,-0.011666666666666665,0.00911111111111111,-0.004888888888888889,-0.0071111111111111115,0.009666666666666665,-0.004,-1.5586666666666666,0.013444444444444445,-0.5937777777777777,-0.6066923076923076,-0.00011538461538461506,3.347346153846154,0.6538461538461539,79.5,2.42625,2.0,118.0625,120.0,1,motorway,3,1,40.490105,-3.392232,1.206,117.9,D1,Normal,motor
138,118.9,40.489506,-3.393032,589.4,4,5,225.9,0.048,0,1,0,1.0,-0.0182,-0.0004,-0.0015,-0.0174,-0.00039999999999999964,-0.0019,-1.5611000000000002,0.014499999999999999,-0.6012,0.015600000000000001,0.0024,3.32256,0.08,91.72125,2.7725,2.0,119.16250000000001,120.0,1,motorway,3,2,40.4897,-3.392772,0.746,119.2,D1,Normal,motor
139,119.8,40.4893,-3.393304,589.9,4,5,225.9,0.048,0,1,0,1.0,-0.0055,0.016900000000000002,0.0009000000000000001,-0.0102,0.0149,0.0006000000000000003,-1.5614,0.0083,-0.6099,0.43339999999999995,0.038400000000000004,3.3185000000000002,1.8,107.42333333333333,3.25,2.0,119.0,120.0,1,motorway,3,2,40.489506,-3.393032,0.807,118.9,D1,Normal,motor
140,120.2,40.489105,-3.393589,589.4,4,5,226.1,0.247,0,1,0,1.0,-0.016777777777777777,0.022555555555555558,-0.007555555555555556,-0.01311111111111111,0.021,-0.007777777777777778,-1.5659999999999998,-0.001,-0.6227777777777779,0.15575,-0.036083333333333335,3.3054583333333336,1.875,104.03625,3.1237500000000002,1.875,119.85,120.0,1,motorway,3,2,40.4893,-3.393304,0.899,119.8,D1,Normal,motor
141,121.3,40.488899,-3.393865,588.9,4,5,226.1,0.247,0,0,0,1.0,-0.008700000000000001,-0.0047,-0.0036,-0.0087,-0.0019999999999999996,-0.0036,-1.5682,-0.0072,-0.6349,-0.08864285714285715,0.0003214285714285716,3.3395357142857143,1.8928571428571428,99.29375,2.96875,1.0,120.3375,120.0,1,motorway,3,2,40.489105,-3.393589,1.032,121.3,D1,Normal,motor
144,122.6,40.488247,-3.394743,588.3,4,5,226.4,0.352,0,0,0,1.0,-0.0081,-0.0098,-0.0037000000000000006,-0.0087,-0.0112,-0.0036999999999999997,-1.5588,0.0174,-0.6501,-0.0653076923076923,0.07853846153846153,3.3261538461538462,1.8461538461538463,114.0225,3.3649999999999998,1.0,121.89999999999999,120.0,1,motorway,3,2,40.488674,-3.394155,1.272,121.8,D1,Normal,motor
146,122.3,40.487823,-3.395322,588.5,4,5,225.7,0.703,0,0,0,1.0,-0.0116,-0.004,-0.0073999999999999995,-0.0113,-0.0058,-0.0053,-1.5656,0.0183,-0.6459,-0.10880769230769231,0.072,3.3838846153846154,1.8846153846153846,136.1025,3.99625,1.0,122.5625,120.0,1,motorway,3,2,40.488247,-3.394743,1.332,122.6,D1,Normal,motor
147,123.3,40.487602,-3.395614,588.6,4,5,225.7,0.703,0,0,0,1.0,0.0017000000000000006,-0.006799999999999999,-0.007000000000000001,0.0014999999999999996,-0.0068000000000000005,-0.007299999999999999,-1.5666,0.0187,-0.6469,-0.08751851851851852,0.03959259259259259,3.310481481481481,1.8888888888888888,114.45142857142856,3.367142857142857,1.0,122.44285714285715,120.0,1,motorway,3,2,40.487823,-3.395322,0.893,122.3,D1,Normal,motor
148,122.8,40.487373,-3.395904,588.1,6,5,225.4,0.352,0,0,0,1.0,-0.0125,-0.0156,-0.008299999999999998,-0.014099999999999998,-0.0153,-0.008400000000000001,-1.5612,0.040900000000000006,-0.6389,-0.04908695652173913,0.07669565217391304,3.338478260869565,1.8695652173913044,100.3375,2.9325,1.0,123.175,120.0,1,motorway,3,2,40.487602,-3.395614,0.575,123.3,D1,Normal,motor
150,123.3,40.486942,-3.396472,587.4,6,5,223.9,1.406,0,0,0,1.0,-0.017400000000000002,-0.007000000000000001,-0.011899999999999999,-0.0156,-0.0083,-0.0106,-1.5534,0.0606,-0.613,0.06696153846153846,0.051000000000000004,3.3767692307692303,1.8461538461538463,83.60714285714286,2.432857142857143,1.0,123.7,120.0,1,motorway,3,2,40.487373,-3.395904,1.724,123.7,D1,Normal,motor
151,122.7,40.486725,-3.396751,588.0,4,5,222.9,1.758,0,0,0,1.0,-0.011,0.011699999999999999,-0.0217,-0.01,0.0067,-0.022,-1.5342,0.0586,-0.6028,0.07184615384615385,0.037153846153846155,3.3638846153846154,1.8846153846153846,47.82125,1.03375,1.0,123.225,120.0,1,motorway,3,2,40.486942,-3.396472,0.963,123.3,D1,Normal,motor
152,121.0,40.486507,-3.397017,588.0,4,5,222.5,1.406,0,0,0,1.0,-0.014099999999999998,0.0157,-0.0017000000000000001,-0.0144,0.0172,-0.0016,-1.5269,0.046,-0.5995999999999999,-0.0013636363636363633,0.019136363636363635,3.4294545454545453,1.8636363636363635,52.0225,1.2825,1.0,122.7,120.0,1,motorway,3,2,40.486725,-3.396751,0.774,122.7,D1,Normal,motor
153,120.5,40.486282,-3.397284,587.5,6,5,221.8,1.055,0,0,0,1.0,-0.0007000000000000003,0.00020000000000000017,-0.0005999999999999998,-0.0017000000000000001,0.0026000000000000003,-0.0021000000000000003,-1.5243,0.039,-0.5963,-0.029962962962962966,0.020666666666666663,3.368740740740741,1.8518518518518519,55.81625,1.66125,1.0,120.9375,120.0,1,motorway,3,2,40.486507,-3.397017,0.688,121.0,D1,Normal,motor
154,119.6,40.486061,-3.397543,587.1,4,5,221.5,1.055,0,0,0,1.0,-0.0137,-0.0193,-0.0060999999999999995,-0.014099999999999998,-0.0172,-0.0053,-1.5215999999999998,0.045700000000000005,-0.5915999999999999,0.04730769230769231,0.030384615384615385,3.3810000000000002,1.8461538461538463,46.35375,1.385,1.0,120.3875,120.0,1,motorway,3,2,40.486282,-3.397284,0.615,120.5,D1,Normal,motor
155,120.7,40.485836,-3.397796,587.7,4,5,220.4,1.406,0,0,0,1.0,-0.006999999999999999,-0.0104,-0.0017999999999999995,-0.0048000000000000004,-0.011600000000000001,-0.0018,-1.5238999999999998,0.055099999999999996,-0.5824999999999999,0.10432000000000001,0.041479999999999996,3.2959199999999997,1.84,40.207142857142856,1.2085714285714284,1.2857142857142858,119.75714285714285,120.0,1,motorway,3,2,40.486061,-3.397544,0.639,119.6,D1,Normal,motor
156,118.5,40.485615,-3.398042,587.2,6,5,219.7,1.758,0,0,0,1.0,-0.0077,0.0086,0.0018,-0.0116,0.0033,0.0013000000000000002,-1.5244,0.0629,-0.5746,0.11804,0.037000000000000005,3.32332,2.0,34.925,1.0425,2.0,120.425,120.0,1,motorway,3,2,40.485836,-3.397797,0.876,120.7,D1,Normal,motor
157,116.9,40.485394,-3.398287,587.2,6,5,219.4,1.055,0,0,0,1.0,-0.007200000000000001,0.0049,0.013500000000000002,-0.0046,0.009600000000000001,0.0124,-1.5285,0.0508,-0.5741999999999999,0.015608695652173913,0.02526086956521739,3.263782608695652,1.9130434782608696,29.20625,0.89,2.0,118.3,120.0,1,motorway,3,2,40.485615,-3.398042,0.592,118.5,D1,Normal,motor
158,117.5,40.485172,-3.398525,586.7,4,5,218.7,1.055,0,0,0,1.0,0.0056,-0.011699999999999999,0.0127,0.0010000000000000002,-0.0109,0.011600000000000001,-1.5413999999999999,0.0512,-0.5687,-0.02888888888888889,0.051481481481481475,3.2307407407407407,1.8518518518518519,26.55125,0.81875,2.0,116.97500000000001,120.0,1,motorway,3,2,40.485394,-3.398287,1.02,117.5,D1,Normal,motor
160,116.7,40.484699,-3.398974,586.2,4,5,217.3,1.412,0,0,0,1.0,-0.006777777777777779,-0.011888888888888888,0.00044444444444444447,-0.010666666666666666,-0.006111111111111112,0.004111111111111111,-1.5563333333333333,0.051111111111111114,-0.5623333333333334,-0.2518148148148148,0.05177777777777778,3.3511111111111114,1.8888888888888888,23.444999999999997,0.7166666666666667,1.5,117.59999999999998,120.0,1,motorway,3,2,40.484943,-3.398759,0.663,117.6,D1,Normal,motor
161,117.5,40.484467,-3.399191,586.0,4,5,216.4,1.623,2,0,0,1.0,-0.005699999999999999,-0.0279,-0.007299999999999999,-9.999999999999991e-05,-0.0322,-0.0056,-1.5554000000000001,0.0722,-0.55,-0.44953846153846155,0.03246153846153846,3.2933076923076925,1.8461538461538463,28.12375,0.74375,1.25,116.8,120.0,1,motorway,3,2,40.484699,-3.398974,0.589,116.7,D1,Normal,motor
162,118.5,40.484226,-3.399428,586.3,4,5,216.4,0.859,2,0,0,1.0,-0.003,0.028900000000000002,-0.0185,-0.0054,0.0236,-0.0206,-1.5431,0.06739999999999999,-0.5468,-0.9825714285714285,-0.03323809523809523,3.4052857142857142,1.7619047619047619,56.63428571428572,1.7342857142857144,2.0,117.5,120.0,1,motorway,3,2,40.484467,-3.399191,0.918,117.5,D1,Normal,motor
163,117.3,40.483967,-3.399662,585.5,6,5,216.8,0.358,0,0,0,1.0,0.0040999999999999995,0.0603,-0.006999999999999999,0.0062,0.0588,-0.0070999999999999995,-1.5352999999999999,0.0236,-0.5629,-0.6797777777777777,-0.0010740740740740739,3.3241481481481485,0.5555555555555556,20.336666666666666,0.13333333333333336,2.0,118.5,120.0,1,motorway,3,3,40.484226,-3.399428,0.723,118.5,D1,Normal,motor
165,119.3,40.483479,-3.400107,584.5,6,5,216.9,0.158,0,0,0,1.0,-0.009222222222222222,-0.006666666666666666,0.005444444444444444,-0.005444444444444444,-0.007333333333333334,0.006666666666666667,-1.553222222222222,-0.007222222222222223,-0.6003333333333333,0.004166666666666667,0.09716666666666667,3.113125,1.875,25.32125,0.7725,2.0,117.9,120.0,1,motorway,3,3,40.483967,-3.399662,1.366,117.7,D1,Normal,motor
167,119.2,40.482994,-3.40057,586.6,4,5,217.6,0.636,0,0,0,1.0,0.0121,-0.0043,-0.0045,0.008700000000000001,-0.0064,-0.0038,-1.5554000000000001,-0.0063,-0.6296,-0.09157692307692308,0.05323076923076923,3.1316923076923078,1.9230769230769231,34.11571428571428,1.0357142857142858,2.0,118.60000000000001,120.0,1,motorway,3,3,40.483479,-3.400107,1.314,118.5,D1,Normal,motor
169,121.9,40.482513,-3.401056,583.0,4,5,216.7,0.861,0,0,0,1.0,0.006500000000000001,-0.0117,-0.010499999999999999,0.0048000000000000004,-0.0098,-0.0097,-1.551,0.0115,-0.6523000000000001,-0.07726923076923077,0.03888461538461538,3.2278846153846152,1.9230769230769231,48.8625,1.45,1.0,121.19999999999999,120.0,2,motorway,3,3,40.482994,-3.40057,1.258,121.1,D1,Normal,motor
170,120.8,40.482273,-3.401291,583.2,4,5,217.3,0.612,0,0,0,1.0,-0.0128,-0.0032,-0.0050999999999999995,-0.011100000000000002,-0.0048000000000000004,-0.0068000000000000005,-1.5414999999999999,0.0089,-0.6587000000000001,-0.03826086956521739,0.021695652173913043,3.2649565217391303,1.9565217391304348,46.39333333333334,1.21,1.0,121.90000000000002,120.0,1,motorway,3,3,40.482513,-3.401056,1.003,120.8,D1,Normal,motor
172,121.7,40.481789,-3.401771,582.2,4,5,216.3,0.96,0,0,0,1.0,-0.020300000000000002,0.023200000000000002,-0.004999999999999999,-0.0233,0.026000000000000002,-0.0062,-1.5501,-0.0111,-0.6855,0.12913636363636363,0.09859090909090909,3.2320909090909087,1.8636363636363635,7.938750000000001,-0.615,2.0,121.875,120.0,1,motorway,3,3,40.482025,-3.401532,0.986,121.9,D1,Normal,motor
173,122.5,40.481548,-3.402012,582.2,4,5,216.3,0.0,2,0,0,1.0,-0.0091,-0.0225,-0.004399999999999999,-0.009,-0.0178,-0.0043,-1.5493999999999999,-0.0232,-0.7024999999999999,0.6842,0.11736,3.31028,1.8,-1.0,-1.0,2.0,121.8777777777778,120.0,1,motorway,3,3,40.481789,-3.401771,0.559,121.7,D1,Normal,motor
175,122.1,40.481052,-3.402517,580.7,4,5,216.3,0.0,0,1,0,1.0,-0.017099999999999997,-0.045399999999999996,-0.011899999999999999,-0.0108,-0.0465,-0.0112,-1.5367,0.0157,-0.7074999999999999,0.0,0.0,3.2956538461538463,0.0,75.1825,2.20125,1.0,122.8875,120.0,1,motorway,3,2,40.481548,-3.402012,1.911,123.0,D1,Normal,motor
177,121.4,40.480576,-3.403002,581.2,4,5,216.9,0.0,0,1,0,1.0,-0.0158,0.0164,-0.0026000000000000003,-0.0164,0.0149,-0.0040999999999999995,-1.5337,0.0252,-0.7003999999999999,-0.3143636363636364,0.07486363636363637,3.254227272727273,1.8181818181818181,78.18444444444444,2.307777777777778,1.1111111111111112,121.90000000000002,120.0,1,motorway,3,2,40.481052,-3.402517,1.364,121.9,D1,Normal,motor
178,121.4,40.480328,-3.403244,578.4,4,5,216.7,0.312,0,1,0,1.0,-0.008799999999999999,-0.0050999999999999995,0.0021999999999999997,-0.0123,-0.0042,0.0016,-1.5341999999999998,0.0243,-0.701,-0.21843478260869564,0.08195652173913044,3.278173913043478,1.826086956521739,74.555,2.21125,2.0,121.4,120.0,1,motorway,3,2,40.480576,-3.403002,0.897,121.4,D1,Normal,motor
180,120.6,40.479843,-3.403723,578.6,4,5,217.1,0.405,0,1,0,1.0,0.0009,0.026000000000000002,0.0086,0.0002000000000000001,0.0243,0.0092,-1.5341999999999998,0.0021999999999999997,-0.715,-0.19728,0.05088,3.24928,1.84,61.26333333333333,1.8283333333333334,2.0,120.59999999999998,120.0,1,motorway,3,2,40.480328,-3.403244,1.422,120.6,D1,Normal,motor
181,121.1,40.479607,-3.403955,577.3,4,5,217.1,0.405,0,1,0,1.0,-0.024,0.0162,-0.0037000000000000006,-0.023600000000000003,0.0156,-0.0043,-1.5421,-0.0166,-0.7302,-0.23500000000000001,0.10519230769230768,3.3830384615384617,1.8461538461538463,73.175,2.1825,1.625,120.6,120.0,1,motorway,3,2,40.479843,-3.403723,0.702,120.6,D1,Normal,motor
182,120.8,40.479359,-3.404217,576.5,4,5,219.4,2.36,0,1,0,1.0,-0.005800000000000001,0.0182,-0.0042,-0.011699999999999999,0.020399999999999998,-0.0033,-1.5421999999999998,-0.0358,-0.7498,-0.17983999999999997,0.09948,3.44996,1.84,64.26375,1.79,1.0,121.1,120.0,1,motorway,3,2,40.479607,-3.403956,0.686,121.1,D1,Normal,motor
183,120.7,40.47913,-3.404464,576.5,4,5,221.1,4.064,0,1,0,1.0,-0.0075,0.0084,-0.008499999999999999,-0.0014000000000000002,0.0082,-0.0084,-1.5369,-0.045899999999999996,-0.7685000000000001,-0.10292307692307692,0.062038461538461535,3.328384615384615,1.8846153846153846,58.1575,1.61375,1.0,120.7875,120.0,1,motorway,3,2,40.479359,-3.404217,0.803,120.8,D1,Normal,motor
184,120.4,40.478912,-3.404703,575.5,4,5,221.4,2.02,0,1,0,1.0,-0.0188,-0.0183,-0.009600000000000001,-0.0214,-0.0144,-0.0092,-1.5367,-0.0458,-0.7872,-0.03074074074074074,0.06451851851851852,3.366074074074074,1.9259259259259258,31.32,0.44999999999999996,1.0,120.66250000000001,120.0,1,motorway,3,2,40.47913,-3.404464,0.622,120.7,D1,Normal,motor
185,120.5,40.478691,-3.404958,574.3,4,5,221.4,0.316,0,1,0,1.0,-0.011300000000000001,0.007600000000000001,0.0016,-0.008799999999999999,0.0059,8.673617379884036e-20,-1.5328,-0.0363,-0.8005000000000001,-0.02791666666666667,0.06016666666666667,3.359083333333333,1.9583333333333333,-1.0,-1.0,1.0,120.41250000000001,120.0,1,motorway,3,2,40.478912,-3.404703,0.849,120.4,D1,Normal,motor
187,120.1,40.478256,-3.405483,574.3,4,5,223.2,1.801,0,1,0,1.0,-0.0111,-0.013600000000000001,0.0076,-0.0106,-0.0086,0.005599999999999999,-1.5391,-0.0509,-0.8343,0.036307692307692305,0.07607692307692307,3.2905384615384614,1.9230769230769231,-1.0,-1.0,1.0,119.4,120.0,1,motorway,3,2,40.478691,-3.404958,1.283,119.4,D1,Normal,motor
189,120.7,40.477833,-3.40603,573.2,4,5,225.0,1.758,0,1,0,1.0,-0.0227,-0.0027,-0.0066,-0.023700000000000002,-0.0018000000000000002,-0.0046,-1.5508,-0.057999999999999996,-0.8577,0.029166666666666664,0.025416666666666667,3.37325,1.75,-1.0,-1.0,1.0,119.8,120.0,1,motorway,3,2,40.478256,-3.405483,1.165,119.8,D1,Normal,motor
190,120.8,40.477627,-3.406311,572.3,6,5,226.4,2.109,0,1,0,1.0,0.00888888888888889,-0.002,-0.007777777777777777,0.01177777777777778,-0.003,-0.009111111111111111,-1.5427777777777778,-0.059444444444444446,-0.8696666666666667,-0.041,0.032363636363636365,3.323,2.0,-1.0,-1.0,1.0,120.7,120.0,1,motorway,3,2,40.477833,-3.406031,0.873,120.7,D1,Normal,motor
191,119.7,40.477425,-3.406598,571.9,6,5,227.1,2.109,0,1,0,1.0,-0.01655555555555556,-0.011666666666666665,0.002,-0.019777777777777776,-0.016222222222222225,-0.0011111111111111113,-1.537111111111111,-0.05377777777777778,-0.8767777777777778,-0.0019999999999999996,0.06920000000000001,3.3209000000000004,1.8,-1.0,-1.0,1.0,120.8,120.0,1,motorway,3,2,40.477627,-3.406312,0.788,120.8,D1,Normal,motor
193,120.3,40.477024,-3.407166,570.9,4,5,229.2,2.109,0,1,0,1.0,-0.027800000000000002,-0.009,0.005,-0.0259,-0.009600000000000001,0.0056,-1.5474999999999999,-0.04529999999999999,-0.8862,0.02090909090909091,0.021454545454545452,3.392,1.8181818181818181,-1.0,-1.0,1.0,120.1,120.0,1,motorway,3,2,40.477425,-3.406598,1.36,120.1,D1,Normal,motor
194,120.7,40.476818,-3.407472,570.3,4,5,229.9,2.109,0,1,0,1.0,-0.0351,-0.0077,-0.0062,-0.0371,-0.0060999999999999995,-0.005,-1.5550000000000002,-0.0481,-0.89,-0.013333333333333334,0.03816666666666667,3.3211666666666666,1.75,-1.0,-1.0,1.0,120.19999999999999,120.0,1,motorway,3,2,40.477024,-3.407166,1.065,120.7,D1,Normal,motor
197,119.4,40.476269,-3.408421,570.3,4,5,233.1,2.109,0,0,0,1.0,-0.019,0.0005000000000000004,9.999999999999991e-05,-0.0154,-0.0007,-0.0016,-1.5494999999999999,-0.055600000000000004,-0.9022,-0.1393181818181818,0.02240909090909091,3.3440454545454545,1.8181818181818181,-1.0,-1.0,1.6,119.58,120.0,1,motorway,3,2,40.476627,-3.407782,1.22,119.7,D1,Normal,motor
200,120.3,40.475742,-3.409378,568.9,4,5,236.2,2.109,0,0,0,1.0,-0.0201,-0.004,-0.0008,-0.0155,-0.0075,-0.001,-1.5525,-0.0422,-0.9054,-0.05737037037037037,0.02377777777777778,3.2908518518518517,1.9259259259259258,-1.0,-1.0,1.0,119.91111111111111,120.0,1,motorway,3,2,40.476269,-3.408421,2.29,119.8,D1,Normal,motor
202,120.8,40.47541,-3.410026,569.4,4,5,238.0,1.758,0,0,0,1.0,-0.0166,-0.0039,0.0015999999999999996,-0.0142,-0.004200000000000001,0.0013000000000000002,-1.5603,-0.0433,-0.9099,-0.13753846153846155,0.03023076923076923,3.303423076923077,1.8846153846153846,-1.0,-1.0,1.0,120.275,120.0,1,motorway,3,2,40.475742,-3.409378,1.951,120.2,D1,Normal,motor
203,120.4,40.475246,-3.410353,569.0,4,5,238.4,1.406,0,0,0,1.0,-0.0178,-0.0034999999999999996,0.014000000000000002,-0.015099999999999999,-0.0025,0.0129,-1.5659,-0.0351,-0.909,-0.2561851851851852,0.04618518518518519,3.2322592592592594,1.8888888888888888,-1.0,-1.0,0.3333333333333333,120.75555555555555,120.0,1,motorway,3,2,40.47541,-3.410026,0.973,120.8,D1,Normal,motor
205,124.1,40.474934,-3.411036,571.0,4,5,239.8,1.406,2,0,0,1.0,-0.011899999999999999,-0.006799999999999999,-0.0067,-0.0129,-0.0049,-0.0052,-1.5745,-0.0184,-0.8909,-0.6529999999999999,0.017285714285714286,3.2692857142857146,1.8928571428571428,-1.0,-1.0,0.2,122.1,120.0,1,motorway,3,2,40.475246,-3.410354,1.515,121.6,D1,Normal,motor
214,120.9,40.473778,-3.414257,572.8,6,5,249.6,2.461,0,1,0,1.0,0.0024000000000000002,0.007299999999999999,0.0103,-0.0023999999999999994,0.012199999999999999,0.01,-1.5659,-0.0603,-0.9413,-0.1584074074074074,0.051481481481481475,3.0567407407407408,1.9259259259259258,-1.0,-1.0,1.0,121.1,120.0,1,motorway,3,3,40.474934,-3.411036,8.212,121.1,D1,Normal,motor
220,123.1,40.47324,-3.41655,576.4,6,5,251.7,0.352,0,1,0,1.0,-0.0024999999999999996,-0.0015,0.0062,-0.0025,-0.0035000000000000005,0.0040999999999999995,-1.5561,0.0070999999999999995,-0.8968,0.08708,0.02588,3.1189999999999998,1.96,-1.0,-1.0,1.0,123.6,120.0,1,motorway,3,3,40.473778,-3.414257,5.156,123.6,D1,Normal,motor
222,123.3,40.473053,-3.41732,576.9,6,5,251.7,0.0,0,0,0,1.0,0.0012000000000000001,0.00010000000000000009,-0.0055,0.0015,0.0007000000000000001,-0.005,-1.5501,-0.0018000000000000002,-0.8705,-0.007619047619047621,0.03704761904761905,3.110761904761905,1.8095238095238095,-1.0,-1.0,1.0,123.3875,120.0,1,motorway,3,3,40.47324,-3.41655,1.809,123.4,D1,Normal,motor
223,123.3,40.472958,-3.417704,575.3,6,5,251.7,0.0,0,0,0,1.0,-0.008799999999999999,0.0072,-0.00030000000000000024,-0.0081,0.0062,-0.0023,-1.5442,0.0014,-0.8625,-0.10188888888888889,0.07074074074074074,3.190074074074074,1.4074074074074074,-1.0,-1.0,1.0,123.3,120.0,1,motorway,3,3,40.473053,-3.41732,1.084,123.3,D1,Normal,motor
225,121.4,40.472771,-3.418466,575.7,6,5,251.7,0.0,0,0,0,1.0,0.0055,0.0062,-0.0132,0.007000000000000001,0.0064,-0.015099999999999999,-1.5199,0.0079,-0.8459,-0.09809090909090909,0.07886363636363636,3.1872727272727275,1.9090909090909092,-1.0,-1.0,0.0,123.28571428571429,120.0,1,motorway,3,3,40.472862,-3.418098,1.124,121.4,D1,Normal,motor
228,122.8,40.472488,-3.419623,574.2,6,5,251.7,0.0,0,0,0,1.0,-0.0009999999999999996,-0.0108,-0.0094,-0.0019999999999999996,-0.0093,-0.009,-1.5313,0.0099,-0.826,-0.042,0.044320000000000005,3.09656,1.88,-1.0,-1.0,0.0,122.54285714285713,120.0,1,motorway,3,3,40.472675,-3.418848,1.283,122.5,D1,Normal,motor
229,121.6,40.472408,-3.419979,574.0,6,5,251.7,0.0,0,0,0,1.0,-0.007999999999999998,-0.0213,-0.014499999999999999,-0.0020000000000000005,-0.0189,-0.0155,-1.5211999999999999,0.0157,-0.8173999999999999,-0.07836363636363636,0.06677272727272728,3.248818181818182,1.9545454545454546,-1.0,-1.0,0.0,122.62857142857142,120.0,1,motorway,3,3,40.472488,-3.419624,0.845,122.8,D1,Normal,motor
230,120.7,40.472313,-3.420353,573.3,6,5,251.4,0.352,0,0,0,1.0,-0.026500000000000003,-0.0005000000000000004,-0.004999999999999999,-0.0316,-0.004999999999999999,-0.005300000000000001,-1.518,0.0245,-0.8072000000000001,-0.15930434782608696,0.06252173913043478,3.249,1.8695652173913044,32.145714285714284,0.2628571428571429,0.2857142857142857,121.47142857142856,120.0,1,motorway,3,3,40.472408,-3.419979,0.751,121.6,D1,Normal,motor
232,119.2,40.47213,-3.421086,571.6,6,5,251.0,0.352,0,0,0,1.0,-0.019200000000000002,0.0013000000000000004,-0.0196,-0.0216,-0.0016999999999999997,-0.0199,-1.5215999999999998,0.0218,-0.7937000000000001,-0.2710769230769231,0.08069230769230769,3.2084230769230766,1.9230769230769231,99.4342857142857,2.9814285714285718,1.8571428571428572,120.05714285714285,120.0,1,motorway,3,3,40.472313,-3.420353,1.985,120.2,D1,Normal,motor
233,118.4,40.472027,-3.421453,570.8,6,5,250.7,0.703,1,0,0,1.0,-0.0020000000000000018,0.0021,0.0018000000000000006,-0.008400000000000001,0.0031000000000000003,-0.0010999999999999998,-1.5149,0.0081,-0.7907,-0.3605185185185185,0.11477777777777777,3.1207037037037035,1.9259259259259258,76.89625,2.32375,2.0,119.10000000000001,120.0,1,motorway,3,3,40.47213,-3.421086,0.688,119.2,D1,Normal,motor
235,116.0,40.471851,-3.422169,570.8,6,5,250.0,0.703,0,0,0,1.0,-0.0117,-0.0126,-0.0005000000000000004,-0.013000000000000001,-0.0158,-0.004399999999999999,-1.5105,0.0237,-0.7809,-0.33749999999999997,0.1245,2.949291666666667,1.9166666666666667,48.0875,1.4725,1.0,117.4,120.0,1,motorway,3,3,40.472027,-3.421454,1.429,117.4,D1,Normal,motor
236,114.4,40.47176,-3.422521,570.2,6,5,250.0,0.703,0,0,0,1.0,-0.019799999999999998,-0.0019000000000000002,0.014199999999999999,-0.0204,-0.0015,0.014500000000000002,-1.5036,0.0252,-0.775,-0.2548076923076923,0.12661538461538463,3.141538461538462,1.8076923076923077,33.005,1.02625,1.0,116.0,120.0,1,motorway,3,3,40.471851,-3.422169,0.565,116.0,D1,Normal,motor
237,114.9,40.471661,-3.422881,571.2,6,5,249.6,0.352,0,0,0,1.0,-0.008499999999999999,0.0086,0.0165,-0.0047,0.0076,0.0158,-1.5106,0.014199999999999999,-0.7737,-0.19453846153846152,0.07380769230769231,3.2446153846153845,1.8846153846153846,28.905,0.91,1.0,114.4625,120.0,1,motorway,3,3,40.47176,-3.422522,0.664,114.4,D1,Normal,motor
238,114.0,40.471561,-3.423227,570.7,6,5,249.3,0.703,0,0,0,1.0,-0.019299999999999998,-0.005199999999999999,0.0288,-0.0231,-0.0022,0.027000000000000003,-1.5303,0.007299999999999999,-0.7706999999999999,-0.15195833333333333,0.090125,3.161583333333333,2.0,26.99142857142857,0.8471428571428571,1.0,114.77142857142859,120.0,1,motorway,3,3,40.471661,-3.422882,0.654,114.9,D1,Normal,motor
239,114.6,40.471458,-3.423579,571.3,6,5,249.6,0.352,0,0,0,1.0,-0.004399999999999999,-0.0024000000000000002,0.0212,-0.0036000000000000003,-0.0032,0.0243,-1.547,0.0046,-0.7679,-0.1435,0.05518181818181818,3.1318181818181823,1.9545454545454546,2.7742857142857145,-0.7428571428571429,1.0,114.08571428571429,120.0,1,motorway,3,3,40.471561,-3.423228,0.609,114.0,D1,Normal,motor
240,115.6,40.471348,-3.423936,568.3,4,5,249.3,0.352,0,0,0,1.0,-0.0115,-0.013000000000000001,0.018099999999999998,-0.0147,-0.0144,0.016800000000000002,-1.5604,0.014299999999999998,-0.7634000000000001,-0.16489285714285715,0.08903571428571429,3.1766785714285715,1.9285714285714286,-1.0,-1.0,1.0,114.6,120.0,1,motorway,3,3,40.471458,-3.42358,0.941,114.6,D1,Normal,motor
241,116.5,40.471241,-3.42429,569.4,4,5,249.3,0.352,0,0,0,1.0,-0.014300000000000002,0.0062,0.008,-0.012,0.005699999999999999,0.0103,-1.5663,0.0235,-0.7604,-0.08875999999999999,0.10443999999999999,3.0836799999999998,1.92,-1.0,-1.0,1.0,115.72857142857141,120.0,1,motorway,3,3,40.471348,-3.423936,1.093,116.5,D1,Normal,motor
244,119.6,40.470901,-3.425374,569.8,4,5,248.2,1.055,0,0,0,1.0,-0.0177,0.013300000000000001,0.0004,-0.0131,0.007299999999999999,0.0012000000000000001,-1.5707,0.022600000000000002,-0.7472,0.163,0.03085185185185185,3.1096666666666666,1.9259259259259258,-1.0,-1.0,1.0,119.17142857142856,120.0,1,motorway,3,3,40.471134,-3.424656,1.985,119.1,D1,Normal,motor
246,122.0,40.470657,-3.426111,570.8,4,5,248.9,0.703,0,0,0,1.0,-0.0082,0.011300000000000001,-0.0026000000000000003,-0.0082,0.011300000000000001,-0.0034000000000000002,-1.5753,0.0092,-0.7508,0.004999999999999999,0.0247,3.17515,1.95,-1.0,-1.0,1.1428571428571428,121.0,120.0,1,motorway,3,3,40.470901,-3.425375,1.161,121.0,D1,Normal,motor
248,122.7,40.47044,-3.426865,571.3,4,5,249.3,0.352,0,0,0,1.0,-0.027200000000000002,0.012,-0.0103,-0.0313,0.014299999999999998,-0.0097,-1.5824,-0.0017000000000000001,-0.7669,-0.25425000000000003,0.027125,3.1212083333333336,1.9583333333333333,-1.0,-1.0,1.0,122.0,120.0,1,motorway,3,3,40.470657,-3.426112,1.245,122.0,D1,Normal,motor
250,122.8,40.47023,-3.427623,574.2,4,5,250.7,1.406,0,0,0,1.0,-0.0015555555555555561,-0.00977777777777778,-0.008555555555555556,-0.004333333333333333,-0.0067777777777777775,-0.008888888888888889,-1.5784444444444443,-0.024666666666666667,-0.7898888888888889,-0.28358333333333335,0.08266666666666667,3.1559166666666667,1.9583333333333333,-1.0,-1.0,0.14285714285714285,122.8,120.0,1,motorway,3,3,40.47044,-3.426866,1.156,122.8,D1,Normal,motor
252,122.8,40.470024,-3.428387,573.3,4,5,251.0,0.352,0,0,0,1.0,-0.016800000000000002,-0.0163,-0.014100000000000001,-0.013800000000000002,-0.02,-0.0134,-1.5718,-0.0125,-0.7995,-0.0062499999999999995,0.07725,3.14475,2.0,-1.0,-1.0,0.0,122.6,120.0,1,motorway,3,3,40.47023,-3.427624,1.617,122.6,D1,Normal,motor
253,123.6,40.469929,-3.42877,574.1,4,5,251.7,0.703,0,0,0,1.0,-0.008400000000000001,0.0308,-0.0042,-0.0078,0.0289,-0.0048000000000000004,-1.5625,-0.0363,-0.8122,0.14608000000000002,0.10776,3.1184,2.0,-1.0,-1.0,0.0,122.89999999999999,120.0,1,motorway,3,3,40.470024,-3.428388,0.896,122.8,D1,Normal,motor
254,122.7,40.469826,-3.429164,574.6,4,5,252.4,1.406,2,0,0,1.0,-0.0094,-0.0013000000000000004,-0.0012000000000000001,-0.009,0.0047,-0.0012000000000000001,-1.5642,-0.0502,-0.8288,0.7437916666666666,0.11745833333333333,3.17225,1.8333333333333333,-1.0,-1.0,0.14285714285714285,123.47142857142856,120.0,1,motorway,3,3,40.469929,-3.428771,1.072,122.7,D1,Normal,motor
257,122.0,40.469574,-3.430308,575.4,4,5,254.5,1.406,0,0,0,1.0,-0.020999999999999998,0.0035000000000000005,0.0035000000000000005,-0.018099999999999998,0.0034000000000000002,0.0041,-1.5638,-0.032,-0.8507,0.0,0.0,3.2072727272727275,0.0,-1.0,-1.0,0.42857142857142855,121.9,120.0,1,motorway,3,2,40.469734,-3.429547,1.324,121.9,D1,Normal,motor
258,121.9,40.469494,-3.430691,576.1,4,5,255.2,1.406,0,0,0,1.0,-0.0117,0.0054,-0.0019,-0.0127,0.0052,-0.0025,-1.5657999999999999,-0.0375,-0.8596,-0.17008333333333334,-0.022583333333333334,3.4359583333333332,1.0416666666666667,-1.0,-1.0,0.0,121.9875,120.0,1,motorway,3,2,40.469574,-3.430308,0.896,122.0,D1,Normal,motor
259,121.9,40.469414,-3.431074,577.0,4,5,256.3,1.758,0,0,0,1.0,-0.0186,-0.0070999999999999995,-0.013900000000000001,-0.0165,-0.007000000000000001,-0.0118,-1.5673,-0.0376,-0.8674,-0.2590476190476191,0.024428571428571428,3.369380952380953,1.9523809523809523,-1.0,-1.0,0.0,121.9,120.0,1,motorway,3,2,40.469494,-3.430692,0.682,121.9,D1,Normal,motor
267,115.8,40.468948,-3.434069,580.9,4,5,258.4,0.352,0,0,0,1.0,0.0103,-0.014099999999999998,0.0025,0.011699999999999999,-0.0111,0.0034000000000000002,-1.5687000000000002,-0.0178,-0.8513,-0.03538461538461539,0.04223076923076923,3.1995,1.8846153846153846,80.39571428571428,2.5085714285714285,1.0,115.2,120.0,1,motorway,3,2,40.469414,-3.431075,7.266,115.2,D1,Normal,motor
268,115.6,40.46888,-3.434439,581.5,4,5,257.7,1.055,0,0,0,1.0,0.0010999999999999996,-0.0411,-0.0020000000000000005,0.0015,-0.0393,-0.0015,-1.5633,0.005699999999999999,-0.8282999999999999,-0.19508,0.00676,3.2451999999999996,1.96,60.105,1.86875,1.625,115.77499999999999,120.0,1,motorway,3,2,40.468948,-3.434069,0.795,115.8,D1,Normal,motor
269,116.3,40.468803,-3.434807,581.5,6,5,257.0,1.406,2,0,0,1.0,0.0008999999999999994,0.026000000000000002,-0.011600000000000001,0.0006000000000000001,0.0177,-0.010100000000000001,-1.5550000000000002,0.0257,-0.8070999999999999,-0.9491200000000001,-0.02856,3.3157200000000002,1.92,47.73,1.485,2.0,115.59999999999998,120.0,1,motorway,3,2,40.46888,-3.43444,0.733,115.6,D1,Normal,motor
270,115.0,40.468739,-3.435176,581.9,6,5,256.3,1.406,0,0,0,1.0,-0.009699999999999999,0.0417,-0.006500000000000001,-0.011,0.0416,-0.0094,-1.5451000000000001,-0.005599999999999999,-0.8008000000000001,-0.20896296296296293,-0.003,3.206259259259259,0.14814814814814814,25.116666666666664,0.4549999999999999,2.0,116.3,120.0,1,motorway,3,3,40.468803,-3.434807,0.734,116.3,D1,Normal,motor
271,114.3,40.468647,-3.435539,581.5,4,5,257.0,0.703,0,0,0,1.0,0.0076,0.0339,-0.011699999999999999,0.005399999999999999,0.0335,-0.008799999999999999,-1.5424,-0.0257,-0.8045,0.0,0.0,3.1977826086956527,0.0,38.12571428571429,1.1957142857142855,2.0,114.89999999999999,120.0,1,motorway,3,3,40.468739,-3.435177,0.661,115.0,D1,Normal,motor
272,113.0,40.468575,-3.435892,582.1,6,5,256.6,0.352,0,0,0,1.0,0.0091,-0.0106,0.0011999999999999997,0.0089,-0.0063,0.0001,-1.5421,-0.0214,-0.8035,0.07957692307692307,0.03380769230769231,2.6325384615384615,1.6538461538461537,34.37,1.0814285714285714,2.0,114.3,120.0,1,motorway,3,3,40.468647,-3.43554,0.916,114.3,D1,Normal,motor
274,111.9,40.468449,-3.436615,582.2,6,5,257.0,0.352,0,0,0,1.0,0.030888888888888893,0.006666666666666667,0.008222222222222221,0.028333333333333335,0.005888888888888889,0.005555555555555555,-1.5208888888888887,-0.033888888888888885,-0.8021111111111111,0.04278571428571428,-0.005285714285714285,3.148285714285714,1.9285714285714286,30.761428571428574,0.9785714285714285,2.0,113.0,120.0,1,motorway,3,3,40.468575,-3.435892,1.382,113.0,D1,Normal,motor
276,111.3,40.468338,-3.437323,581.4,6,5,257.0,0.352,0,0,0,1.0,-0.016999999999999998,-0.011,0.0067,-0.0202,-0.011,0.0058,-1.5325,-0.0091,-0.7979,-0.05761538461538462,0.06096153846153846,3.2596538461538462,1.9230769230769231,32.425714285714285,1.0442857142857143,2.0,111.81428571428572,120.0,1,motorway,3,3,40.468449,-3.436615,1.677,111.9,D1,Normal,motor
278,112.4,40.468224,-3.438035,580.1,6,5,256.6,0.352,0,0,0,1.0,-0.0086,0.0020999999999999977,0.0092,-0.0161,0.0006000000000000005,0.008499999999999999,-1.5478,0.0111,-0.7957000000000001,-0.1344090909090909,0.05254545454545454,3.1650454545454547,2.0,31.474285714285713,1.0171428571428571,1.0,111.5,120.0,1,motorway,3,3,40.468338,-3.437324,1.625,111.5,D1,Normal,motor
279,113.0,40.468166,-3.43839,580.0,6,5,257.0,0.352,0,0,0,1.0,-0.010899999999999998,0.0137,0.003,-0.008499999999999999,0.0164,0.0058,-1.549,0.0086,-0.7968,-0.19673076923076924,0.0848076923076923,3.1190384615384614,2.0,30.73125,0.98375,1.0,112.47500000000001,120.0,1,motorway,3,3,40.468224,-3.438035,1.107,113.0,D1,Normal,motor
282,112.0,40.467979,-3.439468,579.5,6,5,257.0,0.0,0,0,0,1.0,-0.006,0.020300000000000002,-0.0036,-0.0036999999999999993,0.0174,-0.0023,-1.5349,0.0054,-0.7989,-0.10643478260869565,0.06547826086956522,3.2497391304347825,1.7826086956521738,27.848333333333333,0.895,2.5,112.08333333333333,120.0,1,motorway,3,3,40.468105,-3.438754,1.926,112.1,D1,Normal,motor
284,110.7,40.467861,-3.440181,578.8,4,5,257.3,0.352,0,0,0,1.0,-0.021800000000000003,0.0106,-0.0008999999999999998,-0.0115,0.0123,-0.0012999999999999997,-1.5237,-0.0016,-0.8097,-0.02524,0.04932,3.23788,1.92,27.051428571428573,0.8757142857142857,2.0,111.12857142857142,120.0,1,motorway,3,3,40.467979,-3.439469,1.359,111.2,D1,Normal,motor
285,110.4,40.4678,-3.440539,577.5,4,5,257.7,0.703,0,0,0,1.0,-0.0158,0.0257,0.0028,-0.0152,0.0259,0.0036000000000000003,-1.5229,-0.015,-0.8219999999999998,-0.049125,0.027875,3.1752083333333334,1.9166666666666667,28.084285714285716,0.9142857142857144,2.0,110.65714285714286,120.0,1,motorway,3,3,40.467861,-3.440181,0.911,110.7,D1,Normal,motor
286,110.2,40.467751,-3.440904,577.6,4,5,259.1,1.758,0,0,0,1.0,-0.027600000000000003,0.006199999999999999,0.0038,-0.0301,0.0060999999999999995,0.0026999999999999997,-1.5315999999999999,-0.033999999999999996,-0.8356999999999999,-0.12925925925925927,0.047518518518518515,3.1701111111111113,1.962962962962963,31.974285714285713,1.042857142857143,2.0,110.4,120.0,1,motorway,3,3,40.4678,-3.44054,0.822,110.4,D1,Normal,motor
289,110.5,40.467598,-3.441993,578.7,4,5,260.9,1.406,0,0,0,1.0,-0.0128,-0.0064,0.0029,-0.016800000000000002,-0.0078,0.0033,-1.5571,-0.0361,-0.8699,-0.25133333333333335,0.059041666666666666,3.1474583333333332,1.9583333333333333,30.31714285714286,0.9828571428571429,2.0,110.75714285714285,120.0,1,motorway,3,3,40.467751,-3.440904,2.581,110.8,D1,Normal,motor
290,111.3,40.467548,-3.44236,578.3,4,5,261.6,1.406,0,0,0,1.0,-0.013333333333333334,-0.00488888888888889,0.007777777777777777,-0.013333333333333332,-0.004888888888888889,0.007555555555555556,-1.5583333333333333,-0.039,-0.8793333333333333,-0.2956666666666667,0.07670833333333334,3.1807499999999997,1.9583333333333333,31.72666666666667,1.035,2.0,110.5,120.0,1,motorway,3,3,40.467598,-3.441993,0.603,110.5,D1,Normal,motor
292,112.5,40.467468,-3.443079,577.2,4,5,263.3,1.758,0,0,0,1.0,0.0006000000000000012,-0.0085,-0.008199999999999999,0.000499999999999999,-0.0103,-0.0082,-1.5526,-0.0305,-0.8963000000000001,-0.164,0.11457692307692308,3.1714230769230767,1.8846153846153846,33.065,1.0683333333333334,1.1666666666666667,111.40000000000002,120.0,1,motorway,3,3,40.467548,-3.44236,1.346,111.4,D1,Normal,motor
294,112.2,40.467407,-3.443816,576.2,6,5,263.7,0.352,0,0,0,1.0,-0.011800000000000001,-0.022799999999999997,-0.006699999999999999,-0.0062,-0.017599999999999998,-0.0067,-1.5474999999999999,-0.0194,-0.8941000000000001,-0.2921923076923077,0.09692307692307692,3.2434615384615384,1.8846153846153846,35.94125,1.155,1.0,112.025,120.0,1,motorway,3,3,40.467468,-3.443079,1.388,112.0,D1,Normal,motor
297,110.9,40.467308,-3.444901,579.3,6,5,263.3,0.352,0,0,0,1.0,-0.010599999999999998,0.0011,0.0013000000000000002,-0.011100000000000002,0.0038999999999999994,0.0004,-1.5364,0.0013000000000000002,-0.8657,-0.3566206896551724,0.08806896551724137,3.2366551724137933,1.896551724137931,38.021428571428565,1.2242857142857144,1.8571428571428572,111.84285714285714,120.0,1,motorway,3,3,40.467407,-3.443816,2.66,112.0,D1,Normal,motor
300,109.9,40.467251,-3.445983,577.6,6,5,264.0,0.352,0,0,0,1.0,-0.00490909090909091,0.020545454545454547,-0.010636363636363637,-0.008090909090909091,0.01809090909090909,-0.010727272727272726,-1.5422727272727272,-0.025272727272727277,-0.854090909090909,-0.13165,0.10800000000000001,3.3206499999999997,1.85,-1.0,-1.0,2.0,110.75714285714287,120.0,1,motorway,3,3,40.467308,-3.444901,2.45,110.9,D1,Normal,motor
301,109.4,40.467255,-3.446323,576.4,6,5,265.1,1.406,1,0,0,1.0,-0.020888888888888887,0.002,-0.0008888888888888893,-0.015888888888888886,0.008666666666666668,-0.0005555555555555556,-1.5416666666666667,-0.04288888888888889,-0.8612222222222221,0.3130769230769231,0.12765384615384615,3.290153846153846,1.9230769230769231,-1.0,-1.0,1.8333333333333333,109.81666666666668,120.0,1,motorway,3,3,40.467251,-3.445983,1.026,109.4,D1,Normal,motor
305,106.5,40.467163,-3.447727,578.3,6,5,264.4,0.703,0,0,0,1.0,-0.0064,-0.0079,-0.00030000000000000024,-0.0066,-0.0086,-0.0016,-1.5364,0.0248,-0.8184999999999999,-0.0974090909090909,-0.015454545454545455,2.8126363636363636,1.8181818181818181,26.7175,0.77625,1.0,107.375,120.0,1,motorway,3,2,40.467236,-3.446681,2.383,107.5,D1,Normal,motor
307,107.5,40.467106,-3.448412,576.0,6,5,264.0,0.352,0,0,0,1.0,-0.0092,-0.0009,0.0125,-0.009,0.0015,0.015099999999999999,-1.5551,0.016800000000000002,-0.8014000000000001,-0.014074074074074074,0.05251851851851851,2.847888888888889,1.8888888888888888,29.981428571428573,1.0071428571428571,1.0,106.9857142857143,120.0,1,motorway,3,2,40.467163,-3.447728,1.725,106.9,D1,Normal,motor
309,107.5,40.467026,-3.449115,577.1,6,5,263.7,0.352,0,0,0,1.0,-0.0043,0.0082,-0.0008999999999999998,-0.0098,0.007600000000000001,-0.0032,-1.5552,0.0216,-0.7823,-0.07347619047619047,0.07019047619047619,2.870285714285714,1.8571428571428572,30.146250000000002,1.0075,1.0,107.85000000000001,120.0,1,motorway,3,2,40.467106,-3.448412,1.988,107.9,D1,Normal,motor
311,107.0,40.466984,-3.4498,577.5,6,5,264.7,1.055,0,0,0,1.0,0.0024000000000000002,0.006500000000000001,-0.024,0.0035000000000000005,0.009,-0.0219,-1.5481,-0.0097,-0.787,-0.07364,0.052000000000000005,3.0320400000000003,1.96,28.48857142857143,0.9528571428571428,1.2857142857142858,107.42857142857143,120.0,1,motorway,3,2,40.467026,-3.449115,1.489,107.5,D1,Normal,motor
313,106.1,40.466934,-3.450498,578.9,6,5,264.7,0.0,0,0,0,1.0,-0.0112,-0.0218,0.014100000000000001,-0.0095,-0.0217,0.0128,-1.5307,-0.0002,-0.7858,0.15592307692307694,0.07665384615384616,2.9615384615384617,1.7307692307692308,28.404285714285713,0.9657142857142856,1.0,105.92857142857143,120.0,2,motorway,3,2,40.466984,-3.4498,1.337,105.9,D1,Normal,motor
315,104.9,40.4669,-3.451195,577.8,6,5,265.8,1.055,0,0,0,1.0,-0.007300000000000001,-0.008,0.005900000000000001,-0.0093,-0.0043,0.0068000000000000005,-1.5492,-0.013600000000000001,-0.7935000000000001,0.2368636363636364,0.05040909090909091,3.115,1.9545454545454546,27.24625,0.9237500000000001,1.0,106.3,120.0,1,motorway,3,2,40.466934,-3.450498,1.489,106.5,D1,Normal,motor
317,104.5,40.466873,-3.451886,578.0,6,5,266.1,0.352,0,0,0,1.0,-0.006100000000000001,-0.0076,0.0013,-0.0048000000000000004,-0.0079,0.0012000000000000001,-1.5471,0.0051,-0.7907,0.3882068965517242,0.023999999999999997,3.264620689655173,1.896551724137931,28.82,0.9914285714285713,1.0,104.7,120.0,1,motorway,3,2,40.4669,-3.451196,1.154,104.7,D1,Normal,motor
321,103.6,40.466808,-3.453289,578.8,6,5,267.5,0.703,0,0,0,1.0,-0.010700000000000001,0.010100000000000001,-0.00010000000000000009,-0.0068000000000000005,0.0102,0.00039999999999999986,-1.5545,-0.020399999999999998,-0.8037000000000001,0.05416666666666667,-0.014875,3.234875,1.9166666666666667,34.52875,1.1937499999999999,1.0,104.21249999999999,120.0,1,motorway,3,2,40.466873,-3.451886,3.507,104.3,D1,Normal,motor
322,103.8,40.466805,-3.453636,579.1,4,5,268.2,1.406,0,0,0,1.0,-0.0118,0.0014,-0.0039,-0.013000000000000001,0.0031,-0.0034000000000000002,-1.5550000000000002,-0.0231,-0.8135,-0.021923076923076927,0.03711538461538461,3.236769230769231,1.9615384615384615,36.74428571428571,1.2771428571428571,1.0,103.6,120.0,1,motorway,3,2,40.466808,-3.45329,1.049,103.8,D1,Normal,motor
325,103.8,40.466793,-3.454643,579.7,4,5,269.0,0.431,0,0,0,1.0,-0.0064,-0.006,0.0001,-0.0053,-0.007000000000000001,0.0004,-1.5603,-0.0134,-0.8261,0.1971923076923077,0.028076923076923076,3.111769230769231,1.9230769230769231,41.49125,1.44875,1.0,103.1,120.0,1,motorway,3,2,40.466805,-3.453983,1.737,103.0,D1,Normal,motor
326,103.2,40.466793,-3.45498,580.2,4,5,269.7,0.661,0,0,0,1.0,-0.0103,0.0086,0.003,-0.010400000000000001,0.0057,0.002,-1.5632,-0.0123,-0.828,0.13578260869565217,0.03730434782608696,3.172521739130435,1.8695652173913044,44.637142857142855,1.5485714285714285,1.0,103.8,120.0,1,motorway,3,2,40.466793,-3.454643,0.957,103.8,D1,Normal,motor
