t_sec,speed_kmh,lat,lon,alt,vert_acc,horiz_acc,course,difcourse,hdop,vdop,pdop,active,acc_x,acc_y,acc_z,acc_x_kf,acc_y_kf,acc_z_kf,roll,pitch,yaw,x_lane,phi,road_width,lane_state,dist_front,ttc_front,num_vehicles,gps_speed,max_speed,speed_rel,road_type_osm,num_lanes,lane_id,lat_osm,lon_osm,osm_delay,gps_speed_osm,driver,behavior,road_type
14,75.2,40.505695,-3.354856,603.4,3,5,271.4,0.703,0,0,0,1.0,-0.015099999999999999,0.016900000000000002,-0.0436,-0.004200000000000001,0.019700000000000002,-0.0325,-1.6888999999999998,-0.0189,-1.5341,0.0,0.0,3.5,-1.0,-1.0,-1.0,0.0,73.2875,-1.0,-1,-,-1,-1,0.0,0.0,-1.0,75.2,D3,Normal,motor
15,78.3,40.505703,-3.355109,604.0,3,5,272.1,1.406,0,0,0,1.0,0.013999999999999999,0.0167,-0.07039999999999999,0.009,0.014799999999999999,-0.07089999999999999,-1.639,-0.027000000000000003,-1.5515,0.0,0.0,3.5,-1.0,-1.0,-1.0,0.5,77.1375,-1.0,-1,-,-1,-1,0.0,0.0,-1.0,78.3,D3,Normal,motor
16,78.7,40.505714,-3.355369,603.2,3,5,273.5,2.109,0,0,0,1.0,-0.0256,-0.0046,-0.053700000000000005,-0.0233,-0.0017000000000000001,-0.056400000000000006,-1.59,-0.0201,-1.5678,0.12718518518518518,0.03807407407407407,3.5795555555555554,0.37037037037037035,4.4675,-0.63,1.0,78.55,-1.0,-1,-,-1,-1,0.0,0.0,-1.0,78.7,D3,Normal,motor
17,77.8,40.50573,-3.355628,601.8,4,5,274.6,2.461,0,0,0,1.0,-0.0105,0.0026000000000000003,-0.0228,-0.0097,0.00019999999999999982,-0.0235,-1.5735,-0.0167,-1.5774000000000001,0.40803703703703703,0.04692592592592592,3.3694074074074076,2.0,9.426666666666668,-0.30888888888888894,0.7777777777777778,78.19999999999999,-1.0,-1,-,-1,-1,0.0,0.0,-1.0,77.8,D3,Normal,motor
18,77.9,40.505745,-3.355879,601.2,3,5,275.3,1.758,0,0,0,1.0,0.0037000000000000006,-0.031,-0.0229,0.0009999999999999998,-0.0223,-0.0252,-1.5535,-0.005699999999999999,-1.5783,0.3442608695652174,-0.025478260869565218,3.094173913043478,2.0,-1.0,-1.0,0.0,77.87142857142858,-1.0,-1,-,-1,-1,0.0,0.0,-1.0,77.9,D3,Normal,motor
19,77.1,40.505768,-3.356141,601.1,3,5,274.2,1.055,0,0,0,1.0,-0.009600000000000001,-0.028200000000000003,0.026600000000000002,-0.0068000000000000005,-0.034800000000000005,0.0264,-1.5642,0.0314,-1.5523,-0.10723076923076923,-0.11288461538461539,2.872423076923077,2.0,-1.0,-1.0,0.3333333333333333,77.45555555555556,-1.0,-1,-,-1,-1,0.0,0.0,-1.0,77.1,D3,Normal,motor
20,78.3,40.505779,-3.3564,600.6,3,5,273.9,1.406,2,0,0,1.0,-0.004000000000000002,0.029699999999999997,-0.014799999999999999,-0.0023000000000000004,0.0261,-0.0131,-1.5736,0.0267,-1.5352999999999999,-0.7935217391304349,-0.11321739130434783,2.9870000000000005,1.565217391304348,1.49,-0.7485714285714286,2.0,77.78571428571429,-1.0,-1,-,-1,-1,0.0,0.0,-1.0,78.3,D3,Normal,motor
21,78.0,40.505795,-3.356657,600.7,3,5,274.2,0.352,0,0,0,1.0,-0.0024999999999999996,0.0183,-0.0099,-0.006899999999999999,0.0212,-0.011600000000000001,-1.5637,-0.0063,-1.5414999999999999,0.0,0.0,3.478,0.0,17.67375,0.8125,2.0,78.1125,-1.0,-1,-,-1,-1,0.0,0.0,-1.0,78.0,D3,Normal,motor
22,78.0,40.505817,-3.35692,600.0,3,5,275.3,1.406,0,0,0,1.0,-0.0071,-0.0060999999999999995,-0.0153,-0.0062,-0.0046,-0.0134,-1.5587,-0.0098,-1.5459,0.0,0.0,3.478,0.0,20.085714285714285,0.9257142857142856,2.0,78.0,-1.0,-1,-,-1,-1,0.0,0.0,-1.0,78.0,D3,Normal,motor
23,77.7,40.505829,-3.35718,599.9,3,5,275.3,1.055,1,0,0,1.0,0.0004999999999999998,0.00039999999999999964,0.0284,0.0031,0.0013000000000000002,0.022699999999999998,-1.5606,-0.0041,-1.5436,0.5135714285714286,0.08800000000000001,3.254714285714286,1.9047619047619047,21.88,1.0114285714285713,2.0,77.87142857142858,-1.0,-1,-,-1,-1,0.0,0.0,-1.0,77.7,D3,Normal,motor
24,78.6,40.505844,-3.357434,599.6,3,5,275.6,0.352,1,2,0,1.0,-0.016,0.005699999999999999,0.0419,-0.0166,0.0010999999999999998,0.041499999999999995,-1.579,-0.0017000000000000001,-1.5436,0.43235999999999997,-0.09876,3.105,1.92,24.61428571428571,1.1328571428571428,2.0,78.21428571428571,-1.0,-1,-,-1,-1,0.0,0.0,-1.0,78.6,D3,Normal,motor
25,80.7,40.505867,-3.357707,599.7,3,5,276.0,0.703,0,1,0,1.0,-0.0031,-0.0046,0.0312,-0.0078,0.0017000000000000001,0.0329,-1.6125,-0.004,-1.5421,0.30196153846153845,-0.20553846153846156,3.041346153846154,1.8846153846153846,25.612222222222222,1.1555555555555554,2.0,79.76666666666667,-1.0,-1,-,-1,-1,0.0,0.0,-1.0,80.7,D3,Normal,motor
26,83.4,40.50589,-3.357978,599.8,3,5,276.7,1.055,0,0,0,1.0,-0.0194,-0.006,0.006500000000000001,-0.012,-0.008,0.011,-1.6222999999999999,-0.0153,-1.5402,0.09099999999999998,-0.22487500000000002,3.1448750000000003,1.9166666666666667,27.8475,1.2175,2.25,82.3875,-1.0,-1,-,-1,-1,0.0,0.0,-1.0,83.4,D3,Normal,motor
27,86.5,40.505917,-3.358264,599.4,4,5,276.7,0.703,0,1,0,1.0,-0.0045000000000000005,-0.0158,-0.0189,-0.008700000000000001,-0.016,-0.016300000000000002,-1.6145,-0.012199999999999999,-1.5373999999999999,0.08827272727272727,-0.12368181818181818,3.271818181818182,1.5,31.38375,1.325,1.625,85.3375,-1.0,-1,-,-1,-1,0.0,0.0,-1.0,86.5,D3,Normal,motor
28,87.8,40.505943,-3.358541,599.3,4,5,276.0,0.703,0,1,0,1.0,-0.0229,-0.0147,-0.0381,-0.0198,-0.014400000000000001,-0.0411,-1.5793,-0.0034000000000000002,-1.5272999999999999,-0.29172,-0.02396,3.58952,1.72,36.11,1.49125,1.0,87.15,-1.0,-1,-,-1,-1,0.0,0.0,-1.0,87.8,D3,Normal,motor
29,86.8,40.505962,-3.358822,599.0,3,5,275.3,1.406,0,1,0,1.0,-0.0093,-0.038400000000000004,0.0049,-0.0104,-0.037,0.0030999999999999995,-1.5695999999999999,0.0036,-1.5073,-0.12234615384615385,0.07211538461538461,3.2771153846153847,1.8461538461538463,35.03,1.4444444444444444,1.0,87.24444444444444,-1.0,-1,-,-1,-1,0.0,0.0,-1.0,86.8,D3,Normal,motor
30,86.8,40.505978,-3.359105,598.5,3,5,274.9,1.055,0,1,0,1.0,-0.0075,-0.0328,0.0107,-0.0068000000000000005,-0.0341,0.0106,-1.5855000000000001,0.0259,-1.4778,0.0008461538461538464,0.04834615384615385,3.0606923076923076,1.9230769230769231,32.69,1.3557142857142856,1.0,86.8,-1.0,-1,-,-1,-1,0.0,0.0,-1.0,86.8,D3,Normal,motor
31,86.8,40.505993,-3.359389,598.5,3,5,273.5,1.758,0,1,0,1.0,-0.014700000000000001,-0.0126,0.0198,-0.017499999999999998,-0.0147,0.0167,-1.6007000000000002,0.0444,-1.4422000000000001,-0.08086363636363636,0.042909090909090904,3.0626818181818183,1.9545454545454546,33.04,1.37,1.0,86.8,-1.0,-1,-,-1,-1,0.0,0.0,-1.0,86.8,D3,Normal,motor
32,87.9,40.505997,-3.359673,598.7,3,5,271.4,3.516,0,1,0,1.0,-0.023100000000000002,-0.0021000000000000003,0.0253,-0.0199,0.0009999999999999996,0.0269,-1.6235,0.0493,-1.4082,-0.22864,0.07647999999999999,3.003,1.92,33.65555555555555,1.3844444444444446,1.0,87.53333333333335,-1.0,-1,-,-1,-1,0.0,0.0,-1.0,87.9,D3,Normal,motor
33,92.4,40.505993,-3.35998,598.8,3,5,268.6,4.922,2,1,0,1.0,-0.027500000000000004,-0.0262,0.006500000000000001,-0.028099999999999997,-0.028999999999999998,0.0068000000000000005,-1.6405,0.0634,-1.3629,-0.57,-0.023739130434782606,2.992,1.8695652173913044,33.85666666666666,1.3416666666666668,1.0,90.90000000000002,-1.0,-1,-,-1,-1,0.0,0.0,-1.0,92.4,D3,Normal,motor
34,94.0,40.505981,-3.360293,598.9,3,5,266.1,5.273,0,1,0,1.0,-0.0242,0.0318,-0.0014999999999999998,-0.0173,0.0263,0.0010999999999999998,-1.6421,0.0635,-1.3267,-0.4696923076923077,-0.03888461538461538,3.2724230769230767,0.6923076923076923,20.37375,0.42875,1.0,93.4,-1.0,-1,-,-1,-1,0.0,0.0,-1.0,94.0,D3,Normal,motor
35,97.0,40.505959,-3.360599,599.5,3,5,264.7,3.867,0,1,0,1.0,-0.0154,0.0237,-0.0033,-0.0254,0.0303,-0.0026999999999999997,-1.6437000000000002,0.0392,-1.3093,0.036500000000000005,0.007807692307692308,3.3909615384615384,0.23076923076923078,-1.0,-1.0,1.0,95.71428571428571,-1.0,-1,-,-1,-1,0.0,0.0,-1.0,97.0,D3,Normal,motor
36,98.7,40.505932,-3.360913,599.9,3,5,263.7,2.461,0,1,0,1.0,-0.0010999999999999996,0.0154,0.0183,-0.006500000000000001,0.0099,0.0162,-1.6343,0.027700000000000002,-1.2899,0.23745454545454547,-0.005909090909090909,2.927909090909091,1.7727272727272727,-1.0,-1.0,1.0,97.97142857142856,-1.0,-1,-,-1,-1,0.0,0.0,-1.0,98.7,D3,Normal,motor
37,100.5,40.505905,-3.361243,600.4,3,5,262.6,2.109,0,1,0,1.0,-0.017099999999999997,0.0448,-0.004,-0.009500000000000001,0.0481,-0.0027,-1.6303999999999998,0.0063,-1.2829,-0.04423809523809524,-0.13223809523809524,2.933952380952381,1.7142857142857142,-1.0,-1.0,1.0,99.72857142857143,-1.0,-1,-,-1,-1,0.0,0.0,-1.0,100.5,D3,Normal,motor
38,101.9,40.505871,-3.361573,601.0,3,5,262.3,1.406,1,1,0,1.0,-0.0153,-0.0129,-0.0015,-0.0137,-0.0114,-0.0016,-1.6326,0.0029000000000000002,-1.2693999999999999,-0.38682608695652176,-0.0621304347826087,3.0068260869565218,1.7826086956521738,-1.0,-1.0,1.0,101.2,-1.0,-1,-,-1,-1,0.0,0.0,-1.0,101.9,D3,Normal,motor
39,103.9,40.505833,-3.361901,601.6,3,5,260.5,2.109,1,1,0,1.0,-0.0067,-0.0076,-0.004200000000000001,-0.010400000000000001,-0.0070999999999999995,-0.0023,-1.6300000000000001,0.011,-1.2491999999999999,-0.518,0.020423076923076926,3.0018846153846157,1.8076923076923077,-1.0,-1.0,1.0,103.23333333333335,-1.0,-1,-,-1,-1,0.0,0.0,-1.0,103.9,D3,Normal,motor
40,105.0,40.505783,-3.362241,604.0,3,5,258.8,3.516,1,2,0,1.0,-0.006900000000000001,-0.003999999999999999,-0.022,-0.0049,-0.0024000000000000002,-0.023,-1.6138000000000001,0.0098,-1.2288000000000001,-0.53095,-0.014550000000000002,3.0316,1.85,-1.0,-1.0,1.0,104.63333333333333,-1.0,-1,-,-1,-1,0.0,0.0,-1.0,105.0,D3,Normal,motor
41,104.9,40.505711,-3.362574,602.4,3,5,257.0,3.516,2,2,0,1.0,-0.014599999999999998,-0.0029,-0.0031,-0.0155,-0.0049,-0.0047,-1.5974,0.0187,-1.2076,-0.5815357142857144,0.010107142857142858,3.05925,1.8571428571428572,-1.0,-1.0,1.5,104.95,-1.0,-1,-,-1,-1,0.0,0.0,-1.0,104.9,D3,Normal,motor
42,104.8,40.505646,-3.362894,602.6,4,5,255.6,3.164,1,2,0,1.0,-0.0095,0.0173,0.0187,-0.0082,0.014799999999999999,0.0179,-1.6039,0.0156,-1.1898,-0.752875,0.06954166666666667,3.266291666666667,1.7916666666666667,-1.0,-1.0,1.0,104.84285714285714,-1.0,-1,-,-1,-1,0.0,0.0,-1.0,104.8,D3,Normal,motor
43,105.9,40.505581,-3.363222,603.6,4,5,254.2,2.812,1,2,0,1.0,-0.012375,-0.002125,0.001,-0.0145,0.002875000000000001,0.0026249999999999997,-1.6082500000000002,0.0075,-1.178625,-0.630095238095238,0.057857142857142864,3.3650952380952384,1.8095238095238095,-1.0,-1.0,1.0,105.24000000000001,-1.0,-1,-,-1,-1,0.0,0.0,-1.0,105.9,D3,Normal,motor
44,104.8,40.505505,-3.36356,605.2,4,5,253.5,2.109,1,3,0,1.0,-0.0018000000000000002,-0.0073999999999999995,0.0012999999999999997,-0.0030999999999999995,-0.007299999999999999,0.00010000000000000009,-1.6004999999999998,0.020200000000000003,-1.1573,-0.6962307692307692,0.015884615384615382,3.8280384615384615,1.8846153846153846,-1.0,-1.0,1.0,105.24000000000001,-1.0,-1,-,-1,-1,0.0,0.0,-1.0,104.8,D3,Normal,motor
45,107.6,40.505421,-3.36389,605.9,4,5,250.7,3.516,0,2,0,1.0,-0.015111111111111112,-0.009555555555555555,-0.005222222222222222,-0.010555555555555556,-0.010888888888888889,-0.003,-1.595888888888889,0.02188888888888889,-1.1382222222222222,-0.2567916666666667,-0.046875,3.1349583333333335,1.7916666666666667,-1.0,-1.0,1.0,106.19999999999999,-1.0,-1,-,-1,-1,0.0,0.0,-1.0,107.6,D3,Normal,motor
46,108.3,40.505325,-3.364219,606.8,4,5,248.2,5.273,0,2,0,1.0,-0.007090909090909091,0.0012727272727272724,-0.024181818181818183,-0.009909090909090909,0.0012727272727272726,-0.023,-1.5818181818181818,0.029363636363636366,-1.1189090909090909,-0.3629166666666667,-0.002291666666666667,3.0746249999999997,1.75,-1.0,-1.0,1.0,108.0375,-1.0,-1,-,-1,-1,0.0,0.0,-1.0,108.3,D3,Normal,motor
47,108.2,40.505219,-3.364551,606.0,4,5,246.8,3.867,1,3,0,1.0,-0.013000000000000001,0.01566666666666667,-0.0074444444444444445,-0.012111111111111112,0.014666666666666668,-0.010666666666666666,-1.564111111111111,0.025333333333333333,-1.1028888888888888,-0.5075416666666667,-0.007124999999999999,3.0985416666666663,1.8333333333333333,20.25625,0.19,1.5,108.2375,-1.0,-1,-,-1,-1,0.0,0.0,-1.0,108.2,D3,Normal,motor
48,107.7,40.505112,-3.364872,603.2,4,5,245.0,3.164,1,3,0,1.0,-0.00019999999999999914,-0.0031,0.0128,-0.0004999999999999994,0.0012000000000000001,0.011899999999999999,-1.5688,0.0251,-1.0876,-0.6312692307692308,0.01576923076923077,3.118576923076923,1.8076923076923077,41.511250000000004,1.38625,3.0,107.8875,-1.0,-1,-,-1,-1,0.0,0.0,-1.0,107.7,D3,Normal,motor
49,108.0,40.50499,-3.365185,604.1,4,5,242.9,3.867,2,3,0,1.0,-0.0153,-0.023899999999999998,0.017499999999999998,-0.014599999999999998,-0.027500000000000004,0.016900000000000002,-1.585,0.047799999999999995,-1.0586,-0.9050400000000001,-0.02,3.06692,1.88,37.68714285714286,1.2571428571428573,2.0,107.91428571428571,-1.0,-1,-,-1,-1,0.0,0.0,-1.0,108.0,D3,Normal,motor
50,110.1,40.504864,-3.365508,604.3,4,5,240.5,4.57,0,3,0,1.0,-0.008300000000000002,0.020800000000000003,0.011,-0.0062,0.0172,0.011899999999999999,-1.5971,0.045200000000000004,-1.0324,-0.72976,-0.01712,3.21252,0.92,28.301111111111112,0.7188888888888889,1.7777777777777777,109.39999999999999,-1.0,-1,-,-1,-1,0.0,0.0,-1.0,110.1,D3,Normal,motor
51,110.4,40.504719,-3.36582,604.3,4,5,238.7,4.219,0,3,0,1.0,-0.0089,0.0466,0.004399999999999999,-0.010499999999999999,0.0449,0.004399999999999999,-1.6042,0.0303,-1.0246,-0.016692307692307694,-0.0023076923076923075,3.438769230769231,0.07692307692307693,-1.0,-1.0,1.0,110.2875,-1.0,-1,-,-1,-1,0.0,0.0,-1.0,110.4,D3,Normal,motor
52,112.6,40.50457,-3.366134,605.0,4,5,237.7,2.812,0,3,0,1.0,-0.0036000000000000003,0.0354,-0.0064,-0.008,0.0388,-0.0048000000000000004,-1.6018000000000001,0.0232,-1.0326,0.152,0.02007692307692308,2.956807692307692,1.1153846153846154,2.27875,-0.7725,1.0,111.775,-1.0,-1,-,-1,-1,0.0,0.0,-1.0,112.6,D3,Normal,motor
53,113.5,40.504417,-3.366444,605.9,4,5,237.7,1.055,0,3,0,1.0,-0.001200000000000001,0.023,-0.0055,-0.0006000000000000007,0.0229,-0.0060999999999999995,-1.5889000000000002,0.027000000000000003,-1.0463999999999998,0.22766666666666668,-0.02425925925925926,2.6084444444444443,1.8148148148148149,-1.0,-1.0,1.375,113.1625,-1.0,-1,-,-1,-1,0.0,0.0,-1.0,113.5,D3,Normal,motor
54,114.2,40.504265,-3.366755,605.4,4,5,237.7,0.0,0,3,0,1.0,-0.0125,0.0327,-0.0067,-0.005699999999999999,0.0311,-0.006900000000000001,-1.5813000000000001,0.027800000000000002,-1.0667,0.2663076923076923,0.0047692307692307695,2.546,1.7307692307692308,-1.0,-1.0,1.0,113.9375,-1.0,-1,-,-1,-1,0.0,0.0,-1.0,114.2,D3,Normal,motor
55,114.9,40.504112,-3.367079,604.4,4,5,237.7,0.0,2,3,0,1.0,0.0108,0.023200000000000002,0.008799999999999999,0.0087,0.025500000000000002,0.0078,-1.5656,0.0132,-1.0905,0.51312,0.02052,2.46632,1.84,-1.0,-1.0,0.0,114.6375,-1.0,-1,-,-1,-1,0.0,0.0,-1.0,114.9,D3,Normal,motor
56,115.4,40.503963,-3.367396,604.5,4,5,238.4,0.703,2,3,0,1.0,0.011699999999999999,-0.013900000000000001,-0.0015,0.0085,-0.0083,-0.0013000000000000002,-1.5577,-0.0047,-1.113,0.6811851851851851,0.04381481481481481,2.6981481481481477,1.2592592592592593,-1.0,-1.0,0.0,115.23333333333335,-1.0,-1,-,-1,-1,0.0,0.0,-1.0,115.4,D3,Normal,motor
57,115.5,40.503811,-3.367712,603.8,4,5,238.4,0.703,0,3,0,1.0,-0.006599999999999999,-0.0178,-0.0021999999999999997,-0.0032999999999999995,-0.0221,-0.0013999999999999998,-1.5529,0.008499999999999999,-1.1260999999999999,0.0,0.0,3.289375,0.0,-1.0,-1.0,0.125,115.4625,-1.0,-1,-,-1,-1,0.0,0.0,-1.0,115.5,D3,Normal,motor
58,115.5,40.503662,-3.368034,603.6,4,5,238.4,0.0,0,3,0,1.0,0.011599999999999997,-0.020800000000000003,0.0066,0.004700000000000001,-0.017499999999999998,0.0062,-1.5548,0.0254,-1.1366,0.0,0.0,3.2866818181818185,0.0,-1.0,-1.0,0.25,115.5,-1.0,-1,-,-1,-1,0.0,0.0,-1.0,115.5,D3,Normal,motor
59,115.9,40.503513,-3.368345,603.3,4,5,238.4,0.0,0,3,0,1.0,-0.033999999999999996,0.005900000000000001,-0.0045,-0.0254,0.0013000000000000002,-0.004000000000000001,-1.5593,0.0364,-1.144,-0.09175,-0.013875,3.5227083333333336,0.3333333333333333,-1.0,-1.0,0.0,115.76666666666668,-1.0,-1,-,-1,-1,0.0,0.0,-1.0,115.9,D3,Normal,motor
60,115.7,40.503357,-3.368671,602.5,4,5,237.7,0.703,0,3,0,1.0,-0.033999999999999996,0.006,-0.0072,-0.0346,0.0067,-0.007200000000000001,-1.5606,0.039,-1.1530999999999998,-0.33985,-0.05225,3.3284,1.7,-1.0,-1.0,0.0,115.775,-1.0,-1,-,-1,-1,0.0,0.0,-1.0,115.7,D3,Normal,motor
61,115.6,40.503197,-3.368985,602.0,4,5,237.7,0.703,0,3,0,1.0,-0.0084,0.0024999999999999996,-0.0031,-0.014599999999999998,0.004,-0.0031,-1.5589,0.023100000000000002,-1.1658,-0.21071428571428572,0.03719047619047619,3.155904761904762,1.7142857142857142,-1.0,-1.0,0.0,115.6375,-1.0,-1,-,-1,-1,0.0,0.0,-1.0,115.6,D3,Normal,motor
62,114.0,40.50304,-3.369301,602.3,4,5,237.7,0.0,0,3,0,1.0,-0.0117,-0.0147,-0.0077,-0.0048000000000000004,-0.016,-0.0072,-1.5546,0.025,-1.1741,0.05407692307692307,0.044,3.102653846153846,1.6923076923076923,-1.0,-1.0,0.0,114.8,-1.0,-1,-,-1,-1,0.0,0.0,-1.0,114.0,D3,Normal,motor
63,114.7,40.502884,-3.369617,603.5,4,5,237.3,0.352,0,3,0,1.0,-0.007777777777777778,-0.002888888888888889,-0.011666666666666665,-0.015111111111111112,-0.003222222222222222,-0.009444444444444443,-1.5544444444444445,0.02788888888888889,-1.1796666666666669,0.21780000000000002,-0.02096,3.1375200000000003,1.6,-1.0,-1.0,0.0,114.28,-1.0,-1,-,-1,-1,0.0,0.0,-1.0,114.7,D3,Normal,motor
64,113.8,40.502728,-3.369938,601.7,4,5,237.3,0.352,0,2,0,1.0,-0.0007000000000000006,-0.005900000000000001,-0.0015,-0.0029000000000000007,-0.0049,-0.0008,-1.5501,0.0194,-1.1877,0.2754,-0.013550000000000001,3.1427,1.9,-1.0,-1.0,0.0,114.25,-1.0,-1,-,-1,-1,0.0,0.0,-1.0,113.8,D3,Normal,motor
65,113.3,40.502583,-3.370243,600.2,4,5,237.3,0.0,1,2,0,1.0,-0.0162,0.0005999999999999998,0.0020000000000000005,-0.011699999999999999,-0.0030999999999999995,0.0015,-1.5458,0.0215,-1.1945999999999999,0.3968,-0.011649999999999999,3.2253999999999996,1.6,-1.0,-1.0,0.0,113.46666666666665,-1.0,-1,-,-1,-1,0.0,0.0,-1.0,113.3,D3,Normal,motor
66,113.3,40.50243,-3.370562,600.2,4,5,237.3,0.0,1,3,0,1.0,-0.0071,0.030300000000000004,0.0009999999999999998,-0.006900000000000001,0.027500000000000004,0.0021000000000000003,-1.5466,0.0094,-1.2064,0.6553749999999999,-0.07741666666666668,3.0747916666666666,1.625,-1.0,-1.0,0.0,113.3,-1.0,-1,-,-1,-1,0.0,0.0,-1.0,113.3,D3,Normal,motor
67,113.0,40.502281,-3.370879,600.2,4,5,238.0,0.703,2,3,0,1.0,-0.0098,0.0027999999999999995,-0.0104,-0.0131,0.009999999999999998,-0.0104,-1.5539999999999998,-0.022600000000000002,-1.2286,0.8728518518518519,0.0030740740740740737,3.1954444444444445,1.8148148148148149,-1.0,-1.0,0.0,113.12857142857142,-1.0,-1,-,-1,-1,0.0,0.0,-1.0,113.0,D3,Normal,motor
68,112.3,40.502136,-3.371194,600.0,3,5,239.1,1.758,0,3,0,1.0,-0.014799999999999999,-0.034699999999999995,-0.0032,-0.0161,-0.0316,-0.0038,-1.5507,-0.0152,-1.2399,0.46513043478260874,0.020565217391304347,3.4003478260869566,0.6086956521739131,-1.0,-1.0,0.0,112.61111111111111,-1.0,-1,-,-1,-1,0.0,0.0,-1.0,112.3,D3,Normal,motor
69,111.8,40.501991,-3.371523,599.2,4,5,238.4,0.703,0,3,0,1.0,-0.007299999999999999,-0.0363,-0.0056,-0.0063,-0.040999999999999995,-0.0055,-1.5511,0.0179,-1.2347,0.0,0.0,3.46412,0.0,-1.0,-1.0,0.0,111.9875,-1.0,-1,-,-1,-1,0.0,0.0,-1.0,111.8,D3,Normal,motor
70,111.2,40.50185,-3.37183,598.9,4,5,238.0,1.055,0,3,0,1.0,0.00010000000000000044,-0.011399999999999999,-0.0028,0.00039999999999999986,-0.0137,-0.0026,-1.5487,0.0355,-1.2278,-0.344,-0.03272727272727272,3.2902727272727272,1.5,-1.0,-1.0,0.0,111.4,-1.0,-1,-,-1,-1,0.0,0.0,-1.0,111.2,D3,Normal,motor
71,110.6,40.501705,-3.37212,598.6,4,5,237.7,0.703,0,3,0,1.0,-0.0186,-0.0034000000000000002,-0.0075,-0.014100000000000001,-0.0024000000000000002,-0.0063,-1.5478,0.034600000000000006,-1.2231,-0.31503846153846154,0.056615384615384616,3.228846153846154,1.7307692307692308,-1.0,-1.0,0.0,110.825,-1.0,-1,-,-1,-1,0.0,0.0,-1.0,110.6,D3,Normal,motor
72,109.8,40.501549,-3.372426,598.3,4,5,237.7,0.352,0,3,0,1.0,-0.006900000000000001,0.0017999999999999995,-0.00020000000000000017,-0.011000000000000001,0.0021000000000000003,-0.0035000000000000005,-1.5492000000000001,0.0293,-1.2213,-0.1962380952380952,0.0679047619047619,3.2144285714285714,1.8571428571428572,-1.0,-1.0,0.0,110.1,-1.0,-1,-,-1,-1,0.0,0.0,-1.0,109.8,D3,Normal,motor
73,109.8,40.501404,-3.372744,597.8,4,5,237.3,0.352,0,3,0,1.0,-0.012444444444444445,0.004888888888888889,-0.004,-0.009111111111111111,0.003333333333333333,-0.004333333333333333,-1.550888888888889,0.029,-1.222,-0.10075,0.03325,3.18375,1.8333333333333333,-1.0,-1.0,0.0,109.8,-1.0,-1,-,-1,-1,0.0,0.0,-1.0,109.8,D3,Normal,motor
74,109.0,40.501255,-3.373044,597.2,4,5,237.3,0.352,0,3,0,1.0,-0.00039999999999999964,0.005900000000000001,0.0025999999999999994,-9.999999999999991e-05,0.0047,0.0032,-1.5547,0.027800000000000002,-1.2239,-0.07903703703703703,0.03785185185185185,3.153703703703704,1.8148148148148149,-1.0,-1.0,0.0,109.26666666666667,-1.0,-1,-,-1,-1,0.0,0.0,-1.0,109.0,D3,Normal,motor
75,108.7,40.501102,-3.373335,597.1,4,5,237.0,0.352,0,3,0,1.0,-0.013000000000000001,0.0129,0.0093,-0.015,0.0111,0.0083,-1.5623,0.0329,-1.2245,-0.0715,0.01682142857142857,3.182035714285714,1.7857142857142858,-1.0,-1.0,0.0,108.775,-1.0,-1,-,-1,-1,0.0,0.0,-1.0,108.7,D3,Normal,motor
76,109.2,40.500957,-3.373638,597.2,3,5,237.3,0.352,0,3,0,1.0,-0.010100000000000001,0.0005000000000000007,0.0013000000000000002,-0.0091,0.0027,0.0031,-1.5664,0.0201,-1.2282,-0.052538461538461534,0.016346153846153847,3.1871153846153844,1.7692307692307692,-1.0,-1.0,0.0,108.98571428571428,-1.0,-1,-,-1,-1,0.0,0.0,-1.0,109.2,D3,Normal,motor
77,109.2,40.500813,-3.373941,596.6,3,5,238.0,1.055,0,3,0,1.0,-0.0016000000000000003,-0.0182,-0.0073999999999999995,-0.003,-0.014199999999999999,-0.006500000000000001,-1.5618,0.0252,-1.229,-0.03122222222222222,-0.002518518518518519,3.178777777777778,1.8148148148148149,-1.0,-1.0,0.125,109.2,-1.0,-1,-,-1,-1,0.0,0.0,-1.0,109.2,D3,Normal,motor
78,109.0,40.500668,-3.374249,596.3,3,5,237.3,0.703,0,3,0,1.0,-0.01311111111111111,-0.010444444444444444,0.00044444444444444425,-0.011111111111111112,-0.014444444444444446,-0.0023333333333333335,-1.554,0.02333333333333333,-1.225888888888889,-0.09013636363636363,-0.0025454545454545456,3.2261363636363636,1.9090909090909092,-1.0,-1.0,1.0,109.10000000000001,-1.0,-1,-,-1,-1,0.0,0.0,-1.0,109.0,D3,Normal,motor
89,109.4,40.499012,-3.377486,592.9,3,5,236.2,0.0,0,3,0,1.0,-0.0156,0.0053,1.7347234759768072e-19,-0.013500000000000002,0.0043,0.0017000000000000001,-1.5688,0.0264,-1.2357,-0.2218148148148148,-0.007222222222222223,3.1768888888888887,1.8148148148148149,-1.0,-1.0,0.0,109.30000000000001,-1.0,-1,-,-1,-1,40.50037,-3.374856,1.185,109.4,D3,Normal,motor
89,109.4,40.499012,-3.377486,592.9,3,5,236.2,0.0,0,3,0,1.0,-0.0156,0.0053,1.7347234759768072e-19,-0.013500000000000002,0.0043,0.0017000000000000001,-1.5688,0.0264,-1.2357,-0.2218148148148148,-0.007222222222222223,3.1768888888888887,1.8148148148148149,-1.0,-1.0,0.0,109.30000000000001,-1.0,-1,-,-1,-1,40.499012,-3.377487,0.024,109.4,D3,Normal,motor
90,108.9,40.498867,-3.377793,593.0,4,5,236.6,0.352,0,2,0,1.0,-0.017875000000000002,0.019125,-4.336808689942018e-19,-0.0225,0.020125,-0.00025,-1.573125,0.023625,-1.2377500000000001,-0.27175,0.0234,3.18425,1.9,-1.0,-1.0,0.0,109.11428571428573,-1.0,-1,-,-1,-1,40.498867,-3.377793,0.02,108.9,D3,Normal,motor
91,108.8,40.498714,-3.378094,592.8,3,5,236.2,0.352,0,2,0,1.0,-0.009111111111111113,0.004,-0.005666666666666667,-0.01,0.0014444444444444446,-0.006,-1.5721111111111112,0.022444444444444447,-1.2414444444444444,-0.24371428571428572,0.007666666666666667,3.2018095238095237,1.8571428571428572,-1.0,-1.0,0.0,108.82000000000001,-1.0,-1,-,-1,-1,40.498714,-3.378094,0.033,108.8,D3,Normal,motor
92,110.1,40.498566,-3.378391,593.1,3,5,236.6,0.352,0,2,0,1.0,-0.0066,-0.0078,-0.009,-0.0031,-0.0067,-0.0079,-1.5689,0.020200000000000003,-1.2436,-0.17253846153846153,0.029346153846153848,3.1741538461538465,1.8076923076923077,-1.0,-1.0,0.0,109.9375,-1.0,-1,-,-1,-1,40.498566,-3.378391,0.07,110.1,D3,Normal,motor
93,112.5,40.498413,-3.378696,592.8,4,5,236.2,0.352,0,2,0,1.0,-0.0124,0.0021999999999999997,0.0019000000000000002,-0.012100000000000001,0.0048000000000000004,0.0009000000000000001,-1.5655,0.0241,-1.2443000000000002,-0.1428095238095238,0.01633333333333333,3.1984761904761907,1.8571428571428572,-1.0,-1.0,0.0,111.6,-1.0,-1,-,-1,-1,40.498413,-3.378696,0.013,112.5,D3,Normal,motor
94,110.9,40.498257,-3.379006,592.1,4,5,236.2,0.352,0,2,0,1.0,-0.011899999999999999,0.004,0.0067,-0.011899999999999999,0.0005000000000000001,0.0072,-1.5631,0.0304,-1.2447000000000001,-0.14817857142857144,0.03039285714285714,3.173821428571429,1.8214285714285714,-1.0,-1.0,0.0,111.58571428571429,-1.0,-1,-,-1,-1,40.498257,-3.379006,0.078,110.9,D3,Normal,motor
95,110.4,40.498093,-3.379312,592.8,3,5,236.2,0.0,0,2,0,1.0,-0.007333333333333334,0.006,0.007222222222222223,-0.006111111111111111,0.007,0.008,-1.5611111111111111,0.029777777777777778,-1.244,-0.12662500000000002,0.04445833333333333,3.1610833333333335,1.7916666666666667,-1.0,-1.0,0.0,110.5875,-1.0,-1,-,-1,-1,40.498093,-3.379312,0.013,110.4,D3,Normal,motor
96,110.6,40.49794,-3.379614,592.4,4,5,235.9,0.352,0,2,0,1.0,-0.007090909090909091,0.003090909090909091,0.0034545454545454545,-0.008272727272727272,0.003,0.002727272727272727,-1.5637272727272729,0.025090909090909094,-1.244,-0.20074999999999998,0.03370833333333333,3.1837083333333336,1.8333333333333333,-1.0,-1.0,0.0,110.525,-1.0,-1,-,-1,-1,40.49794,-3.379614,0.034,110.6,D3,Normal,motor
97,111.3,40.497787,-3.379917,592.2,4,5,236.2,0.352,0,2,0,1.0,-0.005222222222222222,0.002333333333333333,-0.0035555555555555557,-0.008,0.0033333333333333335,-0.003,-1.5658888888888889,0.022000000000000002,-1.2464444444444445,-0.22328,0.01972,3.1987599999999996,1.8,-1.0,-1.0,0.0,111.06666666666666,-1.0,-1,-,-1,-1,40.497787,-3.379917,0.055,111.3,D3,Normal,motor
98,111.2,40.497635,-3.380226,592.0,4,5,235.9,0.352,0,2,0,1.0,-0.0091,0.0067,-0.0092,-0.010100000000000001,0.006900000000000001,-0.0078,-1.5658999999999998,0.027000000000000003,-1.248,-0.26619230769230773,0.010846153846153847,3.2011538461538462,1.8846153846153846,-1.0,-1.0,0.0,111.225,-1.0,-1,-,-1,-1,40.497635,-3.380227,0.111,111.2,D3,Normal,motor
99,109.3,40.497475,-3.380526,591.7,4,5,235.5,0.703,0,2,0,1.0,-0.0132,0.0079,0.0035000000000000005,-0.0126,0.0077,0.0021000000000000003,-1.5666,0.018099999999999998,-1.2502,-0.2881739130434783,0.007608695652173913,3.2373913043478257,1.826086956521739,-1.0,-1.0,0.0,110.0125,-1.0,-1,-,-1,-1,40.497475,-3.380526,0.101,109.3,D3,Normal,motor
100,111.2,40.49733,-3.380834,591.4,4,5,236.2,0.703,0,2,0,1.0,-0.013666666666666667,-0.004111111111111111,0.0016666666666666666,-0.014666666666666668,-0.0047777777777777775,0.004111111111111111,-1.5672222222222223,0.01211111111111111,-1.2536666666666667,-0.29103999999999997,0.01764,3.21472,1.84,-1.0,-1.0,0.0,110.56666666666666,-1.0,-1,-,-1,-1,40.49733,-3.380834,0.098,111.2,D3,Normal,motor
101,112.1,40.497173,-3.381139,591.3,3,5,236.2,0.703,0,2,0,1.0,-0.009600000000000001,-0.0012999999999999997,0.0033,-0.0059,0.0009000000000000001,0.004399999999999999,-1.5698,0.0203,-1.2548,-0.25045833333333334,0.04733333333333333,3.238125,1.7916666666666667,-1.0,-1.0,0.0,111.8,-1.0,-1,-,-1,-1,40.497173,-3.38114,0.017,112.1,D3,Normal,motor
102,111.6,40.497028,-3.381446,591.0,3,5,236.6,0.352,0,2,0,1.0,-0.017599999999999998,0.0043,-0.0099,-0.0201,0.0026999999999999997,-0.008799999999999999,-1.5725,0.030199999999999998,-1.2549,-0.14534615384615385,0.04388461538461538,3.2477307692307695,1.8076923076923077,-1.0,-1.0,0.0,111.76666666666667,-1.0,-1,-,-1,-1,40.497028,-3.381447,0.013,111.6,D3,Normal,motor
103,111.7,40.496872,-3.381754,591.4,3,5,236.6,0.352,0,2,0,1.0,-0.0020000000000000005,-0.012,-0.006,-0.0058,-0.011300000000000001,-0.0055,-1.5722999999999998,0.0259,-1.2542,-0.07785185185185185,0.050333333333333334,3.2044814814814817,1.8518518518518519,-1.0,-1.0,0.0,111.65555555555555,-1.0,-1,-,-1,-1,40.496872,-3.381754,0.085,111.7,D3,Normal,motor
104,111.7,40.496719,-3.382063,591.8,3,5,236.2,0.352,0,2,0,1.0,-0.0225,0.0099,-0.0047,-0.015799999999999998,0.0059,-0.0041,-1.5627,0.0369,-1.2509000000000001,0.02889285714285714,0.016785714285714286,3.189178571428571,1.8571428571428572,-1.0,-1.0,0.0,111.7,-1.0,-1,-,-1,-1,40.496719,-3.382063,0.019,111.7,D3,Normal,motor
105,112.2,40.496555,-3.382372,591.6,3,5,235.9,0.703,0,2,0,1.0,-0.0147,0.0112,-0.0029000000000000007,-0.020999999999999998,0.014099999999999998,-0.0042,-1.5626,0.0427,-1.2486000000000002,-0.0038461538461538464,-0.015076923076923078,3.2055384615384614,1.7307692307692308,-1.0,-1.0,0.0,112.03333333333335,-1.0,-1,-,-1,-1,40.496555,-3.382372,0.011,112.2,D3,Normal,motor
106,111.3,40.496395,-3.382669,591.2,3,5,235.9,0.352,0,2,0,1.0,-0.006899999999999999,-0.004200000000000001,-0.0166,-0.001,-0.0024000000000000002,-0.0142,-1.5651,0.0455,-1.2447000000000001,0.01076923076923077,-0.009653846153846153,3.176846153846154,1.8076923076923077,-1.0,-1.0,0.0,111.6,-1.0,-1,-,-1,-1,40.496395,-3.38267,0.103,111.3,D3,Normal,motor
107,111.5,40.496235,-3.382969,591.0,3,5,235.9,0.0,0,2,0,1.0,-0.009500000000000001,-0.0091,-0.0007000000000000001,-0.0123,-0.0098,-0.0039,-1.5642,0.0481,-1.2363,0.108,-0.022076923076923074,3.1656538461538464,1.8461538461538463,-1.0,-1.0,0.0,111.41111111111111,-1.0,-1,-,-1,-1,40.496235,-3.38297,0.019,111.5,D3,Normal,motor
108,110.6,40.496086,-3.383272,591.1,3,5,234.8,1.055,0,2,0,1.0,-0.0167,0.0034000000000000002,0.0109,-0.014100000000000001,0.0034999999999999996,0.0094,-1.5638999999999998,0.0486,-1.2291,0.0926,-0.03304,3.13848,1.88,-1.0,-1.0,0.0,110.96,-1.0,-1,-,-1,-1,40.496086,-3.383272,0.017,110.6,D3,Normal,motor
109,110.5,40.495926,-3.383573,590.9,3,5,234.5,1.406,0,1,0,1.0,0.0018000000000000008,0.008700000000000001,0.0055,0.0019999999999999996,0.0076,0.0060999999999999995,-1.5688,0.044700000000000004,-1.224,0.021720000000000003,-0.01548,3.14,1.84,-1.0,-1.0,0.0,110.53333333333333,-1.0,-1,-,-1,-1,40.495926,-3.383573,0.038,110.5,D3,Normal,motor
110,110.4,40.495762,-3.383868,591.2,4,5,234.1,0.703,0,1,0,1.0,-0.0051,0.0009000000000000004,0.005300000000000001,-0.007000000000000001,0.0003000000000000006,0.0056,-1.5752000000000002,0.0413,-1.2218,-0.015923076923076922,-0.0135,3.160423076923077,1.8846153846153846,-1.0,-1.0,0.0,110.4375,-1.0,-1,-,-1,-1,40.495762,-3.383868,0.017,110.4,D3,Normal,motor
111,111.0,40.495598,-3.384154,591.1,3,5,233.8,0.703,0,1,0,1.0,-0.014199999999999999,-0.0024000000000000002,0.013300000000000001,-0.0161,-0.0021999999999999997,0.0125,-1.5724,0.0441,-1.2189,-0.08984,-0.0057599999999999995,3.1348000000000003,1.84,-1.0,-1.0,0.0,110.74285714285715,-1.0,-1,-,-1,-1,40.495598,-3.384154,0.017,111.0,D3,Normal,motor
112,111.0,40.495434,-3.384447,591.3,4,5,233.8,0.352,0,1,0,1.0,-0.0064,0.004200000000000001,0.0124,-0.005199999999999999,0.0036999999999999997,0.0132,-1.5727,0.0426,-1.2157,-0.15445833333333334,-0.028958333333333332,3.0984583333333333,1.7916666666666667,-1.0,-1.0,0.0,111.0,-1.0,-1,-,-1,-1,40.495434,-3.384447,0.046,111.0,D3,Normal,motor
113,112.8,40.495262,-3.384753,591.3,4,5,232.4,1.406,0,1,0,1.0,-0.014900000000000002,0.0024000000000000002,0.0103,-0.013800000000000002,0.0042,0.011,-1.5729,0.0416,-1.2137,-0.20808,-0.0070799999999999995,3.1239600000000003,1.8,-1.0,-1.0,0.125,112.125,-1.0,-1,-,-1,-1,40.495262,-3.384753,0.117,112.8,D3,Normal,motor
114,111.7,40.495083,-3.385042,591.7,4,5,232.7,1.055,0,1,0,1.0,0.0219,0.0075,0.007299999999999999,0.014800000000000002,0.007200000000000001,0.007299999999999999,-1.5725,0.0449,-1.2119,-0.2313478260869565,0.021043478260869563,3.1316956521739128,1.9130434782608696,-1.0,-1.0,0.0,112.17142857142858,-1.0,-1,-,-1,-1,40.495083,-3.385043,0.014,111.7,D3,Normal,motor
115,112.1,40.494907,-3.385331,591.8,4,5,232.0,0.703,0,1,0,1.0,-0.025,-0.0046,0.0088,-0.017599999999999998,-0.005699999999999999,0.0089,-1.574,0.04479999999999999,-1.2055,-0.21676923076923077,0.032846153846153844,3.1810384615384613,1.8461538461538463,-1.0,-1.0,0.0,111.95,-1.0,-1,-,-1,-1,40.494907,-3.385331,0.02,112.1,D3,Normal,motor
116,112.5,40.494732,-3.385619,591.7,3,5,231.7,1.055,0,1,0,1.0,0.0011000000000000003,-0.008299999999999998,0.0129,0.0017000000000000001,-0.004000000000000001,0.0125,-1.5749,0.053700000000000005,-1.2004,-0.35795238095238097,0.010238095238095237,3.1270000000000002,1.7142857142857142,-1.0,-1.0,0.0,112.35,-1.0,-1,-,-1,-1,40.494732,-3.385619,0.043,112.5,D3,Normal,motor
117,113.5,40.494572,-3.38589,591.9,4,5,230.6,1.406,2,1,0,1.0,-0.010100000000000001,-0.0098,0.0042,-0.011699999999999999,-0.0123,0.0039,-1.5797,0.06860000000000001,-1.1879,-0.70104,-0.03076,3.13732,1.84,-1.0,-1.0,0.0,113.125,-1.0,-1,-,-1,-1,40.494572,-3.385891,0.029,113.5,D3,Normal,motor
118,114.1,40.494385,-3.386175,592.3,3,5,229.9,1.758,0,1,0,1.0,-0.0027,0.0211,0.0057,-0.0034000000000000002,0.0167,0.0047,-1.5741,0.0616,-1.1804999999999999,-0.61736,-0.034319999999999996,3.21232,0.84,-1.0,-1.0,0.0,113.875,-1.0,-1,-,-1,-1,40.494385,-3.386176,0.01,114.1,D3,Normal,motor
119,114.2,40.494198,-3.38646,591.8,4,5,229.6,1.055,0,1,0,1.0,-0.0054,0.027800000000000002,0.0045,-0.007299999999999999,0.028800000000000003,0.0067,-1.5755,0.0375,-1.1846,0.0,0.0,3.291375,0.0,-1.0,-1.0,0.0,114.175,-1.0,-1,-,-1,-1,40.494198,-3.386461,0.061,114.2,D3,Normal,motor
120,114.4,40.494015,-3.386739,592.2,4,5,229.2,0.703,0,1,0,1.0,-0.004555555555555557,-0.0038888888888888883,0.00011111111111111121,0.0005555555555555549,-0.004555555555555555,0.00011111111111111121,-1.5821111111111112,0.026333333333333334,-1.1885555555555554,0.15435714285714286,0.03389285714285715,3.3005357142857146,0.6785714285714286,-1.0,-1.0,0.625,114.325,-1.0,-1,-,-1,-1,40.494015,-3.386739,0.013,114.4,D3,Normal,motor
121,114.7,40.493824,-3.387025,592.8,4,5,228.9,0.703,0,1,0,1.0,-0.002,-0.004999999999999999,0.0035000000000000005,0.0,-0.0049,0.0034000000000000002,-1.5785,0.0247,-1.1917,0.44531818181818184,-0.03604545454545455,3.2875,1.7727272727272727,-1.0,-1.0,1.0,114.5875,-1.0,-1,-,-1,-1,40.493824,-3.387025,0.019,114.7,D3,Normal,motor
122,115.5,40.493633,-3.387305,592.6,3,5,229.2,0.352,0,1,0,1.0,0.0108,0.0128,0.0010999999999999998,0.0111,0.0128,0.0027,-1.572,0.026600000000000002,-1.1997,0.056111111111111105,-0.0627037037037037,3.3590740740740737,1.7407407407407407,-1.0,-1.0,1.0,115.23333333333333,-1.0,-1,-,-1,-1,40.493633,-3.387305,0.014,115.5,D3,Normal,motor
123,115.7,40.493443,-3.387582,592.9,3,5,229.2,0.352,0,0,0,1.0,-0.012,0.0030000000000000005,-0.0021000000000000003,-0.0108,0.0009000000000000001,-0.003,-1.5694000000000001,0.0329,-1.2033,-0.23858333333333334,-0.016583333333333335,3.3509583333333333,1.6666666666666667,10.172857142857142,-0.5142857142857143,1.1428571428571428,115.61428571428571,-1.0,-1,-,-1,-1,40.493443,-3.387582,0.053,115.7,D3,Normal,motor
124,115.9,40.493259,-3.387865,592.7,3,5,228.9,0.352,0,0,0,1.0,-0.008799999999999999,0.0027,0.0032,-0.0105,0.005599999999999999,0.0039,-1.571,0.0322,-1.2053,-0.36777272727272725,0.016954545454545455,3.225863636363636,1.7727272727272727,-1.0,-1.0,1.0,115.81428571428572,-1.0,-1,-,-1,-1,40.493259,-3.387865,0.03,115.9,D3,Normal,motor
125,116.2,40.493065,-3.388149,592.3,3,5,228.9,0.352,0,1,0,1.0,-0.008799999999999999,0.0010999999999999998,0.0055,-0.006900000000000001,-0.0012999999999999997,0.0046,-1.577,0.033,-1.2046,-0.3954347826086957,0.02617391304347826,3.2036956521739133,1.7391304347826086,-1.0,-1.0,0.8333333333333334,116.10000000000001,-1.0,-1,-,-1,-1,40.493065,-3.388149,0.013,116.2,D3,Normal,motor
126,117.3,40.49287,-3.38844,592.3,3,5,228.2,0.703,0,1,0,1.0,-0.0212,0.0036,-0.004399999999999999,-0.017499999999999998,0.0037000000000000006,-0.0024000000000000002,-1.5790000000000002,0.0387,-1.2039,-0.40875,0.02239285714285714,3.2133214285714287,1.7142857142857142,-1.0,-1.0,0.14285714285714285,116.98571428571428,-1.0,-1,-,-1,-1,40.49287,-3.38844,0.021,117.3,D3,Normal,motor
127,116.7,40.492672,-3.388723,593.7,3,5,227.5,1.406,0,1,0,1.0,-0.002499999999999999,0.009,-0.0114,-0.010100000000000001,0.0109,-0.013000000000000001,-1.5813000000000001,0.0449,-1.2026,-0.3711851851851852,0.021037037037037035,3.179518518518518,1.7407407407407407,-1.0,-1.0,0.0,116.87142857142858,-1.0,-1,-,-1,-1,40.492672,-3.388723,0.089,116.7,D3,Normal,motor
128,117.6,40.492477,-3.389018,594.6,3,5,227.8,0.352,0,1,0,1.0,-0.0034000000000000002,-0.0086,-0.0037000000000000006,-0.0035000000000000005,-0.006500000000000001,-0.0032,-1.5807,0.0407,-1.2010999999999998,-0.3808076923076923,0.026153846153846156,3.1475,1.7692307692307692,-1.0,-1.0,0.0,117.34285714285714,-1.0,-1,-,-1,-1,40.492477,-3.389018,0.118,117.6,D3,Normal,motor
129,117.8,40.492287,-3.38931,595.6,3,5,227.1,0.703,1,1,0,1.0,-0.006111111111111111,0.002333333333333334,0.001333333333333333,-0.0017777777777777783,-0.001888888888888889,-0.0006666666666666665,-1.5724444444444445,0.034777777777777776,-1.198222222222222,-0.45856,0.01612,3.1574400000000002,1.72,-1.0,-1.0,0.0,117.71428571428571,-1.0,-1,-,-1,-1,40.492287,-3.389311,0.028,117.8,D3,Normal,motor
130,118.3,40.492085,-3.389595,590.3,4,5,226.8,1.055,1,1,0,1.0,-0.010666666666666666,0.008333333333333333,0.006666666666666666,-0.013333333333333334,0.008666666666666666,0.0064444444444444445,-1.5757777777777777,0.034888888888888886,-1.1995555555555555,-0.3996190476190476,0.023857142857142858,3.1401904761904764,1.6666666666666667,-1.0,-1.0,0.0,118.05,-1.0,-1,-,-1,-1,40.492085,-3.389595,0.073,118.3,D3,Normal,motor
131,119.4,40.491882,-3.38988,591.8,4,5,226.8,0.352,0,1,0,1.0,-0.0024999999999999996,0.0002999999999999996,0.0004000000000000002,-0.0033,-0.0021,0.0026,-1.5695999999999999,0.036,-1.1986,-0.3201304347826087,0.02808695652173913,3.2056521739130437,1.6521739130434783,-1.0,-1.0,0.7142857142857143,118.92857142857143,-1.0,-1,-,-1,-1,40.491882,-3.38988,0.109,119.4,D3,Normal,motor
132,119.2,40.491676,-3.390162,592.2,4,5,226.4,0.352,0,1,0,1.0,-0.0092,0.004399999999999999,-0.0041,-0.0102,0.0051,-0.0034000000000000002,-1.5643,0.0374,-1.1992,-0.28108695652173915,0.04830434782608695,3.275521739130435,1.7391304347826086,-1.0,-1.0,1.0,119.28571428571429,-1.0,-1,-,-1,-1,40.491676,-3.390162,0.064,119.2,D3,Normal,motor
133,118.9,40.491474,-3.390445,591.8,4,5,226.1,0.703,0,1,0,1.0,-0.0187,0.0037000000000000006,-0.0156,-0.0188,0.0078,-0.0164,-1.5606,0.033100000000000004,-1.2015,-0.17127272727272727,0.045863636363636356,3.250272727272727,1.8181818181818181,-1.0,-1.0,1.0,119.02857142857144,-1.0,-1,-,-1,-1,40.491474,-3.390445,0.024,118.9,D3,Normal,motor
134,118.2,40.491268,-3.390715,592.1,4,5,226.1,0.352,0,0,0,1.0,-0.011200000000000002,0.0012999999999999997,-0.0049,-0.011899999999999999,-0.003,-0.0053,-1.5519,0.022600000000000002,-1.2031,-0.22383333333333333,0.021208333333333333,3.2540833333333334,1.75,-1.0,-1.0,1.0,118.43333333333334,-1.0,-1,-,-1,-1,40.491268,-3.390716,0.03,118.2,D3,Normal,motor
135,117.7,40.491066,-3.391004,591.3,4,5,226.1,0.0,0,0,0,1.0,-0.0251,0.0161,-0.0153,-0.0238,0.0164,-0.0157,-1.5519,0.0147,-1.209,-0.3838846153846154,0.02769230769230769,3.266153846153846,1.7692307692307692,-1.0,-1.0,0.0,117.91428571428571,-1.0,-1,-,-1,-1,40.491066,-3.391004,0.027,117.7,D3,Normal,motor
136,118.4,40.490856,-3.391282,590.2,4,5,226.4,0.352,0,0,0,1.0,-0.0161,0.0067,-0.0072,-0.014000000000000002,0.0086,-0.0052,-1.5532,0.0098,-1.2164,-0.32666666666666666,0.039875,3.2610833333333336,1.6666666666666667,-1.0,-1.0,0.0,118.10000000000001,-1.0,-1,-,-1,-1,40.490856,-3.391282,0.028,118.4,D3,Normal,motor
137,118.8,40.49065,-3.391567,593.7,4,5,227.1,1.055,0,0,0,1.0,-0.0104,-0.0055000000000000005,-0.011300000000000001,-0.012199999999999999,-0.0058000000000000005,-0.0118,-1.5574999999999999,0.015,-1.2227000000000001,-0.19876000000000002,0.01804,3.20932,1.8,-1.0,-1.0,0.0,118.62857142857142,-1.0,-1,-,-1,-1,40.49065,-3.391567,0.057,118.8,D3,Normal,motor
141,115.2,40.489853,-3.392662,591.6,4,5,226.1,0.352,0,0,0,1.0,-0.0087,0.0027,0.013799999999999998,-0.013000000000000001,-0.0005000000000000001,0.014799999999999999,-1.5562,0.03,-1.229,-0.011478260869565217,-0.04047826086956522,3.10204347826087,1.7391304347826086,-1.0,-1.0,0.0,115.1625,120.0,1,motorway,3,-1,40.490448,-3.39185,2.87,115.2,D3,Normal,motor
143,115.6,40.489452,-3.393202,590.7,4,5,226.1,0.703,0,0,0,1.0,-0.0066,0.011,0.003,-0.006,0.0144,0.0043,-1.5642,0.0062,-1.2397,-0.2542083333333333,0.027875,3.200708333333333,1.75,-1.0,-1.0,0.0,115.38571428571427,120.0,1,motorway,3,-1,40.489853,-3.392662,1.558,115.6,D3,Normal,motor
144,116.1,40.48925,-3.393478,590.3,4,5,226.4,1.055,0,0,0,1.0,-0.028900000000000002,0.0007999999999999997,0.0013999999999999998,-0.025,0.0005000000000000002,0.0016,-1.5621,0.0051,-1.2457,-0.1295217391304348,0.03408695652173913,3.1486521739130433,1.7826086956521738,-1.0,-1.0,0.5,115.85,120.0,1,motorway,3,-1,40.489452,-3.393202,1.187,116.1,D3,Normal,motor
147,116.6,40.488636,-3.394298,589.8,4,5,226.1,0.352,0,0,0,1.0,-0.007299999999999999,0.0157,-0.0039,-0.0173,0.0196,-0.0034000000000000002,-1.5648,0.027700000000000002,-1.2474,-0.03712,0.0308,3.15524,1.68,-1.0,-1.0,0.0,116.51428571428572,120.0,1,motorway,3,-1,40.489048,-3.39375,2.175,116.6,D3,Normal,motor
150,116.2,40.488033,-3.39511,589.1,3,5,226.4,0.352,0,0,0,1.0,-0.0152,0.028000000000000004,-0.004,-0.015099999999999999,0.029199999999999997,-0.0032,-1.563,0.0064,-1.2603,0.28323076923076923,0.03773076923076923,3.189076923076923,1.8461538461538463,-1.0,-1.0,0.0,116.30000000000001,120.0,1,motorway,3,-1,40.488438,-3.394573,1.629,116.2,D3,Normal,motor
151,115.2,40.487839,-3.395375,589.2,3,5,227.1,1.055,2,0,0,1.0,-0.0008999999999999998,0.0024999999999999988,-0.006999999999999999,-0.0019000000000000002,0.0062,-0.006900000000000001,-1.5604,-0.0075,-1.2691,0.8724166666666666,0.04816666666666666,3.151875,1.8333333333333333,-1.0,-1.0,0.0,115.48571428571428,120.0,1,motorway,3,-1,40.488033,-3.39511,1.068,115.2,D3,Normal,motor
154,113.9,40.487251,-3.396205,589.2,3,5,225.4,2.109,0,0,0,1.0,0.0017999999999999995,-0.0187,-0.003,-0.00039999999999999986,-0.0217,-0.0021999999999999997,-1.5485,0.0749,-1.2234,-0.17251851851851854,0.015555555555555557,3.118888888888889,1.8148148148148149,-1.0,-1.0,0.0,114.28571428571429,120.0,1,motorway,3,1,40.48764,-3.395657,1.661,113.9,D3,Normal,motor
156,111.5,40.486843,-3.396716,588.9,3,5,222.9,2.461,0,0,0,1.0,-0.019700000000000002,0.017400000000000002,0.0125,-0.0159,0.017900000000000003,0.0128,-1.5507,0.07909999999999999,-1.1888999999999998,0.1066,-0.017920000000000002,3.08244,1.8,-1.0,-1.0,0.0,112.41428571428571,120.0,1,motorway,3,1,40.487251,-3.396205,1.363,114.7,D3,Normal,motor
157,112.0,40.486633,-3.396972,588.4,4,5,222.5,1.758,0,0,0,1.0,-0.0101,0.013000000000000001,0.0007000000000000003,-0.015099999999999999,0.0123,0.0019999999999999996,-1.5657,0.0721,-1.1815,0.14407407407407408,-0.01837037037037037,3.074222222222222,1.962962962962963,-1.0,-1.0,0.0,111.78571428571429,120.0,1,motorway,3,1,40.486843,-3.396716,0.889,112.0,D3,Normal,motor
158,112.0,40.486427,-3.397221,589.6,4,5,222.2,0.703,0,0,0,1.0,-0.007299999999999999,0.009399999999999999,-0.0046,-0.0062,0.011699999999999999,-0.006500000000000001,-1.5672000000000001,0.0581,-1.1773,0.21854545454545454,-0.03313636363636364,3.038909090909091,1.8181818181818181,-1.0,-1.0,0.0,112.0,120.0,1,motorway,3,1,40.486633,-3.396972,0.965,112.0,D3,Normal,motor
159,111.6,40.486221,-3.397465,590.5,4,5,221.5,1.055,1,0,0,1.0,-0.0103,-0.0167,0.0009999999999999998,-0.0131,-0.018099999999999998,0.0024999999999999996,-1.5692,0.059399999999999994,-1.1709999999999998,0.29968181818181816,-0.015681818181818182,3.030181818181818,1.8181818181818181,-1.0,-1.0,0.0,111.75,120.0,1,motorway,3,1,40.486427,-3.397221,0.934,111.6,D3,Normal,motor
160,111.9,40.486008,-3.397712,589.0,4,5,220.8,1.406,0,1,0,1.0,-0.009888888888888888,-0.014222222222222223,-0.0037777777777777775,-0.0024444444444444444,-0.011555555555555557,-0.0044444444444444444,-1.5708888888888888,0.06944444444444445,-1.1612222222222224,0.33988,-0.07176,3.09132,1.88,-1.0,-1.0,0.0,111.81428571428572,120.0,1,motorway,3,1,40.486221,-3.397465,0.753,111.9,D3,Normal,motor
161,111.8,40.48579,-3.397951,588.9,3,5,220.4,1.055,0,1,0,1.0,-0.0116,0.0075000000000000015,-0.0043,-0.0095,0.0058,-0.0040999999999999995,-1.5727,0.068,-1.1553,0.233125,-0.06566666666666666,3.095083333333333,1.9166666666666667,-1.0,-1.0,0.8571428571428571,111.82857142857142,120.0,1,motorway,3,1,40.486008,-3.397712,1.248,111.8,D3,Normal,motor
163,112.4,40.485363,-3.398412,589.1,3,5,219.0,1.406,0,1,0,1.0,-0.0038,-0.005,0.0314,-0.0063,-0.0042,0.028700000000000003,-1.5887,0.051000000000000004,-1.1545999999999998,0.16592592592592595,-0.0407037037037037,3.069925925925926,1.8518518518518519,-1.0,-1.0,1.0,112.11428571428573,120.0,1,motorway,3,1,40.48558,-3.398182,0.647,112.4,D3,Normal,motor
164,113.7,40.485142,-3.398642,589.5,3,5,218.3,1.055,0,1,0,1.0,-0.0026999999999999997,-0.008499999999999999,0.0107,-0.004000000000000001,-0.0078,0.0132,-1.6051000000000002,0.0591,-1.1514,0.25785185185185183,-0.08951851851851851,3.059925925925926,1.7777777777777777,-1.0,-1.0,1.0,113.32857142857144,120.0,1,motorway,3,1,40.485363,-3.398412,0.517,112.4,D3,Normal,motor
165,115.2,40.484909,-3.398889,589.8,3,5,218.0,1.0,0,1,0,1.0,-0.028500000000000004,-0.009600000000000001,-0.0001999999999999995,-0.0178,-0.0075,-0.0019000000000000002,-1.6009,0.06970000000000001,-1.1471,0.26743478260869563,-0.1475217391304348,3.0792608695652173,1.7391304347826086,-1.0,-1.0,1.0,114.55714285714285,120.0,1,motorway,3,1,40.485142,-3.398643,0.793,115.2,D3,Normal,motor
166,116.5,40.48468,-3.399119,589.6,3,5,217.3,1.061,0,1,0,1.0,0.0063,9.999999999999991e-05,0.0049,-0.0021999999999999997,-0.0039000000000000007,0.0089,-1.5866,0.067,-1.1442,0.22930434782608697,-0.09843478260869566,3.0843043478260874,1.7826086956521738,-1.0,-1.0,1.0,116.0125,120.0,1,motorway,3,1,40.484909,-3.398889,0.569,116.5,D3,Normal,motor
168,117.3,40.484203,-3.399577,589.6,3,5,216.4,0.859,0,1,0,1.0,0.0005999999999999984,0.010100000000000001,-0.0092,-0.0045,0.0124,-0.009600000000000001,-1.5572,0.0306,-1.1602000000000001,-0.10925925925925925,-0.02788888888888889,3.1044814814814816,1.8148148148148149,-1.0,-1.0,1.0,117.38,120.0,1,motorway,3,1,40.48468,-3.399119,1.34,117.5,D3,Normal,motor
169,117.3,40.483967,-3.399805,589.0,3,5,217.1,0.746,0,1,0,1.0,-0.0186,0.019,-0.0058000000000000005,-0.0206,0.0188,-0.0081,-1.5451000000000001,0.0137,-1.1755,-0.1727391304347826,-0.013652173913043478,3.1017391304347828,1.7826086956521738,-1.0,-1.0,1.0,117.3,120.0,1,motorway,3,1,40.484203,-3.399577,1.274,117.3,D3,Normal,motor
171,116.4,40.483486,-3.400271,588.5,3,5,216.9,0.229,0,1,0,1.0,0.005900000000000001,-0.0095,0.0018000000000000002,-0.0009000000000000004,-0.007299999999999999,-0.0005000000000000002,-1.5393,0.0203,-1.1941,-0.09876923076923078,0.0043076923076923075,3.069230769230769,1.8076923076923077,32.76142857142857,0.8742857142857142,1.0,116.45714285714287,120.0,1,motorway,3,1,40.483734,-3.400033,1.117,116.4,D3,Normal,motor
173,115.9,40.483025,-3.400712,587.4,3,5,217.6,0.636,0,1,0,1.0,-0.008199999999999999,0.0025,0.0154,-0.0132,0.0032,0.0153,-1.5337999999999998,0.020999999999999998,-1.2109999999999999,-0.12315384615384616,-0.02623076923076923,3.111076923076923,1.8076923076923077,29.961428571428574,0.6528571428571429,1.0,115.94285714285715,120.0,1,motorway,3,1,40.483257,-3.400491,1.25,115.9,D3,Normal,motor
175,115.3,40.482567,-3.40116,586.3,3,5,216.7,0.861,0,1,0,1.0,0.0010000000000000005,-0.0351,-0.0004999999999999999,-0.001999999999999999,-0.0315,0.00019999999999999993,-1.5452,0.0132,-1.2227000000000001,-0.25258620689655176,-0.00896551724137931,3.1709310344827584,1.7586206896551724,36.325714285714284,0.9957142857142858,1.0,115.42857142857143,120.0,1,motorway,3,1,40.482796,-3.400935,1.011,115.3,D3,Normal,motor
177,115.4,40.482098,-3.4016,585.2,3,5,216.3,0.96,2,1,0,1.0,-0.016,0.0268,-0.008,-0.020200000000000003,0.0227,-0.0081,-1.5567,0.0343,-1.2157,-1.009,-0.07523076923076923,3.161192307692308,1.6153846153846154,-1.0,-1.0,0.5,115.3625,120.0,1,motorway,3,2,40.48233,-3.401383,1.273,115.4,D3,Normal,motor
179,114.3,40.481625,-3.402032,584.9,3,5,216.3,0.0,0,1,0,1.0,-0.0092,0.0191,-0.0094,-0.011699999999999999,0.0223,-0.0102,-1.5527,0.014799999999999999,-1.2349,0.0,0.0,3.1599999999999997,0.0,-1.0,-1.0,0.0,114.9,120.0,1,motorway,3,2,40.481861,-3.401816,1.01,114.3,D3,Normal,motor
181,114.8,40.481159,-3.402458,583.9,3,5,216.3,0.0,0,0,0,1.0,-0.007800000000000001,0.005499999999999999,-0.0087,-0.012199999999999999,0.0055,-0.008199999999999999,-1.5557,0.0085,-1.25,0.17629166666666665,0.0060416666666666665,3.160625,1.125,-1.0,-1.0,0.125,114.725,120.0,1,motorway,3,2,40.481396,-3.402246,1.259,114.8,D3,Normal,motor
183,113.4,40.480698,-3.402902,583.9,3,5,216.9,0.555,0,0,0,1.0,0.0039000000000000007,-0.0077,0.0041,-0.0005999999999999998,-0.0056,0.0027,-1.5622,-0.008799999999999999,-1.2681,-0.09966666666666667,-0.034458333333333334,3.1342916666666665,1.75,-1.0,-1.0,1.0,113.9,120.0,1,motorway,3,2,40.480934,-3.402673,1.12,113.4,D3,Normal,motor
185,114.7,40.480244,-3.40336,582.2,3,5,216.7,0.243,0,0,0,1.0,0.002300000000000001,-0.0070999999999999995,-0.013600000000000001,0.0028000000000000004,-0.0060999999999999995,-0.0125,-1.5535999999999999,-0.0033,-1.2809,-0.052199999999999996,0.0276,3.08392,1.76,-1.0,-1.0,0.0,114.175,120.0,1,motorway,3,2,40.480469,-3.40313,0.952,114.7,D3,Normal,motor
186,114.0,40.480019,-3.403586,585.6,3,5,217.1,0.405,0,0,0,1.0,-0.009,-0.0073999999999999995,-0.0018000000000000002,-0.006,-0.006,-0.0024999999999999996,-1.5388,-0.0057,-1.2888,-0.09416000000000001,0.01536,3.17572,1.68,-1.0,-1.0,0.0,114.3,120.0,1,motorway,3,2,40.480244,-3.40336,1.07,114.0,D3,Normal,motor
188,112.4,40.479565,-3.404036,581.8,3,5,217.5,0.404,0,0,0,1.0,-0.011699999999999999,0.028000000000000004,0.0007000000000000001,-0.016900000000000002,0.030199999999999998,0.00010000000000000009,-1.5439,-0.018099999999999998,-1.3149000000000002,-0.08553846153846155,-0.037038461538461534,3.1921923076923076,1.7692307692307692,-1.0,-1.0,1.5714285714285714,112.52857142857144,120.0,1,motorway,3,2,40.47979,-3.403812,1.046,112.4,D3,Normal,motor
190,112.4,40.479141,-3.40449,580.3,3,5,221.1,3.66,0,0,0,1.0,-0.016888888888888887,0.01577777777777778,0.012222222222222223,-0.016,0.012888888888888889,0.011333333333333334,-1.5537777777777777,-0.029777777777777778,-1.3493333333333333,-0.31645833333333334,0.022166666666666668,3.1802083333333333,1.6666666666666667,-1.0,-1.0,2.0,112.7,120.0,1,motorway,3,2,40.479355,-3.404256,1.054,112.4,D3,Normal,motor
193,114.0,40.478508,-3.40524,580.7,4,5,223.2,1.751,0,0,0,1.0,-0.016499999999999997,-0.0177,-0.006900000000000001,-0.0086,-0.0174,-0.0046,-1.569,-0.0368,-1.4041000000000001,0.07548,0.05416000000000001,3.09808,1.64,-1.0,-1.0,1.0,113.65714285714286,120.0,1,motorway,3,2,40.47892,-3.404741,1.356,113.2,D3,Normal,motor
194,114.6,40.478302,-3.4055,580.7,3,5,223.6,2.152,0,0,0,1.0,0.0013999999999999991,-0.0014999999999999996,0.0064,-0.0030000000000000005,-0.0025000000000000005,0.0036999999999999997,-1.5637,-0.0257,-1.4123999999999999,0.2127391304347826,-0.014608695652173913,3.0756521739130434,1.7826086956521738,15.84,0.08285714285714287,1.7142857142857142,114.34285714285714,120.0,1,motorway,3,2,40.478508,-3.405241,1.024,114.6,D3,Normal,motor
196,114.5,40.477901,-3.40603,580.2,3,5,225.4,1.758,0,0,0,1.0,-0.0055000000000000005,0.013500000000000002,-0.003,-0.004200000000000001,0.0127,-0.0019,-1.5706,-0.0324,-1.4329,0.1596,-0.05824,3.1250400000000003,1.76,31.961428571428574,1.0042857142857142,1.0,114.5,120.0,1,motorway,3,2,40.478104,-3.405761,0.766,114.5,D3,Normal,motor
197,115.6,40.477695,-3.406302,580.0,3,5,226.4,2.109,0,0,0,1.0,-0.0011,0.0051,0.0014999999999999998,-0.0036999999999999997,0.002,0.0010999999999999998,-1.5661,-0.0383,-1.4437000000000002,0.04795652173913043,-0.029304347826086957,3.141652173913043,1.7391304347826086,35.419999999999995,1.1066666666666667,1.0,115.23333333333333,120.0,1,motorway,3,2,40.477901,-3.406031,1.163,115.6,D3,Normal,motor
200,116.5,40.477104,-3.407136,578.2,3,5,229.2,2.461,0,0,0,1.0,-0.027800000000000002,0.0026000000000000003,-0.006,-0.027200000000000002,0.0033,-0.0071,-1.5715,-0.0333,-1.4670999999999998,-0.12211538461538461,-0.0013846153846153845,3.1613846153846152,1.7307692307692308,46.872,1.45,1.0,116.3,120.0,1,motorway,3,2,40.477493,-3.406576,1.571,116.5,D3,Normal,motor
201,116.6,40.476917,-3.407426,578.2,3,5,229.9,1.758,0,0,0,1.0,-0.023,0.0029,-0.0077,-0.028000000000000004,0.0047,-0.0085,-1.577,-0.0455,-1.4712,-0.1527826086956522,0.028217391304347826,3.1625217391304346,1.9130434782608696,42.625,1.31625,1.75,116.5625,120.0,1,motorway,3,2,40.477104,-3.407137,1.13,116.6,D3,Normal,motor
204,116.7,40.476379,-3.408324,577.3,3,5,232.7,1.758,0,0,0,1.0,-0.0044,0.003,0.0050999999999999995,-0.004399999999999999,0.0041,0.0055,-1.5732,-0.0506,-1.4940000000000002,-0.05984615384615385,0.02007692307692308,3.125346153846154,1.7692307692307692,23.762857142857143,0.3157142857142857,1.0,116.87142857142858,120.0,1,motorway,3,2,40.476738,-3.407721,1.395,117.1,D3,Normal,motor
206,118.5,40.476036,-3.408958,581.5,3,5,234.8,2.109,0,0,0,1.0,-0.0168,-0.0037000000000000006,-0.0179,-0.0162,-0.0049,-0.0167,-1.5727,-0.029199999999999997,-1.499,0.06344827586206896,0.09272413793103448,3.273034482758621,1.7586206896551724,-1.0,-1.0,1.0,118.41428571428571,120.0,1,motorway,3,2,40.476379,-3.408324,1.326,118.3,D3,Normal,motor
208,117.6,40.4757,-3.409602,578.5,3,5,236.6,1.758,0,0,0,1.0,-0.013300000000000001,0.0097,-0.0068000000000000005,-0.0194,0.0106,-0.0095,-1.559,-0.0382,-1.5068,0.278,-0.02696,3.13316,1.68,-1.0,-1.0,1.0,117.675,120.0,1,motorway,3,2,40.476036,-3.408958,1.794,117.6,D3,Normal,motor
210,115.5,40.475399,-3.410262,579.3,3,5,239.8,3.164,2,0,0,1.0,-0.012555555555555556,0.008555555555555556,-0.012333333333333333,-0.013,0.014555555555555556,-0.009777777777777778,-1.5538888888888889,-0.08022222222222222,-1.5404444444444443,0.90416,0.05196,3.1627199999999998,1.52,-1.0,-1.0,1.0,115.95,120.0,1,motorway,3,2,40.4757,-3.409603,1.417,116.7,D3,Normal,motor
211,115.0,40.475254,-3.410585,578.2,3,5,241.5,3.867,0,0,0,1.0,-0.009399999999999999,-0.055200000000000006,0.0004,-0.0097,-0.053200000000000004,-0.00019999999999999993,-1.5413000000000001,-0.0453,-1.5383,0.0,0.0,3.137,0.0,27.189999999999998,0.72875,1.0,115.1875,120.0,1,motorway,3,1,40.475399,-3.410262,1.263,115.0,D3,Normal,motor
214,113.3,40.47485,-3.411574,578.1,3,5,242.6,1.406,0,0,0,1.0,-0.007899999999999999,-0.0227,0.0047,-0.009699999999999999,-0.0179,0.0042,-1.5753,-0.0206,-1.5135999999999998,-0.35818181818181816,0.02759090909090909,2.9752727272727273,1.9090909090909092,24.4525,0.76875,1.0,114.275,120.0,1,motorway,3,1,40.475121,-3.410913,1.314,115.9,D3,Normal,motor
216,115.0,40.474586,-3.412241,579.1,3,5,242.6,0.352,0,0,0,1.0,-0.0055,-0.0027,0.014000000000000002,-0.0089,-0.004,0.0121,-1.5868,0.0081,-1.4827,-0.7699259259259259,-0.04381481481481481,3.107148148148148,1.1851851851851851,14.09142857142857,0.16571428571428573,1.0,114.8,120.0,1,motorway,3,1,40.47485,-3.411574,1.357,114.3,D3,Normal,motor
218,116.4,40.474323,-3.412924,579.8,3,5,244.0,1.406,0,0,0,1.0,-0.0386,0.0474,-0.005599999999999999,-0.0364,0.0466,-0.004399999999999999,-1.5926,-0.0487,-1.4936,0.16160869565217392,0.01978260869565217,3.155608695652174,0.9565217391304348,-1.0,-1.0,1.0,116.2875,120.0,1,motorway,3,2,40.474586,-3.412241,1.338,116.1,D3,Normal,motor
219,117.0,40.474205,-3.413271,580.6,3,5,246.1,2.812,0,0,0,1.0,-0.0313,0.0128,-0.0079,-0.0303,0.0161,-0.0064,-1.5955,-0.0486,-1.5076,0.15745833333333334,-0.024833333333333332,3.1011666666666664,1.7083333333333333,-1.0,-1.0,1.0,116.74285714285715,120.0,1,motorway,3,2,40.474323,-3.412925,0.635,117.0,D3,Normal,motor
220,117.6,40.474087,-3.413625,580.2,4,5,247.1,3.164,0,0,0,1.0,-0.0131,0.0179,-0.0112,-0.017599999999999998,0.017400000000000002,-0.0127,-1.6013000000000002,-0.048799999999999996,-1.5166,0.09854166666666665,-0.029375,3.1181666666666668,1.6666666666666667,-1.0,-1.0,1.0,117.42857142857143,120.0,1,motorway,3,2,40.474205,-3.413272,1.005,117.6,D3,Normal,motor
222,117.1,40.473877,-3.41435,581.4,3,5,250.0,2.812,0,0,0,1.0,-0.008700000000000001,-0.009600000000000001,-0.0055,-0.005599999999999999,-0.0044,-0.0054,-1.5806,-0.0612,-1.534,0.08954166666666667,0.020958333333333332,3.158291666666667,1.75,-1.0,-1.0,0.0,117.175,120.0,1,motorway,3,2,40.473976,-3.413985,0.808,117.1,D3,Normal,motor
223,115.9,40.473778,-3.414707,581.9,3,5,250.7,2.109,0,0,0,1.0,-0.010900000000000002,-0.0147,0.0029,-0.0128,-0.0176,0.0004,-1.5722999999999998,-0.0524,-1.534,0.11549999999999999,0.024624999999999998,3.157875,1.75,-1.0,-1.0,0.0,116.24285714285715,120.0,1,motorway,3,2,40.473877,-3.414351,1.133,115.9,D3,Normal,motor
226,117.0,40.473507,-3.415795,583.4,3,5,252.4,0.703,1,0,0,1.0,-0.0032,0.0059,-1.7347234759768072e-19,-0.0036,0.0036999999999999997,0.0008,-1.5647,0.0033,-1.5129,0.33591304347826084,0.009478260869565217,3.0982608695652174,1.7826086956521738,-1.0,-1.0,0.0,116.875,120.0,1,motorway,3,2,40.473686,-3.415068,1.395,116.5,D3,Normal,motor
227,116.6,40.473415,-3.41616,583.6,3,5,252.8,0.352,2,0,0,1.0,0.014900000000000002,0.0116,0.0047,0.0159,0.012,0.0043,-1.5514,-0.010100000000000001,-1.5078,0.7272272727272727,0.057545454545454545,3.1013636363636365,1.8181818181818181,-1.0,-1.0,0.0,116.71428571428571,120.0,1,motorway,3,2,40.473507,-3.415796,1.029,116.6,D3,Normal,motor
229,115.1,40.473251,-3.416878,584.1,3,5,253.5,0.703,0,1,0,1.0,0.005,-0.008499999999999999,-0.0006,0.0007000000000000003,-0.0058,-0.0006000000000000001,-1.553,0.0211,-1.4872,0.0,0.0,3.1245555555555558,0.0,-1.0,-1.0,0.0,115.2875,120.0,1,motorway,3,1,40.473331,-3.416522,1.076,115.1,D3,Normal,motor
231,114.9,40.473087,-3.417599,583.2,3,5,253.1,0.352,0,1,0,1.0,-0.0025,-0.004399999999999999,-0.0012999999999999997,-0.0011999999999999992,-0.004200000000000001,-0.0032999999999999995,-1.5559,0.040100000000000004,-1.4497,-0.01965,0.0513,3.0595,1.8,-1.0,-1.0,0.0,114.9,120.0,1,motorway,3,1,40.473171,-3.417239,0.717,114.9,D3,Normal,motor
232,117.1,40.473003,-3.417964,583.2,3,5,252.4,0.703,0,1,0,1.0,-0.0027,-0.013800000000000002,0.0006999999999999998,-0.0036999999999999997,-0.015099999999999999,0.0024000000000000002,-1.5589,0.0561,-1.4289,0.22376190476190475,0.02257142857142857,3.0365714285714285,1.8095238095238095,-1.0,-1.0,0.0,116.47142857142856,120.0,1,motorway,3,1,40.473087,-3.417599,0.945,117.1,D3,Normal,motor
233,114.4,40.472916,-3.418322,582.4,3,5,251.7,1.406,0,1,0,1.0,0.002999999999999999,0.023899999999999998,-0.0093,0.0043,0.020999999999999998,-0.008799999999999999,-1.5531,0.046599999999999996,-1.4131,0.16676190476190475,-0.037714285714285714,3.0433809523809523,1.9047619047619047,-1.0,-1.0,0.0,115.75,120.0,1,motorway,3,1,40.473003,-3.417964,1.04,114.4,D3,Normal,motor
235,113.6,40.472733,-3.419036,581.7,3,5,251.7,0.0,0,1,0,1.0,0.004100000000000001,0.0007999999999999998,-0.0081,0.007600000000000001,0.0012,-0.0077,-1.5481,0.027600000000000003,-1.4038,0.16275862068965516,-0.12,3.083448275862069,1.8620689655172413,-1.0,-1.0,0.0,113.53333333333335,120.0,1,motorway,3,1,40.472824,-3.418679,0.708,113.6,D3,Normal,motor
236,113.2,40.472645,-3.419393,581.6,3,5,251.7,0.0,0,1,0,1.0,-0.0029,-0.0055000000000000005,0.0048000000000000004,-0.0043,-0.003,0.0036000000000000003,-1.543,0.0243,-1.3981,0.23584615384615384,-0.14111538461538461,3.136923076923077,1.8076923076923077,-1.0,-1.0,0.0,113.37142857142858,120.0,1,motorway,3,1,40.472733,-3.419036,0.836,113.2,D3,Normal,motor
237,113.3,40.472553,-3.419742,581.1,3,5,252.1,0.352,0,0,0,1.0,-0.0032,-0.0053,-0.0024000000000000002,-0.0076,-0.0067,-0.0016,-1.5497,0.0377,-1.3915,0.30530434782608695,-0.18986956521739132,3.130608695652174,1.7391304347826086,-1.0,-1.0,0.0,113.2625,120.0,1,motorway,3,1,40.472645,-3.419394,0.98,113.3,D3,Normal,motor
238,113.0,40.472473,-3.420096,580.5,3,5,251.7,0.352,0,0,0,1.0,-0.0245,0.00039999999999999975,-0.009,-0.0187,0.0007000000000000001,-0.0086,-1.5562,0.0408,-1.3835,0.2970357142857143,-0.14457142857142857,3.0967857142857143,1.8214285714285714,-1.0,-1.0,0.0,113.08571428571429,120.0,1,motorway,3,1,40.472553,-3.419743,0.986,113.0,D3,Normal,motor
239,113.0,40.472378,-3.420448,579.7,3,5,251.4,0.703,0,0,0,1.0,-0.0314,-0.0026000000000000007,-0.007300000000000001,-0.029699999999999997,-0.0009000000000000001,-0.0058,-1.5618,0.040999999999999995,-1.3758,0.3671739130434783,-0.1443913043478261,3.0877826086956524,1.9130434782608696,-1.0,-1.0,0.0,113.0,120.0,1,motorway,3,1,40.472473,-3.420097,1.215,113.0,D3,Normal,motor
241,113.5,40.472202,-3.42115,578.8,3,5,251.0,0.352,0,0,0,1.0,-0.0155,0.0121,0.0009999999999999998,-0.010900000000000002,0.0156,0.0013,-1.5666,0.044,-1.3613000000000002,0.2672857142857143,-0.04925,3.207214285714286,1.8571428571428572,-1.0,-1.0,0.0,113.5,120.0,1,motorway,3,1,40.472282,-3.420797,0.856,113.5,D3,Normal,motor
