t_sec,speed_kmh,lat,lon,alt,vert_acc,horiz_acc,course,difcourse,hdop,vdop,pdop,active,acc_x,acc_y,acc_z,acc_x_kf,acc_y_kf,acc_z_kf,roll,pitch,yaw,x_lane,phi,road_width,lane_state,dist_front,ttc_front,num_vehicles,gps_speed,max_speed,speed_rel,road_type_osm,num_lanes,lane_id,lat_osm,lon_osm,osm_delay,gps_speed_osm,driver,behavior,road_type
25,106.4,40.505718,-3.362981,608.9,3,5,256.3,2.812,0,0,0,1.0,0.0029,-0.0007000000000000003,-0.014299999999999998,9.99999999999994e-05,0.0016,-0.012199999999999999,-1.58,0.013600000000000001,0.3859,-0.0713103448275862,0.04403448275862069,3.2198275862068964,1.9310344827586208,-1.0,-1.0,1.0,106.25,70.0,1,motorway_link,2,1,40.505844,-3.362299,1.215,106.4,D4,Aggressive,motor
26,107.2,40.50565,-3.363317,609.5,3,5,254.5,3.164,0,0,0,1.0,-0.0103,-0.0048000000000000004,-0.0125,-0.006699999999999999,-0.0045,-0.014299999999999998,-1.5732,0.0247,0.39980000000000004,-0.01568,0.01584,3.1932799999999997,1.84,-1.0,-1.0,1.0,107.0,70.0,1,motorway_link,2,1,40.505718,-3.362982,0.704,107.2,D4,Aggressive,motor
27,107.0,40.505566,-3.363649,610.0,3,5,252.8,3.516,0,0,0,1.0,0.0007777777777777785,-0.010333333333333335,-0.011333333333333334,-0.004333333333333334,-0.011111111111111112,-0.010444444444444444,-1.576,0.03177777777777778,0.4155555555555555,-0.013458333333333334,0.025374999999999998,3.2589166666666665,1.75,-1.0,-1.0,1.0,107.05,70.0,1,motorway_link,2,1,40.50565,-3.363318,1.059,107.0,D4,Aggressive,motor
29,107.5,40.505375,-3.364311,610.6,3,5,248.9,3.867,0,0,0,1.0,0.0006999999999999999,0.0029000000000000002,-0.0139,-0.0012999999999999997,0.0016,-0.0153,-1.5621,0.0172,0.4323,-0.1628,0.017150000000000002,3.2292499999999995,1.85,-1.0,-1.0,1.0,107.475,70.0,2,motorway_link,2,1,40.505478,-3.36398,0.878,107.5,D4,Aggressive,motor
30,107.3,40.505276,-3.364635,610.9,3,5,247.1,3.516,0,0,0,1.0,0.0038000000000000004,-0.006499999999999999,0.0017999999999999995,0.0012,-0.0066,0.0036,-1.5635999999999999,0.0165,0.4386,-0.22232,0.02628,3.24168,1.84,-1.0,-1.0,1.0,107.35,70.0,1,motorway_link,2,1,40.505375,-3.364311,0.625,107.3,D4,Aggressive,motor
31,107.4,40.505165,-3.364953,610.8,3,5,245.7,3.164,0,0,0,1.0,-0.011600000000000001,0.0062,-0.0329,-0.0127,0.0075,-0.031,-1.5586,0.0153,0.4417,-0.26176190476190475,0.05738095238095239,3.2119999999999997,1.8571428571428572,-1.0,-1.0,1.0,107.36666666666667,120.0,1,motorway,3,1,40.505276,-3.364635,0.88,107.4,D4,Aggressive,motor
33,106.1,40.504921,-3.365576,610.7,3,5,242.2,3.516,0,0,0,1.0,0.005299999999999999,-0.00010000000000000009,-0.0199,0.0013999999999999998,0.002,-0.0215,-1.5124,0.013300000000000001,0.44749999999999995,-0.1831111111111111,0.064,3.267,1.8888888888888888,115.645,3.9125,1.0,106.375,120.0,1,motorway,3,1,40.505165,-3.364954,1.514,106.1,D4,Aggressive,motor
35,103.5,40.504658,-3.366166,612.1,3,5,239.1,3.164,0,0,0,1.0,-0.0006999999999999999,0.0313,0.039,-0.0015,0.033100000000000004,0.0432,-1.5452,0.0257,0.4337,-0.04,0.03604,3.196,1.88,99.0775,3.44,1.0,103.7,120.0,1,motorway,3,1,40.504921,-3.365576,1.494,103.5,D4,Aggressive,motor
36,104.7,40.504517,-3.366455,611.2,3,5,238.4,2.461,0,0,0,1.0,-0.014500000000000002,0.013800000000000002,-0.0209,-0.010100000000000001,0.013300000000000001,-0.0144,-1.5603,0.036,0.41950000000000004,0.03791666666666667,0.04170833333333334,3.2152499999999997,1.9166666666666667,86.39,2.982,1.0,104.22,120.0,1,motorway,3,1,40.504658,-3.366166,0.769,104.7,D4,Aggressive,motor
38,105.2,40.504238,-3.367029,609.9,3,5,237.3,1.055,0,0,0,1.0,-0.00019999999999999993,0.0256,0.0204,-0.0032,0.0249,0.020499999999999997,-1.5627,0.0228,0.3789,0.18155555555555555,0.03988888888888889,3.2607037037037037,1.9259259259259258,79.18,2.7100000000000004,2.0,105.16666666666667,120.0,1,motorway,3,1,40.504517,-3.366455,1.117,105.1,D4,Aggressive,motor
39,104.8,40.504097,-3.367315,607.2,3,5,237.3,0.703,0,0,0,1.0,-0.010499999999999999,-0.0076,0.0071,-0.0093,-0.0052,0.0129,-1.5694000000000001,0.0089,0.3553,0.2283913043478261,-0.009695652173913044,3.2728260869565218,1.9565217391304348,67.4375,2.3125,2.0,104.9,120.0,1,motorway,3,1,40.504238,-3.36703,0.811,104.8,D4,Aggressive,motor
40,106.7,40.503952,-3.367609,605.9,3,5,237.3,0.0,0,0,0,1.0,0.005700000000000002,-0.0158,-0.028699999999999996,0.0024000000000000002,-0.0103,-0.0305,-1.562,-0.0068000000000000005,0.3315,0.21707407407407406,0.012555555555555554,3.259592592592593,1.8148148148148149,57.66,1.96,1.3333333333333333,106.06666666666666,120.0,1,motorway,3,1,40.504097,-3.367315,0.529,106.7,D4,Aggressive,motor
42,107.7,40.503807,-3.367906,605.3,3,5,237.3,0.0,0,0,0,1.0,0.019899999999999998,-0.005299999999999999,-0.014099999999999998,0.0159,-0.0052,-0.0126,-1.5731,0.0083,0.2914,0.2906153846153846,0.010807692307692308,3.1028076923076924,1.8846153846153846,41.974999999999994,1.385,2.0,109.125,120.0,1,motorway,3,1,40.503807,-3.367907,0.59,109.6,D4,Aggressive,motor
42,109.6,40.503662,-3.368212,605.0,3,5,237.0,0.352,0,0,0,1.0,0.019899999999999998,-0.005299999999999999,-0.014099999999999998,0.0159,-0.0052,-0.0126,-1.5731,0.0083,0.2914,0.2906153846153846,0.010807692307692308,3.1028076923076924,1.8846153846153846,41.974999999999994,1.385,2.0,109.125,120.0,1,motorway,3,1,40.503807,-3.367907,0.59,109.6,D4,Aggressive,motor
43,109.4,40.503513,-3.368512,605.2,3,5,237.3,0.352,0,0,0,1.0,-0.028199999999999996,-0.0077,0.0033999999999999994,-0.0236,-0.0036,0.005,-1.5775000000000001,0.0075,0.27390000000000003,0.37427999999999995,-0.01736,3.23784,1.88,36.4,1.1966666666666665,2.0,109.46666666666665,120.0,1,motorway,3,1,40.503662,-3.368212,0.623,109.4,D4,Aggressive,motor
44,110.7,40.503365,-3.368829,604.2,3,5,237.3,0.352,0,0,0,1.0,-0.0248,-0.0196,-0.0693,-0.0279,-0.0231,-0.0671,-1.5591,0.024,0.26080000000000003,0.37129166666666663,-0.0205,3.2614583333333336,1.75,29.495,0.9625,2.0,110.375,120.0,1,motorway,3,1,40.503513,-3.368513,0.561,110.7,D4,Aggressive,motor
45,109.2,40.503216,-3.369133,603.2,3,5,237.3,0.0,0,0,0,1.0,-0.017,0.0048000000000000004,-0.0348,-0.0155,0.0063,-0.0355,-1.5176,0.0155,0.2439,-0.07895238095238095,-0.08071428571428571,3.968,1.5238095238095237,22.2075,0.7275,2.0,109.575,120.0,1,motorway,3,1,40.503365,-3.368829,0.653,109.2,D4,Aggressive,motor
47,106.0,40.502926,-3.369728,601.8,3,5,237.0,0.352,0,0,0,1.0,-0.015,-0.0097,-0.11599999999999999,-0.016300000000000002,-0.008900000000000002,-0.1082,-1.4633,0.0099,0.2171,0.19366666666666668,0.051000000000000004,3.4924444444444442,1.9444444444444444,12.76,0.43333333333333335,2.0,106.46666666666665,120.0,1,motorway,3,1,40.503216,-3.369134,1.51,106.0,D4,Aggressive,motor
48,100.1,40.502781,-3.370012,601.4,3,5,237.3,0.352,0,0,0,1.0,-0.014799999999999999,-0.0027,0.0499,-0.0063,-0.0031,0.0317,-1.4303000000000001,0.0064,0.20550000000000002,0.19392592592592592,0.007740740740740741,3.4210370370370367,2.0,10.836666666666666,0.37666666666666665,2.0,104.03333333333335,120.0,1,motorway,3,1,40.502926,-3.369728,1.038,100.1,D4,Aggressive,motor
50,98.7,40.502525,-3.370551,600.9,3,5,237.3,0.0,0,0,0,1.0,-0.0264,-0.0191,0.046200000000000005,-0.016599999999999997,-0.0161,0.0492,-1.5408,0.0079,0.18719999999999998,0.15958333333333333,-0.0060416666666666665,3.217625,1.8333333333333333,9.09,0.3333333333333333,4.0,97.86666666666667,120.0,1,motorway,3,1,40.502651,-3.370281,0.565,98.7,D4,Aggressive,motor
51,99.6,40.502392,-3.370818,600.9,4,5,237.3,0.0,0,0,0,1.0,-0.0063,-0.0079,-0.0172,-0.0091,-0.0089,-0.0107,-1.5659,0.0167,0.18309999999999998,0.15477272727272726,0.018500000000000003,3.275227272727273,1.8636363636363635,8.7325,0.315,4.0,99.375,120.0,1,motorway,3,1,40.502525,-3.370551,0.683,99.6,D4,Aggressive,motor
52,100.4,40.502262,-3.371092,601.0,4,5,237.0,0.352,0,0,0,1.0,-0.0086,-0.016599999999999997,-0.006899999999999998,-0.0086,-0.0157,-0.011699999999999999,-1.5565,0.029699999999999997,0.1859,0.015777777777777776,-0.03103703703703704,3.2626666666666666,1.7407407407407407,8.116666666666667,0.29333333333333333,4.0,100.13333333333333,120.0,1,motorway,3,1,40.502392,-3.370818,0.518,100.4,D4,Aggressive,motor
54,101.3,40.502117,-3.371366,601.4,4,5,236.6,0.703,1,0,0,1.0,-0.0111,0.0206,0.0106,-0.0099,0.019200000000000002,0.0103,-1.5817,0.0353,0.20350000000000001,-0.7836666666666666,-0.052083333333333336,3.468083333333333,1.1666666666666667,-1.0,-1.0,3.25,102.125,120.0,1,motorway,3,1,40.502262,-3.371092,1.19,102.4,D4,Aggressive,motor
54,102.4,40.50198,-3.371644,600.6,4,5,235.2,1.758,0,0,0,1.0,-0.0111,0.0206,0.0106,-0.0099,0.019200000000000002,0.0103,-1.5817,0.0353,0.20350000000000001,-0.7836666666666666,-0.052083333333333336,3.468083333333333,1.1666666666666667,-1.0,-1.0,3.25,102.125,120.0,1,motorway,3,1,40.502262,-3.371092,1.19,102.4,D4,Aggressive,motor
55,104.0,40.501827,-3.371927,600.4,3,5,235.2,1.406,0,0,0,1.0,-0.002300000000000001,0.0506,0.0081,0.0018000000000000002,0.056299999999999996,0.0073999999999999995,-1.5862,-0.0019999999999999996,0.1855,0.01496,0.0032,3.785,0.4,53.265,1.8525,2.25,103.6,120.0,1,motorway,3,2,40.50198,-3.371644,0.694,104.0,D4,Aggressive,motor
56,104.9,40.501686,-3.372201,600.7,3,5,235.9,0.703,0,0,0,1.0,-0.01977777777777778,0.008777777777777778,-0.001888888888888889,-0.025333333333333333,0.006222222222222223,-0.0003333333333333333,-1.5882222222222222,-0.020666666666666667,0.167,0.26295833333333335,0.029833333333333333,3.3446666666666665,1.75,47.71,1.6400000000000001,2.0,104.67500000000001,120.0,1,motorway,3,2,40.501827,-3.371927,0.707,104.9,D4,Aggressive,motor
60,111.9,40.501091,-3.373388,601.1,3,5,237.0,0.0,0,0,0,1.0,-0.0177,-0.011899999999999999,-0.0033,-0.0209,-0.0112,-0.004200000000000001,-1.591,-0.0107,0.12930000000000003,-0.33869565217391306,0.03252173913043478,3.3681739130434782,1.7391304347826086,30.865000000000002,0.5075,1.0,111.2,120.0,1,motorway,3,2,40.501392,-3.37278,1.23,111.9,D4,Aggressive,motor
61,113.1,40.500938,-3.373698,600.1,3,5,237.3,0.352,0,0,0,1.0,-0.008666666666666668,-0.004222222222222221,-0.01111111111111111,-0.005888888888888889,-0.007,-0.008222222222222221,-1.5848888888888888,0.011000000000000001,0.12622222222222224,-0.254,0.03804545454545454,3.3546363636363634,1.8636363636363635,31.2775,0.5125,0.75,112.8,120.0,1,motorway,3,2,40.501091,-3.373389,0.832,113.1,D4,Aggressive,motor
63,116.9,40.500629,-3.374323,603.9,3,5,237.3,0.352,0,0,0,1.0,-0.0107,-0.008,0.009,-0.011699999999999999,-0.007000000000000001,0.0081,-1.5825,0.0070999999999999995,0.126,-0.22033333333333333,0.04925925925925926,3.339074074074074,1.8518518518518519,-1.0,-1.0,0.0,116.03333333333335,120.0,1,motorway,3,2,40.500938,-3.373698,1.364,116.9,D4,Aggressive,motor
65,117.3,40.500465,-3.374644,602.7,3,5,237.3,0.352,0,0,0,1.0,0.009500000000000001,-0.0006000000000000001,0.0009000000000000001,0.009999999999999998,-0.0021000000000000003,0.0015,-1.5895,0.0137,0.1268,-0.14174074074074075,0.04822222222222222,3.3464814814814816,1.7037037037037037,-1.0,-1.0,0.0,118.25,120.0,1,motorway,3,2,40.500629,-3.374323,1.616,119.2,D4,Aggressive,motor
65,119.2,40.500305,-3.374967,601.2,3,5,237.0,0.352,0,0,0,1.0,0.009500000000000001,-0.0006000000000000001,0.0009000000000000001,0.009999999999999998,-0.0021000000000000003,0.0015,-1.5895,0.0137,0.1268,-0.14174074074074075,0.04822222222222222,3.3464814814814816,1.7037037037037037,-1.0,-1.0,0.0,118.25,120.0,1,motorway,3,2,40.500629,-3.374323,1.616,119.2,D4,Aggressive,motor
67,120.0,40.499962,-3.375629,600.5,3,5,237.0,0.352,0,0,0,1.0,-0.0032222222222222222,-0.004555555555555557,-0.021333333333333333,-0.004555555555555556,-0.006888888888888889,-0.02388888888888889,-1.5684444444444443,0.006888888888888889,0.12711111111111112,0.05621739130434782,0.06204347826086957,3.3318695652173913,1.8695652173913044,-1.0,-1.0,0.0,120.13333333333333,120.0,1,motorway,3,2,40.500305,-3.374968,1.322,120.0,D4,Aggressive,motor
72,120.2,40.499134,-3.37726,599.5,3,5,236.2,0.0,0,0,0,1.0,-0.0052,-0.0060999999999999995,0.0254,-0.009600000000000001,-0.0018,0.0216,-1.5440999999999998,-0.0029,0.12589999999999998,-0.04904761904761905,-0.03419047619047619,2.574190476190476,1.5714285714285714,-1.0,-1.0,1.0,120.4,120.0,1,motorway,3,2,40.499466,-3.376614,1.785,120.2,D4,Aggressive,motor
75,122.9,40.498634,-3.378242,598.4,3,5,236.2,0.0,0,0,0,1.0,0.008,0.0009,0.012,0.0055,0.0002,0.013499999999999998,-1.5519,0.0006000000000000001,0.1183,0.2172,-0.02395,3.39755,1.7,16.2625,0.4775,1.0,122.7,120.0,1,motorway,3,2,40.499134,-3.377261,2.665,122.9,D4,Aggressive,motor
77,123.2,40.498295,-3.378912,598.4,3,5,236.2,0.352,0,0,0,1.0,-0.005,-0.0006999999999999996,0.015,-0.0062,-0.0024000000000000002,0.0173,-1.56,0.0087,0.11949999999999998,0.3282083333333333,-0.016208333333333335,3.3483750000000003,1.75,17.096666666666668,0.5,1.0,122.8,120.0,1,motorway,3,2,40.498634,-3.378242,1.6,123.2,D4,Aggressive,motor
82,124.5,40.497437,-3.380583,597.4,3,5,236.2,0.352,0,0,0,1.0,0.0044,0.007000000000000001,0.0034999999999999996,0.0031,0.0046,0.0046,-1.5862,0.0159,0.118,0.326,-0.02044,3.2695600000000002,1.72,18.666666666666668,0.54,1.0,124.23333333333333,120.0,1,motorway,3,2,40.497952,-3.379586,2.422,124.5,D4,Aggressive,motor
93,120.3,40.49551,-3.384234,596.4,3,5,232.7,1.406,0,0,0,1.0,0.010799999999999999,0.011,0.0218,0.008,0.0142,0.0252,-1.5638,0.0026,0.1514,-0.20779166666666668,-0.02291666666666667,3.283,1.8333333333333333,33.07,0.9866666666666667,1.6666666666666667,120.7,120.0,1,motorway,3,2,40.497437,-3.380584,10.269,120.3,D4,Aggressive,motor
94,119.5,40.495331,-3.384549,596.4,3,5,233.1,0.352,0,0,0,1.0,-0.011699999999999999,0.00010000000000000009,0.0112,-0.0064,0.00039999999999999975,0.0128,-1.5732,0.0104,0.1476,-0.1491875,0.035312500000000004,3.3238125,1.75,29.346666666666664,0.8833333333333333,2.0,119.76666666666667,120.0,1,motorway,3,2,40.49551,-3.384234,0.839,119.5,D4,Aggressive,motor
95,123.4,40.495144,-3.384859,596.2,3,5,233.1,0.352,0,0,0,1.0,0.013600000000000001,-0.0337,-0.0194,0.0161,-0.032600000000000004,-0.0167,-1.5803,0.0229,0.1497,-0.017333333333333333,0.051777777777777784,3.328777777777778,1.7222222222222223,26.080000000000002,0.77,2.0,122.10000000000001,120.0,1,motorway,3,2,40.495331,-3.384549,0.849,123.4,D4,Aggressive,motor
96,123.8,40.494961,-3.385178,596.5,3,5,232.4,0.703,0,0,0,1.0,-0.010111111111111112,-0.020777777777777777,-0.05233333333333333,-0.01911111111111111,-0.022555555555555558,-0.050444444444444445,-1.556888888888889,0.02722222222222222,0.15566666666666668,0.20109523809523808,0.05657142857142857,3.394857142857143,1.7619047619047619,24.206666666666667,0.7066666666666667,2.0,123.66666666666667,120.0,1,motorway,3,2,40.495144,-3.384859,0.794,123.8,D4,Aggressive,motor
97,122.9,40.49477,-3.3855,597.2,3,5,232.0,1.055,0,0,0,1.0,-0.001444444444444445,0.008888888888888889,-0.03166666666666667,0.001,0.006333333333333333,-0.03155555555555556,-1.5437777777777777,0.04666666666666666,0.15866666666666665,0.14950000000000002,-0.02185,3.11445,1.4,22.035,0.645,2.0,122.9,120.0,1,motorway,3,2,40.494961,-3.385179,0.494,122.9,D4,Aggressive,motor
99,120.2,40.494385,-3.386123,596.4,3,5,231.0,1.055,0,0,0,1.0,-0.005999999999999999,0.004,0.020399999999999998,-0.008799999999999999,0.0057,0.0132,-1.5481,0.0402,0.1565,0.17607142857142857,-0.0059642857142857145,3.4155,1.7857142857142858,19.286666666666665,0.5733333333333334,2.0,120.86666666666667,120.0,1,motorway,3,2,40.49477,-3.3855,1.198,120.2,D4,Aggressive,motor
101,121.3,40.493996,-3.38675,596.3,4,5,230.3,0.703,0,0,0,1.0,-0.010777777777777778,0.010444444444444444,-0.036000000000000004,-0.0018888888888888883,0.006,-0.03188888888888889,-1.5721111111111112,0.035666666666666666,0.15633333333333332,-0.014434782608695651,-0.010304347826086956,3.5124782608695653,1.7391304347826086,16.256666666666664,0.48333333333333334,2.0,121.13333333333333,120.0,1,motorway,3,2,40.494385,-3.386124,1.452,121.3,D4,Aggressive,motor
102,120.5,40.493793,-3.387067,596.0,4,5,229.9,0.352,0,0,0,1.0,0.006699999999999999,0.02,-0.0288,0.0007999999999999997,0.0241,-0.0328,-1.5501,0.033,0.1492,-0.16470833333333332,-0.035791666666666666,3.5625,1.7083333333333333,15.6,0.46499999999999997,2.0,120.7,120.0,1,motorway,3,2,40.493996,-3.38675,0.792,120.5,D4,Aggressive,motor
103,119.7,40.493599,-3.387372,595.9,4,5,229.6,0.703,0,0,0,1.0,-0.0009000000000000008,0.0025999999999999994,-0.0098,-0.0031,0.0024000000000000002,-0.0131,-1.5284,0.0301,0.14529999999999998,-0.18150000000000002,-0.009153846153846155,3.6079615384615384,1.7692307692307692,14.87,0.45,2.0,119.96666666666665,120.0,1,motorway,3,2,40.493793,-3.387068,0.915,119.7,D4,Aggressive,motor
104,118.4,40.493408,-3.387681,595.8,4,5,229.2,0.703,0,0,0,1.0,-0.0123,0.011199999999999998,0.0102,-0.0079,0.0068000000000000005,0.0063,-1.5219,0.035100000000000006,0.1426,-0.22428,0.0206,3.4042399999999997,1.72,14.660000000000002,0.44333333333333336,2.0,118.83333333333333,120.0,1,motorway,3,2,40.493599,-3.387372,0.555,118.4,D4,Aggressive,motor
105,116.4,40.493214,-3.387965,595.2,4,5,229.2,0.352,0,0,0,1.0,-0.012,0.013600000000000001,0.051000000000000004,-0.0149,0.0158,0.053200000000000004,-1.536,0.0318,0.1383,-0.16647619047619047,0.018666666666666668,3.2501904761904763,1.8095238095238095,14.6975,0.4525,1.75,116.9,120.0,1,motorway,3,2,40.493408,-3.387681,0.575,116.4,D4,Aggressive,motor
106,119.3,40.493011,-3.388273,595.3,4,5,228.9,0.352,0,0,0,1.0,0.0017999999999999995,0.014499999999999999,0.0311,0.00040000000000000105,0.0164,0.027500000000000004,-1.5556,0.029200000000000004,0.134,0.019157894736842106,0.06142105263157895,3.2951578947368425,1.6842105263157894,9.743333333333334,-0.02666666666666669,1.0,118.33333333333333,120.0,1,motorway,3,2,40.493214,-3.387966,0.489,119.3,D4,Aggressive,motor
107,120.7,40.492817,-3.388578,595.5,4,5,229.2,0.352,0,0,0,1.0,-0.0014444444444444446,-0.00488888888888889,0.006888888888888889,0.0028888888888888888,-0.0022222222222222227,0.012,-1.5776666666666666,0.034555555555555555,0.13411111111111113,0.1562608695652174,0.09378260869565218,3.229260869565217,1.7391304347826086,-1.0,-1.0,1.0,120.7,120.0,1,motorway,3,2,40.493011,-3.388274,0.399,120.7,D4,Aggressive,motor
108,122.3,40.492619,-3.388892,595.8,4,5,228.2,1.055,0,0,0,1.0,-0.016399999999999998,-0.0102,0.011300000000000001,-0.021,-0.0129,0.010199999999999999,-1.5766,0.0386,0.1363,0.09242307692307693,0.04953846153846154,2.7768461538461535,1.7307692307692308,-1.0,-1.0,1.0,121.76666666666667,120.0,1,motorway,3,2,40.492817,-3.388578,0.494,122.3,D4,Aggressive,motor
109,123.5,40.492416,-3.389185,595.2,4,5,227.5,1.758,0,0,0,1.0,-0.011699999999999999,-0.0032,-0.0007000000000000004,-0.0054,-0.0036000000000000003,0.00020000000000000052,-1.5734,0.0435,0.13970000000000002,0.45985185185185184,0.0517037037037037,3.125296296296296,1.7777777777777777,-1.0,-1.0,1.0,123.10000000000001,120.0,1,motorway,3,2,40.492619,-3.388892,0.955,123.5,D4,Aggressive,motor
110,124.2,40.492203,-3.389492,595.2,4,5,226.8,1.406,0,0,0,1.0,-0.0027,-0.0047,-0.0047,-0.0040999999999999995,-0.0049,-0.0035000000000000005,-1.5784,0.0435,0.14150000000000001,0.423375,0.014916666666666667,3.26425,1.875,-1.0,-1.0,1.0,123.85,120.0,1,motorway,3,2,40.492416,-3.389185,0.368,124.2,D4,Aggressive,motor
111,125.3,40.491985,-3.389785,595.4,4,5,226.1,1.406,0,0,0,1.0,-0.013799999999999998,-0.0031,-0.0339,-0.0159,-0.0026,-0.034199999999999994,-1.5579,0.0314,0.1407,0.3535652173913043,-0.04543478260869565,3.3439565217391305,1.7826086956521738,-1.0,-1.0,1.0,124.93333333333334,120.0,1,motorway,3,2,40.492203,-3.389492,0.677,125.3,D4,Aggressive,motor
112,124.7,40.491772,-3.390083,595.0,4,5,226.1,0.703,0,0,0,1.0,-0.0125,-0.0010999999999999998,-0.0205,-0.013300000000000001,-0.0021999999999999997,-0.0216,-1.5356,0.0269,0.13720000000000002,0.21777777777777776,-0.1225925925925926,3.4002962962962964,1.8148148148148149,-1.0,-1.0,1.0,124.89999999999999,120.0,1,motorway,3,2,40.491985,-3.389785,0.61,124.7,D4,Aggressive,motor
113,123.1,40.491554,-3.390381,594.8,4,5,225.7,0.352,0,0,0,1.0,-0.0032,0.0125,-0.033699999999999994,-0.0023,0.0121,-0.0324,-1.516,0.0152,0.13010000000000002,0.03476,-0.09464,3.42708,1.84,-1.0,-1.0,1.0,123.63333333333333,120.0,1,motorway,3,2,40.491772,-3.390084,0.756,123.1,D4,Aggressive,motor
115,119.8,40.491127,-3.390936,594.3,3,5,225.7,0.0,0,0,0,1.0,-0.013500000000000002,-0.0132,-0.0024,-0.011300000000000001,-0.013500000000000002,-0.0047,-1.501,0.0002,0.11100000000000002,-0.22265384615384615,-0.045653846153846156,3.4614230769230767,1.8461538461538463,-1.0,-1.0,1.0,120.86666666666667,120.0,1,motorway,3,2,40.491554,-3.390382,1.383,119.8,D4,Aggressive,motor
116,117.8,40.490917,-3.39121,593.7,4,5,226.1,0.352,0,0,0,1.0,-0.0103,-0.0009000000000000001,-0.0048000000000000004,-0.0125,-0.0008,-0.0031999999999999993,-1.5008,-0.001,0.1046,-0.34349999999999997,0.0057083333333333335,3.421291666666667,1.7916666666666667,49.25,0.7775000000000001,1.25,118.8,120.0,1,motorway,3,2,40.491127,-3.390936,0.627,117.8,D4,Aggressive,motor
118,116.9,40.490711,-3.391492,594.7,4,5,226.1,0.352,0,0,0,1.0,-0.005600000000000001,-0.0040999999999999995,0.0323,-0.0057,-0.0028,0.0359,-1.5548,-0.0013000000000000002,0.0885,-0.36152,0.0362,3.2552,1.72,192.64666666666668,5.94,2.0,116.76666666666667,120.0,1,motorway,3,2,40.490711,-3.391493,0.878,116.7,D4,Aggressive,motor
118,116.7,40.490505,-3.391775,592.7,4,5,226.1,0.0,0,0,0,1.0,-0.005600000000000001,-0.0040999999999999995,0.0323,-0.0057,-0.0028,0.0359,-1.5548,-0.0013000000000000002,0.0885,-0.36152,0.0362,3.2552,1.72,192.64666666666668,5.94,2.0,116.76666666666667,120.0,1,motorway,3,2,40.490711,-3.391493,0.878,116.7,D4,Aggressive,motor
120,118.4,40.490086,-3.392341,592.9,4,5,226.1,0.0,0,0,0,1.0,-0.0205,-0.0064,-0.041299999999999996,-0.015100000000000002,-0.005,-0.0437,-1.5369,0.0057,0.0799,-0.32534782608695656,0.04630434782608695,3.328304347826087,1.6956521739130435,178.58,5.433333333333334,2.0,118.33333333333333,120.0,1,motorway,3,2,40.490505,-3.391775,1.196,118.4,D4,Aggressive,motor
121,117.0,40.48988,-3.392621,592.6,3,5,226.1,0.0,0,0,0,1.0,-0.0092,0.0010999999999999998,-0.0248,-0.0125,0.0018000000000000002,-0.0246,-1.5138,0.0004,0.0767,-0.39515999999999996,0.0338,3.38964,1.84,164.32000000000002,5.033333333333333,2.0,117.46666666666665,120.0,1,motorway,3,2,40.490086,-3.392341,0.837,117.0,D4,Aggressive,motor
122,114.9,40.489677,-3.392897,591.9,3,5,226.1,0.0,0,0,0,1.0,-0.009199999999999998,-0.0338,-0.0076,-0.0098,-0.0338,-0.0086,-1.4963000000000002,0.0109,0.0803,-0.37572000000000005,0.03248,3.41924,1.76,147.35333333333332,4.59,2.0,115.60000000000001,120.0,1,motorway,3,2,40.48988,-3.392621,0.761,114.9,D4,Aggressive,motor
123,113.1,40.489475,-3.393165,592.1,3,5,225.4,0.703,2,0,0,1.0,-0.009,-0.0194,0.0312,-0.0078,-0.0196,0.028399999999999998,-1.503,0.028500000000000004,0.09330000000000001,-0.794625,-0.079625,3.465125,1.7916666666666667,134.31666666666666,4.23,2.3333333333333335,114.3,120.0,1,motorway,3,2,40.489677,-3.392897,0.718,113.1,D4,Aggressive,motor
126,110.1,40.48888,-3.393942,591.2,3,5,224.6,0.352,0,0,0,1.0,-0.0167,0.016999999999999998,0.0338,-0.0142,0.0157,0.0298,-1.525,-0.0086,0.0834,0.32210344827586207,0.0326896551724138,3.3029310344827585,1.8275862068965518,17.366666666666664,0.5666666666666667,1.0,110.59999999999998,120.0,1,motorway,3,3,40.489475,-3.393165,2.335,110.1,D4,Aggressive,motor
128,112.6,40.488491,-3.394462,590.9,3,5,226.1,1.406,0,0,0,1.0,-0.020700000000000003,-0.016,0.011899999999999999,-0.0198,-0.0167,0.0152,-1.5786,-0.0206,0.0635,-0.22309090909090906,-0.010954545454545455,3.203181818181818,1.7727272727272727,20.25,0.65,1.3333333333333333,112.09999999999998,120.0,1,motorway,3,3,40.48888,-3.393942,1.504,112.6,D4,Aggressive,motor
131,116.4,40.488091,-3.394993,591.8,3,5,226.1,0.0,0,0,0,1.0,-0.019999999999999997,-0.0205,0.0115,-0.0224,-0.0191,0.0066,-1.5937000000000001,-0.0087,0.052700000000000004,-0.17963157894736842,0.11168421052631579,3.1498421052631578,1.736842105263158,25.096666666666664,0.77,1.6666666666666667,117.40000000000002,120.0,1,motorway,3,3,40.488091,-3.394993,0.983,117.9,D4,Aggressive,motor
132,117.9,40.487877,-3.395261,591.6,3,5,226.1,0.0,0,0,0,1.0,-0.013999999999999999,-0.039900000000000005,0.0177,-0.0128,-0.0391,0.02,-1.6021,0.0223,0.063,0.01868,0.07236,3.18332,1.88,25.795,0.7825,1.0,118.6,120.0,1,motorway,3,3,40.487877,-3.395262,0.503,119.3,D4,Aggressive,motor
132,119.3,40.487671,-3.395543,591.7,3,5,226.1,0.0,0,0,0,1.0,-0.013999999999999999,-0.039900000000000005,0.0177,-0.0128,-0.0391,0.02,-1.6021,0.0223,0.063,0.01868,0.07236,3.18332,1.88,25.795,0.7825,1.0,118.6,120.0,1,motorway,3,3,40.487877,-3.395262,0.503,119.3,D4,Aggressive,motor
133,120.8,40.487457,-3.395822,589.2,3,5,225.0,1.055,0,0,0,1.0,0.0060999999999999995,0.00030000000000000035,-0.024399999999999998,0.0021000000000000003,-0.004200000000000001,-0.0178,-1.598,0.0469,0.0767,0.12689999999999999,0.013000000000000001,3.2009,1.8666666666666667,25.73,0.77,1.0,120.3,120.0,1,motorway,3,3,40.487671,-3.395543,0.941,120.8,D4,Aggressive,motor
135,123.3,40.487026,-3.396377,592.7,3,5,223.9,1.055,0,0,0,1.0,-0.013000000000000001,0.0016999999999999997,-0.0422,-0.0128,0.0048000000000000004,-0.0395,-1.5493999999999999,0.035699999999999996,0.0885,0.24709090909090908,0.027636363636363636,3.2283636363636363,1.7727272727272727,25.25,0.74,1.0,122.875,120.0,1,motorway,3,3,40.487247,-3.396102,0.604,123.3,D4,Aggressive,motor
136,123.3,40.487026,-3.396377,592.7,3,5,223.9,1.055,0,0,0,1.0,-0.0070999999999999995,0.0031999999999999993,-0.024399999999999998,-0.0067,-0.0021999999999999993,-0.0243,-1.5218,0.0355,0.0986,0.40815,0.0032500000000000003,3.3247500000000003,1.85,25.2725,0.7525,1.0,121.125,120.0,1,motorway,3,3,40.487026,-3.396377,0.591,120.4,D4,Aggressive,motor
136,120.4,40.486805,-3.396657,590.5,3,5,223.9,0.352,0,0,0,1.0,-0.0070999999999999995,0.0031999999999999993,-0.024399999999999998,-0.0067,-0.0021999999999999993,-0.0243,-1.5218,0.0355,0.0986,0.40815,0.0032500000000000003,3.3247500000000003,1.85,25.2725,0.7525,1.0,121.125,120.0,1,motorway,3,3,40.487026,-3.396377,0.591,120.4,D4,Aggressive,motor
137,118.5,40.486588,-3.396925,591.4,4,5,222.5,1.406,1,0,0,1.0,-0.024,0.019555555555555555,-0.014666666666666668,-0.019888888888888887,0.02033333333333333,-0.01877777777777778,-1.501111111111111,0.018777777777777775,0.09788888888888889,0.5924736842105263,0.033210526315789475,3.381368421052631,1.6842105263157894,24.814999999999998,0.75,1.0,118.5,120.0,1,motorway,3,3,40.486805,-3.396657,1.028,118.5,D4,Aggressive,motor
139,115.0,40.486149,-3.397464,591.2,4,5,222.5,0.0,0,1,0,1.0,-0.0165,-0.0273,-0.0016,-0.020999999999999998,-0.0251,-0.0049,-1.4898,0.0191,0.09559999999999999,0.20517241379310344,0.010379310344827586,3.3258275862068967,0.20689655172413793,12.85,-0.08500000000000002,1.0,115.425,120.0,1,motorway,3,2,40.48637,-3.397204,0.967,115.0,D4,Aggressive,motor
141,111.4,40.485729,-3.397952,590.6,4,5,220.8,1.758,0,1,0,1.0,-0.012666666666666666,-0.004888888888888889,0.03211111111111111,-0.007777777777777777,-0.009555555555555555,0.024777777777777777,-1.5014444444444444,0.063,0.13066666666666668,-0.18175000000000002,0.0293,3.3621499999999997,1.7,-1.0,-1.0,1.0,111.42,120.0,1,motorway,3,2,40.486149,-3.397464,1.294,111.4,D4,Aggressive,motor
142,109.8,40.485519,-3.398187,591.9,4,5,220.1,2.461,0,1,0,1.0,0.0098,0.0117,0.053200000000000004,0.004999999999999999,0.0111,0.057199999999999994,-1.5361,0.0538,0.1407,-0.036000000000000004,0.048499999999999995,3.1822307692307694,1.6923076923076923,16.2825,0.050000000000000044,1.0,110.2,120.0,1,motorway,3,2,40.485729,-3.397953,0.844,109.8,D4,Aggressive,motor
143,110.5,40.485306,-3.398412,591.3,4,5,219.0,1.758,0,1,0,1.0,-0.0045,0.0043,0.0253,-0.005399999999999999,0.0035000000000000005,0.0261,-1.56,0.0513,0.1526,0.1880952380952381,0.021095238095238094,3.1500000000000004,1.7619047619047619,35.255,1.15,1.0,110.325,120.0,1,motorway,3,2,40.485519,-3.398187,0.911,110.5,D4,Aggressive,motor
144,112.8,40.485092,-3.398635,592.3,4,5,219.0,1.055,0,1,0,1.0,-0.0177,0.0030000000000000005,0.016300000000000002,-0.0152,0.0060999999999999995,0.014500000000000002,-1.5718,0.047599999999999996,0.1612,0.2208846153846154,-0.008384615384615384,3.2084615384615387,1.8461538461538463,37.806666666666665,1.2166666666666666,1.0,112.03333333333335,120.0,1,motorway,3,2,40.485306,-3.398413,0.768,112.8,D4,Aggressive,motor
147,114.1,40.484642,-3.399102,590.2,4,5,216.4,2.623,2,1,0,1.0,-0.012777777777777779,0.011222222222222224,-0.01911111111111111,-0.01,0.012888888888888887,-0.02033333333333333,-1.521111111111111,-0.004555555555555556,0.14566666666666667,1.2029545454545454,0.08627272727272726,3.4430454545454547,1.3636363636363635,60.11333333333334,1.9066666666666665,1.0,113.63333333333333,120.0,1,motorway,3,2,40.484642,-3.399102,0.949,113.4,D4,Aggressive,motor
147,113.4,40.484421,-3.399337,590.8,4,5,216.4,0.859,2,1,0,1.0,-0.012777777777777779,0.011222222222222224,-0.01911111111111111,-0.01,0.012888888888888887,-0.02033333333333333,-1.521111111111111,-0.004555555555555556,0.14566666666666667,1.2029545454545454,0.08627272727272726,3.4430454545454547,1.3636363636363635,60.11333333333334,1.9066666666666665,1.0,113.63333333333333,120.0,1,motorway,3,2,40.484642,-3.399102,0.949,113.4,D4,Aggressive,motor
149,111.8,40.483978,-3.399783,589.9,4,5,216.8,0.358,0,1,0,1.0,-0.0021999999999999993,-0.0318,-0.0004000000000000007,-0.004699999999999999,-0.0306,0.007000000000000001,-1.5627,0.0222,0.145,-0.26269565217391305,-0.03543478260869565,3.085391304347826,1.2608695652173914,-1.0,-1.0,1.0,111.8,120.0,1,motorway,3,1,40.484421,-3.399338,1.31,111.8,D4,Aggressive,motor
151,114.9,40.483517,-3.400242,589.7,3,5,216.9,0.158,0,0,0,1.0,0.0032,0.0186,-0.0346,0.0019,0.0185,-0.028499999999999998,-1.5737,0.0392,0.1568,-0.057458333333333333,0.03225,3.1619166666666665,1.8333333333333333,-1.0,-1.0,1.0,114.40000000000002,120.0,1,motorway,3,1,40.483978,-3.399784,1.584,114.9,D4,Aggressive,motor
152,115.3,40.483288,-3.400472,590.0,3,5,216.9,0.0,0,0,0,1.0,0.0004,0.0162,-0.033100000000000004,0.0010000000000000002,0.0156,-0.0363,-1.5362,0.0215,0.1523,-0.04033333333333333,0.040428571428571425,3.2440952380952384,1.8095238095238095,-1.0,-1.0,1.0,115.16666666666667,120.0,1,motorway,3,1,40.483517,-3.400242,0.565,115.3,D4,Aggressive,motor
156,113.4,40.482605,-3.401147,587.9,4,5,216.7,0.861,0,0,0,1.0,-0.014799999999999999,-0.0013000000000000004,-0.0137,-0.014500000000000002,-0.0016,-0.0157,-1.5055,-0.0015999999999999996,0.1413,-0.19781481481481483,-0.012703703703703703,3.3777407407407405,1.7777777777777777,72.10666666666667,2.3033333333333332,2.0,112.66666666666667,120.0,1,motorway,3,1,40.482838,-3.400917,1.355,112.3,D4,Aggressive,motor
156,112.3,40.48238,-3.401369,587.3,4,5,217.3,0.612,0,0,0,1.0,-0.014799999999999999,-0.0013000000000000004,-0.0137,-0.014500000000000002,-0.0016,-0.0157,-1.5055,-0.0015999999999999996,0.1413,-0.19781481481481483,-0.012703703703703703,3.3777407407407405,1.7777777777777777,72.10666666666667,2.3033333333333332,2.0,112.66666666666667,120.0,1,motorway,3,1,40.482838,-3.400917,1.355,112.3,D4,Aggressive,motor
159,104.7,40.481716,-3.402002,585.1,4,5,216.3,0.0,0,0,0,1.0,-0.018099999999999998,-0.005,-0.06420000000000001,-0.0155,-0.004,-0.0619,-1.4264,-0.0017000000000000001,0.1291,-0.15460000000000002,0.06315,3.20205,2.0,22.7025,0.28,2.5,105.9,120.0,1,motorway,3,1,40.48238,-3.401369,2.224,104.7,D4,Aggressive,motor
161,93.4,40.481319,-3.402379,583.2,4,5,216.3,0.0,0,0,0,1.0,-0.010299999999999998,-0.012,-0.008299999999999998,-0.012100000000000001,-0.0179,-0.0184,-1.3932,0.0134,0.1385,-0.192,-0.017849999999999998,2.7369499999999998,1.95,-1.0,-1.0,1.0,94.825,120.0,1,motorway,3,1,40.481716,-3.402003,1.818,93.4,D4,Aggressive,motor
162,87.9,40.48114,-3.402556,582.3,4,5,216.3,0.0,1,1,0,1.0,-0.0221,-0.0030000000000000005,0.08320000000000001,-0.0189,0.0013000000000000002,0.0848,-1.4247,-0.0064,0.1355,-0.5376190476190476,-0.07976190476190477,2.386095238095238,1.380952380952381,-1.0,-1.0,1.0,89.275,120.0,1,motorway,3,1,40.481319,-3.402379,0.692,87.9,D4,Aggressive,motor
163,86.7,40.480968,-3.402728,582.4,4,5,216.2,0.133,0,1,0,1.0,-0.033100000000000004,-0.027500000000000004,0.0477,-0.0329,-0.0242,0.0465,-1.4707000000000001,0.0093,0.13640000000000002,-0.39511111111111114,-0.02033333333333333,2.9979999999999998,1.7777777777777777,-1.0,-1.0,1.0,87.10000000000001,120.0,1,motorway,3,1,40.48114,-3.402556,0.728,86.7,D4,Aggressive,motor
165,85.7,40.480793,-3.40289,581.7,4,5,215.9,0.485,1,1,0,1.0,-0.0149,0.010499999999999999,0.0312,-0.0086,0.008799999999999999,0.0301,-1.5671,0.0442,0.16670000000000001,-0.9587083333333334,-0.10783333333333334,3.496708333333333,1.6666666666666667,-1.0,-1.0,1.0,85.6,120.0,1,motorway,3,1,40.480968,-3.402728,1.256,85.5,D4,Aggressive,motor
165,85.5,40.480625,-3.403055,581.4,4,5,215.5,0.703,0,1,0,1.0,-0.0149,0.010499999999999999,0.0312,-0.0086,0.008799999999999999,0.0301,-1.5671,0.0442,0.16670000000000001,-0.9587083333333334,-0.10783333333333334,3.496708333333333,1.6666666666666667,-1.0,-1.0,1.0,85.6,120.0,1,motorway,3,1,40.480968,-3.402728,1.256,85.5,D4,Aggressive,motor
166,88.8,40.480446,-3.403222,581.9,4,5,215.2,0.703,0,1,0,1.0,-0.005200000000000001,0.0325,0.020300000000000002,-0.0117,0.0293,0.023299999999999998,-1.5948,0.0161,0.16540000000000002,0.0,0.0,3.279458333333333,0.0,25.525,1.0425,1.0,87.975,120.0,1,motorway,3,2,40.480625,-3.403055,0.583,88.8,D4,Aggressive,motor
167,91.5,40.480255,-3.403389,582.2,4,5,214.8,0.703,0,1,0,1.0,-0.00488888888888889,0.050222222222222224,-0.006,-0.0018888888888888894,0.05222222222222222,-0.0016666666666666668,-1.604888888888889,-0.019666666666666666,0.1421111111111111,0.1061111111111111,0.008444444444444444,3.1285555555555558,1.4444444444444444,33.51333333333333,1.32,1.0,91.5,120.0,1,motorway,3,2,40.480446,-3.403222,0.813,91.5,D4,Aggressive,motor
168,92.2,40.480068,-3.403564,581.7,4,5,215.5,0.703,0,1,0,1.0,-0.013799999999999998,0.0096,0.0011000000000000003,-0.011800000000000001,0.0124,0.0006,-1.6,-0.0358,0.119,-0.13612,0.02408,3.0757600000000003,1.72,42.92,1.6800000000000002,1.0,91.92,120.0,1,motorway,3,2,40.480255,-3.403389,0.621,92.2,D4,Aggressive,motor
170,96.4,40.479881,-3.403748,583.2,4,5,216.9,2.109,0,1,0,1.0,-0.0199,-0.0047,-0.0043,-0.020499999999999997,-0.0019999999999999996,-0.0009999999999999998,-1.6114000000000002,-0.032,0.0881,-0.333,0.02304166666666667,3.3196250000000003,1.7916666666666667,-1.0,-1.0,1.0,97.6,120.0,1,motorway,3,2,40.479881,-3.403748,0.502,98.8,D4,Aggressive,motor
170,98.8,40.479687,-3.403938,581.4,4,5,217.6,2.109,0,1,0,1.0,-0.0199,-0.0047,-0.0043,-0.020499999999999997,-0.0019999999999999996,-0.0009999999999999998,-1.6114000000000002,-0.032,0.0881,-0.333,0.02304166666666667,3.3196250000000003,1.7916666666666667,-1.0,-1.0,1.0,97.6,120.0,1,motorway,3,2,40.479881,-3.403748,0.502,98.8,D4,Aggressive,motor
171,100.0,40.479485,-3.404139,581.3,4,5,218.7,1.758,2,1,0,1.0,-0.0015999999999999996,0.010100000000000001,-0.0024000000000000002,-0.0024999999999999996,0.0055,-0.0005000000000000001,-1.6122,-0.0316,0.0763,-0.5319166666666667,-0.0025,3.279875,1.7916666666666667,-1.0,-1.0,1.0,99.7,120.0,1,motorway,3,2,40.479687,-3.403938,0.728,100.0,D4,Aggressive,motor
173,104.8,40.479076,-3.404568,582.7,4,5,219.7,1.055,1,1,0,1.0,-0.0015,2.6020852139652105e-19,-0.0073999999999999995,-0.006500000000000001,0.0036,-0.0086,-1.6085999999999998,-0.045899999999999996,0.0312,-0.6270416666666666,0.07191666666666667,3.313,1.7916666666666667,24.113333333333333,0.51,2.0,104.26666666666667,120.0,1,motorway,3,2,40.479485,-3.40414,1.335,104.8,D4,Aggressive,motor
175,109.0,40.478668,-3.405015,582.6,4,5,222.5,2.812,0,1,0,1.0,-0.0016999999999999997,-0.0006999999999999995,-0.0106,-0.00020000000000000052,-0.0031,-0.0104,-1.5949,-0.0363,-0.0013000000000000002,-0.24508333333333332,0.10120833333333333,3.205375,1.75,57.915,1.9474999999999998,2.0,106.85,120.0,1,motorway,3,2,40.479076,-3.404568,1.613,109.0,D4,Aggressive,motor
176,111.0,40.47847,-3.405253,583.4,4,5,222.9,2.109,0,1,0,1.0,-0.017666666666666667,0.0054444444444444445,-0.001666666666666667,-0.013444444444444445,0.008222222222222221,0.0006666666666666665,-1.5951111111111111,-0.037333333333333336,-0.01633333333333333,0.019818181818181818,0.07672727272727273,3.1643181818181816,1.8636363636363635,68.6775,2.2375000000000003,2.0,110.5,120.0,1,motorway,3,2,40.478668,-3.405015,0.867,111.0,D4,Aggressive,motor
177,112.8,40.478279,-3.405522,581.4,4,5,223.9,1.406,0,1,0,1.0,-0.004777777777777779,0.003333333333333334,0.004333333333333334,-0.003666666666666666,0.0024444444444444444,0.005333333333333333,-1.5875555555555556,-0.04877777777777778,-0.032777777777777774,0.11963157894736841,0.028263157894736844,3.204157894736842,1.7894736842105263,75.84666666666666,2.433333333333333,2.0,112.2,120.0,1,motorway,3,2,40.47847,-3.405253,0.574,112.8,D4,Aggressive,motor
179,115.2,40.47789,-3.406034,581.8,4,5,225.4,1.406,0,1,0,1.0,-0.0076,-0.0006999999999999999,0.008,-0.0055,-0.0005,0.005900000000000001,-1.5905,-0.0434,-0.059399999999999994,0.23420000000000002,0.00032000000000000013,3.20188,1.84,57.43666666666667,1.7966666666666666,2.0,114.8,120.0,1,motorway,3,2,40.478279,-3.405522,1.417,115.2,D4,Aggressive,motor
180,115.5,40.477699,-3.406312,582.4,4,5,226.4,1.758,0,1,0,1.0,-0.022555555555555554,0.0012222222222222222,-0.006555555555555555,-0.01577777777777778,0.0014444444444444446,-0.003333333333333333,-1.593888888888889,-0.04433333333333333,-0.07155555555555555,0.22808333333333333,-0.028999999999999998,3.2547083333333333,1.7916666666666667,44.285,1.38,2.0,115.35,120.0,1,motorway,3,2,40.47789,-3.406034,0.413,115.5,D4,Aggressive,motor
182,116.5,40.477505,-3.406585,581.9,6,5,227.5,2.109,0,1,0,1.0,-0.027100000000000003,0.015,0.007200000000000001,-0.023899999999999998,0.0129,0.0068000000000000005,-1.5773,-0.0507,-0.0959,0.09984,-0.047560000000000005,3.23332,1.76,75.8625,2.3125,2.0,118.5,120.0,1,motorway,3,2,40.477505,-3.406585,0.997,120.5,D4,Aggressive,motor
182,120.5,40.477306,-3.406866,581.6,6,5,228.2,1.758,0,1,0,1.0,-0.027100000000000003,0.015,0.007200000000000001,-0.023899999999999998,0.0129,0.0068000000000000005,-1.5773,-0.0507,-0.0959,0.09984,-0.047560000000000005,3.23332,1.76,75.8625,2.3125,2.0,118.5,120.0,1,motorway,3,2,40.477505,-3.406585,0.997,120.5,D4,Aggressive,motor
183,123.0,40.477104,-3.407173,581.3,6,5,229.6,2.109,0,1,0,1.0,-0.0523,0.0020999999999999994,-0.0043,-0.0508,0.0034999999999999996,-0.0057,-1.5856999999999999,-0.0563,-0.10769999999999999,0.06752,-0.01068,3.21036,1.76,77.2025,2.27,1.5,122.375,120.0,1,motorway,3,2,40.477306,-3.406866,0.928,123.0,D4,Aggressive,motor
186,125.4,40.476704,-3.407814,581.6,4,5,231.3,1.758,0,1,0,1.0,-0.0186,0.0087,-0.025,-0.0186,0.0092,-0.027000000000000003,-1.5408,-0.07289999999999999,-0.1379,0.18516666666666667,-0.001666666666666667,3.31875,1.75,77.0775,1.975,0.75,125.25,120.0,1,motorway,3,2,40.477104,-3.407173,2.457,125.2,D4,Aggressive,motor
186,125.2,40.476513,-3.408135,581.6,4,5,232.4,2.109,0,1,0,1.0,-0.0186,0.0087,-0.025,-0.0186,0.0092,-0.027000000000000003,-1.5408,-0.07289999999999999,-0.1379,0.18516666666666667,-0.001666666666666667,3.31875,1.75,77.0775,1.975,0.75,125.25,120.0,1,motorway,3,2,40.477104,-3.407173,2.457,125.2,D4,Aggressive,motor
190,124.1,40.4758,-3.409447,581.6,4,5,235.9,1.406,0,1,0,1.0,-0.0102,0.0242,-0.054299999999999994,-0.0115,0.0219,-0.048,-1.5394999999999999,-0.034300000000000004,-0.1487,0.19186206896551725,-0.028103448275862072,3.2788275862068965,1.7586206896551724,-1.0,-1.0,1.0,123.76666666666665,120.0,1,motorway,3,2,40.476513,-3.408136,3.652,124.1,D4,Aggressive,motor
193,118.4,40.475296,-3.41045,581.5,4,5,239.1,2.109,0,1,0,1.0,-0.010400000000000001,-0.0066,-0.0055,-0.011300000000000001,-0.0066,-0.0054,-1.4971999999999999,-0.0424,-0.1591,-0.008079999999999999,0.01644,3.3774399999999996,1.72,82.6,2.4850000000000003,2.0,119.7,120.0,1,motorway,3,2,40.475616,-3.409778,1.312,118.4,D4,Aggressive,motor
198,105.1,40.474751,-3.411737,581.0,3,5,243.3,2.461,0,1,0,1.0,-0.013800000000000002,0.0055000000000000005,0.056299999999999996,-0.0113,-0.0012000000000000003,0.056799999999999996,-1.4611,-0.023200000000000002,-0.1608,0.042800000000000005,0.0748,3.38744,1.88,48.9,1.7266666666666666,3.0,101.83333333333333,120.0,1,motorway,3,2,40.474869,-3.411429,1.399,100.2,D4,Aggressive,motor
198,100.2,40.474636,-3.412028,580.4,4,5,244.0,1.758,0,1,0,1.0,-0.013800000000000002,0.0055000000000000005,0.056299999999999996,-0.0113,-0.0012000000000000003,0.056799999999999996,-1.4611,-0.023200000000000002,-0.1608,0.042800000000000005,0.0748,3.38744,1.88,48.9,1.7266666666666666,3.0,101.83333333333333,120.0,1,motorway,3,2,40.474869,-3.411429,1.399,100.2,D4,Aggressive,motor
199,96.8,40.474529,-3.412328,580.0,4,5,244.7,1.406,0,1,0,1.0,0.007099999999999998,-0.0079,0.0561,-0.0049,-0.0043,0.05620000000000001,-1.498,-0.0195,-0.1547,0.11144444444444444,0.026555555555555554,3.3954814814814815,1.8888888888888888,37.54666666666667,1.36,3.0,99.06666666666666,120.0,1,motorway,3,2,40.474636,-3.412028,0.857,96.8,D4,Aggressive,motor
226,96.5,40.472412,-3.42019,583.0,3,5,251.7,0.352,0,0,0,1.0,-0.0092,-0.0012000000000000001,0.0021,-0.0201,-0.0021000000000000003,0.0021999999999999997,-1.5919,0.0104,0.0252,-0.1663181818181818,0.061181818181818184,3.222409090909091,1.8636363636363635,13.7325,0.52,3.0,95.15,120.0,1,motorway,3,2,40.474327,-3.412912,24.993,96.5,D4,Aggressive,motor
228,100.4,40.47226,-3.420806,581.2,3,5,250.7,1.055,0,0,0,1.0,-0.016399999999999998,0.0105,-0.054400000000000004,-0.0191,0.0121,-0.056100000000000004,-1.5552,0.0121,0.04329999999999999,-0.17534615384615385,0.07284615384615384,3.1882307692307696,1.7307692307692308,12.426666666666668,0.4466666666666667,2.0,99.83333333333333,120.0,1,motorway,3,2,40.472412,-3.420191,1.303,100.4,D4,Aggressive,motor
229,98.6,40.472176,-3.421113,581.3,3,5,251.0,0.352,0,0,0,1.0,-0.0178,0.0066,-0.0328,-0.0156,0.0042,-0.0333,-1.528,0.0085,0.044199999999999996,-0.26842857142857146,0.1973809523809524,3.180285714285714,1.7619047619047619,11.026666666666666,0.39666666666666667,1.0,99.2,120.0,1,motorway,3,2,40.47226,-3.420806,0.506,98.6,D4,Aggressive,motor
230,97.8,40.472095,-3.421412,580.8,3,5,251.0,0.352,0,0,0,1.0,-0.0039000000000000007,-0.0046,-0.2239,0.003399999999999999,-0.0019,-0.2072,-1.4773,0.0053,0.045399999999999996,-0.1635909090909091,0.1819090909090909,3.311090909090909,1.6818181818181819,9.2625,0.33999999999999997,1.0,98.0,120.0,1,motorway,3,2,40.472176,-3.421113,0.583,97.8,D4,Aggressive,motor
231,87.7,40.472027,-3.421694,580.2,3,5,251.0,0.0,0,0,0,1.0,-0.0191,-0.0153,-0.004199999999999999,-0.0258,-0.0159,-0.0288,-1.4304999999999999,0.011399999999999999,0.0511,-0.056448275862068964,0.11996551724137931,3.351344827586207,1.8275862068965518,8.315,0.32499999999999996,1.0,92.75,120.0,1,motorway,3,2,40.472095,-3.421412,1.018,87.7,D4,Aggressive,motor
233,83.9,40.471886,-3.422226,580.2,3,5,250.3,0.703,0,0,0,1.0,0.0137,0.0054,0.0655,0.0045000000000000005,0.0053,0.0692,-1.5477,0.025500000000000002,0.0688,0.05566666666666667,0.06433333333333334,3.0812500000000003,1.875,9.549999999999999,0.41,1.3333333333333333,83.73333333333333,120.0,1,motorway,3,2,40.471958,-3.421965,0.497,83.9,D4,Aggressive,motor
234,85.8,40.471817,-3.422486,579.6,3,5,250.0,0.703,0,0,0,1.0,0.0032,0.016300000000000002,-0.0167,0.008400000000000001,0.016800000000000002,-0.009700000000000002,-1.5657,0.0161,0.0747,0.0237,0.0295,3.2194499999999997,1.9,10.063333333333334,0.4266666666666667,2.0,85.16666666666667,120.0,1,motorway,3,2,40.471886,-3.422226,1.003,85.8,D4,Aggressive,motor
237,89.7,40.471584,-3.423277,579.5,3,5,249.6,0.0,0,0,0,1.0,-0.017,0.00029999999999999965,0.0198,-0.0185,0.0033,0.0182,-1.5857,0.0032,0.0794,0.016863636363636362,0.018863636363636364,3.122681818181818,1.6818181818181819,12.285,0.505,3.0,88.30000000000001,120.0,1,motorway,3,2,40.471737,-3.422747,1.45,89.7,D4,Aggressive,motor
240,92.4,40.471413,-3.423836,579.6,3,5,249.6,0.0,0,0,0,1.0,-0.014400000000000001,-0.0077,-0.0113,-0.0147,-0.0053,-0.0041,-1.5550000000000002,0.0139,0.08549999999999999,0.18442105263157896,0.028842105263157898,3.0772105263157896,1.7894736842105263,12.323333333333332,0.48,2.0,91.73333333333335,120.0,1,motorway,3,2,40.471413,-3.423836,0.51,91.4,D4,Aggressive,motor
242,91.9,40.471264,-3.424403,578.7,3,5,249.3,0.352,0,0,0,1.0,-0.0207,-0.0142,-0.001100000000000001,-0.0212,-0.014499999999999999,-0.005200000000000001,-1.519,0.0429,0.10569999999999999,0.07745833333333334,0.06691666666666667,3.313083333333333,1.875,5.265000000000001,-0.27,2.0,91.2,120.0,1,motorway,3,2,40.471344,-3.424124,1.902,90.5,D4,Aggressive,motor
242,90.5,40.471176,-3.424683,578.3,3,5,248.6,1.055,0,0,0,1.0,-0.0207,-0.0142,-0.001100000000000001,-0.0212,-0.014499999999999999,-0.005200000000000001,-1.519,0.0429,0.10569999999999999,0.07745833333333334,0.06691666666666667,3.313083333333333,1.875,5.265000000000001,-0.27,2.0,91.2,120.0,1,motorway,3,2,40.471344,-3.424124,1.902,90.5,D4,Aggressive,motor
244,91.9,40.470997,-3.425241,578.3,3,5,247.5,1.055,0,0,0,1.0,-0.005999999999999998,0.017,-0.0196,-0.011399999999999999,0.0214,-0.013500000000000002,-1.5329000000000002,0.0111,0.0998,-0.40705,0.0977,3.3777,1.85,6.773333333333333,-0.05666666666666668,2.0,92.2,120.0,1,motorway,3,2,40.471176,-3.424683,1.102,92.8,D4,Aggressive,motor
246,89.4,40.470913,-3.425519,578.3,3,5,248.6,1.055,1,0,0,1.0,-0.02411111111111111,0.004888888888888889,0.001,-0.02033333333333333,0.005666666666666667,-0.005222222222222222,-1.5110000000000001,0.0006666666666666666,0.08977777777777778,-0.5370869565217391,0.13217391304347825,3.1594782608695655,1.826086956521739,9.826666666666666,0.39999999999999997,2.0,88.86666666666667,120.0,1,motorway,3,2,40.470997,-3.425241,1.704,87.8,D4,Aggressive,motor
246,87.8,40.470829,-3.425791,578.4,3,5,248.6,1.055,1,0,0,1.0,-0.02411111111111111,0.004888888888888889,0.001,-0.02033333333333333,0.005666666666666667,-0.005222222222222222,-1.5110000000000001,0.0006666666666666666,0.08977777777777778,-0.5370869565217391,0.13217391304347825,3.1594782608695655,1.826086956521739,9.826666666666666,0.39999999999999997,2.0,88.86666666666667,120.0,1,motorway,3,2,40.470997,-3.425241,1.704,87.8,D4,Aggressive,motor
250,82.0,40.470528,-3.42683,576.5,3,5,249.3,0.352,0,0,0,1.0,-0.0103,0.011199999999999998,0.0616,-0.0153,0.0125,0.0598,-1.5411,-0.0047,0.0671,-0.32108695652173913,0.09882608695652174,3.114782608695652,1.826086956521739,7.883333333333333,0.3433333333333333,2.0,83.2,120.0,1,motorway,3,2,40.470829,-3.425791,3.866,82.0,D4,Aggressive,motor
252,83.9,40.47039,-3.427341,578.0,3,5,250.0,0.703,0,0,0,1.0,0.0005999999999999992,0.0036999999999999997,0.0064,-0.0048000000000000004,0.0036999999999999997,0.0097,-1.5957000000000001,-0.0159,0.0485,-0.23715789473684212,0.010473684210526316,2.999263157894737,1.736842105263158,9.0125,0.3875,2.0,83.4,120.0,1,motorway,3,2,40.470528,-3.42683,1.819,83.9,D4,Aggressive,motor
254,86.8,40.470238,-3.427877,579.2,3,5,250.3,0.352,0,0,0,1.0,-0.0002999999999999996,0.0027999999999999995,-0.0391,-0.0014,0.0010999999999999998,-0.0373,-1.579,0.0031,0.045899999999999996,-0.1142608695652174,0.0638695652173913,3.2317391304347827,1.7391304347826086,32.800000000000004,1.36,1.3333333333333333,86.66666666666667,120.0,1,motorway,3,2,40.47039,-3.427341,2.059,86.8,D4,Aggressive,motor
257,83.4,40.470024,-3.428663,581.2,3,5,251.0,0.703,0,0,0,1.0,0.0001111111111111114,0.021,0.05311111111111111,-0.004222222222222221,0.01577777777777778,0.04577777777777778,-1.5357777777777777,-0.006111111111111111,0.036555555555555556,0.13733333333333334,0.017037037037037035,3.2706296296296298,1.8148148148148149,36.846666666666664,1.2533333333333334,2.0,84.03333333333335,120.0,1,motorway,3,2,40.470165,-3.428144,1.805,83.4,D4,Aggressive,motor
259,83.7,40.469955,-3.428923,580.4,3,5,251.4,0.352,0,0,0,1.0,-0.017499999999999998,-0.0067,-0.013900000000000001,-0.017599999999999998,-0.0059,-0.0177,-1.5343,-0.0064,0.0308,0.10725,0.11854166666666666,3.20225,1.7916666666666667,6.733333333333334,-0.026666666666666655,3.6666666666666665,83.3,120.0,1,motorway,3,2,40.470024,-3.428663,1.769,83.1,D4,Aggressive,motor
259,83.1,40.469891,-3.429183,580.8,3,5,251.7,0.703,0,0,0,1.0,-0.017499999999999998,-0.0067,-0.013900000000000001,-0.017599999999999998,-0.0059,-0.0177,-1.5343,-0.0064,0.0308,0.10725,0.11854166666666666,3.20225,1.7916666666666667,6.733333333333334,-0.026666666666666655,3.6666666666666665,83.3,120.0,1,motorway,3,2,40.470024,-3.428663,1.769,83.1,D4,Aggressive,motor
260,81.9,40.469818,-3.429442,581.4,3,5,251.4,0.352,0,0,0,1.0,-0.016,-0.009888888888888888,0.036555555555555556,-0.01211111111111111,-0.007888888888888888,0.031000000000000003,-1.5472222222222223,-0.004222222222222222,0.03277777777777778,0.004083333333333334,0.12083333333333333,3.1359166666666667,1.8333333333333333,10.546666666666667,0.46,2.6666666666666665,82.3,120.0,1,motorway,3,2,40.469891,-3.429183,1.023,81.9,D4,Aggressive,motor
264,79.8,40.469585,-3.430457,583.4,3,5,254.9,2.812,0,0,0,1.0,-0.011399999999999999,0.0073999999999999995,0.0348,-0.0108,0.0031,0.0303,-1.5473,-0.023200000000000002,-0.0083,-0.3816818181818182,0.1303181818181818,3.2234545454545454,1.7272727272727273,11.01,0.49666666666666665,3.0,80.10000000000001,120.0,1,motorway,3,2,40.469749,-3.429701,2.596,79.8,D4,Aggressive,motor
267,83.2,40.46944,-3.431225,584.5,3,5,256.6,1.758,0,0,0,1.0,-0.0225,-0.0011249999999999995,0.0018749999999999997,-0.019875,0.0018749999999999995,0.00125,-1.594625,-0.030875,-0.04325,-0.05764705882352941,0.11752941176470588,3.139,1.8235294117647058,12.105,0.525,3.0,83.2,120.0,1,motorway,3,2,40.46954,-3.43071,1.894,83.2,D4,Aggressive,motor
268,85.4,40.469391,-3.431501,584.3,3,5,256.6,0.352,0,0,0,1.0,-0.0066,-0.0298,-0.0056,-0.0081,-0.029599999999999998,-0.0033999999999999994,-1.5953,-0.0089,-0.040799999999999996,0.06432,0.10716,3.1568,1.76,12.075,0.52,2.5,84.30000000000001,120.0,1,motorway,3,2,40.46944,-3.431225,0.483,85.4,D4,Aggressive,motor
269,84.6,40.469353,-3.431767,584.6,3,5,257.0,0.352,0,0,0,1.0,-0.009899999999999999,0.0079,-0.0109,-0.0097,0.0021000000000000003,-0.0122,-1.5891,0.0052,-0.033,-0.08465217391304349,0.043,3.176304347826087,1.8695652173913044,11.7975,0.4975,1.0,85.0,120.0,1,motorway,3,2,40.469391,-3.431501,0.492,84.6,D4,Aggressive,motor
270,85.2,40.469307,-3.432042,585.5,3,5,257.0,0.352,0,0,0,1.0,-0.011699999999999999,0.029599999999999998,0.0061,-0.0107,0.0323,0.0054,-1.5851000000000002,-0.0216,-0.045,-0.39555999999999997,0.08736000000000001,3.4225600000000003,1.68,7.416666666666667,-0.003333333333333336,1.0,85.0,120.0,1,motorway,3,2,40.469353,-3.431767,0.523,85.2,D4,Aggressive,motor
272,85.9,40.469257,-3.432316,586.9,3,5,258.4,1.406,0,0,0,1.0,-0.0186,-0.0068000000000000005,-0.0376,-0.0137,-0.0032,-0.0358,-1.5585,-0.0253,-0.0591,-0.2530454545454546,0.09499999999999999,3.185136363636363,1.5909090909090908,10.766666666666666,0.4466666666666667,1.3333333333333333,86.76666666666667,120.0,1,motorway,3,2,40.469257,-3.432317,0.639,87.2,D4,Aggressive,motor
272,87.2,40.469215,-3.43258,588.3,4,5,258.8,1.758,0,0,0,1.0,-0.0186,-0.0068000000000000005,-0.0376,-0.0137,-0.0032,-0.0358,-1.5585,-0.0253,-0.0591,-0.2530454545454546,0.09499999999999999,3.185136363636363,1.5909090909090908,10.766666666666666,0.4466666666666667,1.3333333333333333,86.76666666666667,120.0,1,motorway,3,2,40.469257,-3.432317,0.639,87.2,D4,Aggressive,motor
273,86.9,40.469173,-3.432866,588.3,4,5,257.7,1.055,0,0,0,1.0,-0.023899999999999998,-0.0322,0.026000000000000002,-0.027999999999999997,-0.0348,0.0169,-1.5513,-0.0018000000000000002,-0.0506,-0.12082608695652174,0.016,3.3759130434782607,1.7391304347826086,10.445,0.435,1.0,87.05000000000001,120.0,1,motorway,3,2,40.469215,-3.432581,0.9,86.9,D4,Aggressive,motor
274,86.9,40.46912,-3.433149,588.1,4,5,258.0,0.703,0,0,0,1.0,-0.017499999999999998,0.0008,0.0247,-0.0162,-0.0017000000000000001,0.0259,-1.5734,0.005,-0.0419,-0.19705,0.0373,3.2804,1.8,9.719999999999999,0.4025,1.0,86.9,120.0,1,motorway,3,2,40.469173,-3.432866,0.576,86.9,D4,Aggressive,motor
275,86.5,40.469078,-3.433427,587.8,4,5,258.8,1.055,0,0,0,1.0,-0.026000000000000002,-0.0184,0.0193,-0.0248,-0.0155,0.0223,-1.5852,0.0016,-0.033800000000000004,-0.18345,0.0548,3.22435,1.7,9.063333333333333,0.37666666666666665,1.0,86.63333333333333,120.0,1,motorway,3,2,40.46912,-3.433149,0.633,86.5,D4,Aggressive,motor
276,87.7,40.469028,-3.433718,588.5,4,5,259.1,1.055,1,0,0,1.0,-0.0014999999999999992,-0.0299,0.0115,-0.006500000000000001,-0.0301,0.011399999999999999,-1.5992000000000002,0.0026000000000000003,-0.0158,-0.4147777777777778,0.0030555555555555553,3.2152777777777777,1.9444444444444444,8.396666666666667,0.3466666666666667,1.3333333333333333,87.3,120.0,1,motorway,3,2,40.469078,-3.433427,0.363,87.7,D4,Aggressive,motor
278,89.9,40.468929,-3.434297,590.1,3,5,257.0,2.109,0,0,0,1.0,0.003,0.03,-0.0013999999999999998,0.008,0.028699999999999996,0.0006000000000000002,-1.6108,-0.0305,0.0031,0.0,0.0,3.2221666666666664,0.0,4.176666666666667,-0.47333333333333333,2.6666666666666665,89.43333333333334,120.0,1,motorway,3,2,40.469028,-3.433718,1.089,89.2,D4,Aggressive,motor
279,92.3,40.468876,-3.434588,590.7,3,5,256.6,0.352,0,0,0,1.0,-0.014000000000000002,0.013399999999999999,0.0063,-0.010900000000000002,0.014299999999999998,0.0050999999999999995,-1.6118000000000001,-0.0432,-0.0018000000000000002,0.0,0.0,3.219740740740741,0.0,16.52,0.6566666666666666,3.0,90.7,120.0,1,motorway,3,2,40.468929,-3.434298,0.438,92.3,D4,Aggressive,motor
280,93.5,40.468826,-3.434895,591.1,3,5,257.3,0.703,0,0,0,1.0,0.0094,0.007200000000000001,0.0111,0.007000000000000001,0.0063,0.0124,-1.6128,-0.04,-0.0060999999999999995,0.2886666666666667,0.021761904761904764,3.124142857142857,1.8571428571428572,21.0175,0.815,2.5,92.9,120.0,1,motorway,3,2,40.468876,-3.434589,0.819,93.5,D4,Aggressive,motor
281,95.6,40.468773,-3.435196,591.7,3,5,257.3,0.703,0,0,0,1.0,-0.005800000000000001,0.0064,-0.0019000000000000002,-0.0077,0.0077,-0.0021,-1.6073,-0.0381,-0.008499999999999999,0.09918181818181818,-0.04436363636363636,3.0818636363636362,1.8181818181818181,26.3,0.9966666666666667,2.0,94.89999999999999,120.0,1,motorway,3,2,40.468826,-3.434895,0.991,95.6,D4,Aggressive,motor
282,94.6,40.468719,-3.435494,592.1,3,5,258.0,0.703,0,0,0,1.0,-0.018799999999999997,0.005200000000000001,-0.004100000000000001,-0.0187,0.0081,-0.004399999999999999,-1.6052,-0.039900000000000005,-0.014199999999999999,-0.05079166666666667,-0.0043749999999999995,3.076916666666667,1.9166666666666667,30.713333333333335,1.1633333333333333,2.0,94.93333333333332,120.0,1,motorway,3,2,40.468773,-3.435196,0.724,94.6,D4,Aggressive,motor
283,98.4,40.46867,-3.43581,593.0,3,5,258.0,0.703,0,0,0,1.0,0.022,-0.014900000000000002,0.0033,0.0191,-0.0153,0.0060999999999999995,-1.6029,-0.028700000000000003,-0.0127,-0.01640740740740741,0.008925925925925926,3.0605555555555557,1.962962962962963,33.06,1.2266666666666666,2.0,97.13333333333333,120.0,1,motorway,3,2,40.468719,-3.435494,0.529,98.4,D4,Aggressive,motor
284,100.4,40.46862,-3.436132,593.6,3,5,257.7,0.352,0,0,0,1.0,-0.017300000000000003,-0.0156,-0.00040000000000000034,-0.0168,-0.0158,-0.0063,-1.5876000000000001,-0.0263,-0.0052,0.05286363636363636,0.01809090909090909,3.143772727272727,1.8181818181818181,36.35,1.3099999999999998,2.0,99.73333333333335,120.0,1,motorway,3,2,40.46867,-3.43581,1.015,100.4,D4,Aggressive,motor
287,103.6,40.468506,-3.436775,593.7,3,5,257.0,0.703,0,0,0,1.0,-0.021,0.004,0.0067777777777777775,-0.025777777777777774,0.004666666666666666,0.006444444444444444,-1.5892222222222223,-0.007666666666666667,0.008555555555555556,-0.0880909090909091,0.000909090909090909,3.1267272727272726,1.7727272727272727,57.77,1.9833333333333334,1.0,104.8,120.0,1,motorway,3,2,40.468506,-3.436775,0.427,104.8,D4,Aggressive,motor
287,104.8,40.468449,-3.437107,592.7,4,5,256.3,0.703,0,0,0,1.0,-0.021,0.004,0.0067777777777777775,-0.025777777777777774,0.004666666666666666,0.006444444444444444,-1.5892222222222223,-0.007666666666666667,0.008555555555555556,-0.0880909090909091,0.000909090909090909,3.1267272727272726,1.7727272727272727,57.77,1.9833333333333334,1.0,104.8,120.0,1,motorway,3,2,40.468506,-3.436775,0.427,104.8,D4,Aggressive,motor
288,107.8,40.468388,-3.437453,592.3,3,5,257.0,0.703,0,0,0,1.0,0.0073999999999999995,0.0067,-0.0076,0.0116,0.0068000000000000005,-0.0059,-1.5868,0.0057,0.013500000000000002,-0.21357142857142858,-0.01,3.1338214285714288,1.8214285714285714,61.18333333333334,2.063333333333333,1.0,106.8,120.0,1,motorway,3,2,40.468449,-3.437107,0.546,107.8,D4,Aggressive,motor
289,109.1,40.468327,-3.437804,594.3,3,5,256.6,0.352,0,0,0,1.0,-0.0222,0.022399999999999996,0.0038,-0.0222,0.0191,0.0021000000000000003,-1.5845,0.0082,0.0147,-0.37972,-0.01736,3.1625599999999996,1.88,65.76,2.186666666666667,1.0,108.23333333333333,120.0,1,motorway,3,2,40.468388,-3.437454,0.467,109.1,D4,Aggressive,motor
290,110.5,40.468258,-3.438154,595.0,3,5,256.3,0.703,0,0,0,1.0,-0.018500000000000003,0.0125,0.0005000000000000007,-0.018,0.0183,0.0012999999999999997,-1.5867,-0.0092,0.008400000000000001,-0.42736363636363633,0.05331818181818182,3.069454545454546,1.8181818181818181,66.2425,2.1725000000000003,1.5,109.8,120.0,1,motorway,3,2,40.468327,-3.437804,0.539,110.5,D4,Aggressive,motor
292,112.3,40.468197,-3.438513,594.6,3,5,257.0,0.703,0,0,0,1.0,-0.03,0.0087,-0.0689,-0.019799999999999998,0.0098,-0.0637,-1.5548,-0.0164,-0.0014,-0.019423076923076918,0.08826923076923077,3.2422692307692307,1.8846153846153846,75.44666666666667,2.3966666666666665,1.0,113.36666666666667,120.0,1,motorway,3,2,40.468197,-3.438513,0.46,113.9,D4,Aggressive,motor
292,113.9,40.468132,-3.438869,594.0,3,5,257.3,1.055,0,0,0,1.0,-0.03,0.0087,-0.0689,-0.019799999999999998,0.0098,-0.0637,-1.5548,-0.0164,-0.0014,-0.019423076923076918,0.08826923076923077,3.2422692307692307,1.8846153846153846,75.44666666666667,2.3966666666666665,1.0,113.36666666666667,120.0,1,motorway,3,2,40.468197,-3.438513,0.46,113.9,D4,Aggressive,motor
293,112.7,40.468075,-3.439231,591.0,3,5,258.0,1.055,2,0,0,1.0,0.003,0.0196,-0.039900000000000005,-0.0029999999999999996,0.019,-0.044,-1.5137,-0.0436,-0.013300000000000001,0.5267407407407407,0.113,3.3487037037037037,1.8148148148148149,82.17,2.6166666666666667,1.0,113.10000000000001,120.0,1,motorway,3,2,40.468132,-3.438869,0.611,112.7,D4,Aggressive,motor
294,110.7,40.468021,-3.4396,591.5,3,5,257.7,0.352,0,0,0,1.0,-0.007300000000000001,-0.0388,0.0254,-0.0137,-0.03319999999999999,0.0188,-1.4956,-0.0513,-0.0215,1.0108148148148148,0.1392962962962963,3.1393333333333335,1.4444444444444444,27.883333333333336,0.24666666666666673,0.3333333333333333,111.36666666666667,120.0,1,motorway,3,2,40.468075,-3.439232,0.485,110.7,D4,Aggressive,motor
295,110.2,40.467964,-3.439953,591.1,3,5,258.8,1.055,0,0,0,1.0,-0.010100000000000001,-0.0179,0.0663,-0.0076,-0.0224,0.065,-1.5294,-0.0243,-0.0214,-0.06609090909090909,-0.011909090909090909,3.211727272727273,0.3181818181818182,-1.0,-1.0,1.0,110.325,120.0,1,motorway,3,1,40.468021,-3.4396,0.403,110.2,D4,Aggressive,motor
296,111.9,40.467911,-3.440312,589.8,3,5,259.1,1.406,0,0,0,1.0,-0.016300000000000002,-0.0422,0.05589999999999999,-0.0137,-0.04,0.0581,-1.5406,-0.0112,-0.0186,-0.11870833333333335,0.03291666666666667,3.2285416666666666,1.875,-1.0,-1.0,1.0,111.33333333333333,120.0,1,motorway,3,1,40.467964,-3.439953,0.538,111.9,D4,Aggressive,motor
297,113.3,40.467854,-3.440679,589.8,3,5,259.5,0.703,0,0,0,1.0,-0.036444444444444446,0.0018888888888888894,0.03066666666666667,-0.034444444444444444,-0.0008888888888888897,0.030555555555555558,-1.558111111111111,-0.017777777777777778,-0.016444444444444442,0.22774999999999998,0.0761,3.2333,1.8,191.42666666666665,6.1066666666666665,2.0,112.83333333333333,120.0,1,motorway,3,1,40.467911,-3.440312,0.762,113.3,D4,Aggressive,motor
299,115.6,40.467796,-3.441048,589.7,3,5,259.1,0.352,0,0,0,1.0,0.00030000000000000024,0.0199,0.005199999999999999,0.0054,0.017599999999999998,0.0059,-1.5785,-0.0206,-0.0344,0.18803846153846154,0.0004615384615384614,3.2057307692307693,1.7307692307692308,170.8033333333333,5.28,2.0,116.46666666666665,120.0,1,motorway,3,1,40.467796,-3.441048,0.611,116.9,D4,Aggressive,motor
300,116.9,40.467739,-3.44142,589.7,3,5,259.8,0.703,0,0,0,1.0,-0.01622222222222222,0.011111111111111112,0.01177777777777778,-0.021666666666666667,0.012777777777777777,0.01,-1.5821111111111112,-0.030000000000000002,-0.04677777777777778,0.09777272727272726,-0.009954545454545454,3.2306363636363638,1.7727272727272727,153.74,4.7,1.6666666666666667,117.7,120.0,1,motorway,3,1,40.467739,-3.44142,0.561,118.1,D4,Aggressive,motor
