t_10hz_mean,timestamp_mean,speed_kmh_mean,lat_mean,lon_mean,alt_mean,vert_acc_mean,horiz_acc_mean,course_mean,difcourse_mean,hdop_mean,vdop_mean,pdop_mean,active_mean,acc_x_mean,acc_y_mean,acc_z_mean,acc_x_kf_mean,acc_y_kf_mean,acc_z_kf_mean,roll_mean,pitch_mean,yaw_mean,x_lane_mean,phi_mean,road_width_mean,lane_state_mean,dist_front_mean,ttc_front_mean,num_vehicles_mean,gps_speed_mean,max_speed_mean,speed_rel_mean,num_lanes_mean,lat_osm_mean,lon_osm_mean,osm_delay_mean,gps_speed_osm_mean,speed_ratio_mean,label
1199.5,119.95,126.52728182022975,40.48516953166285,-3.4002912269424783,589.0560941839782,4.791927011573199,11.533333333333333,230.62623839210184,0.9837557617162872,-0.19208333333333333,-0.11009655285813115,0.0,1.0,-0.011742083333333332,-0.0014470833333333332,-6.0833333333333204e-05,-0.011999166666666667,-0.0010533333333333334,2.083333333333659e-06,-1.5597412499999999,-0.004753333333333335,0.31581750000000003,-0.41777000000000003,-0.2742704166666666,3.4915120833333337,1.3075,10.422895833333335,-0.48018749999999993,0.5995833333333334,129.734125,119.26994733508651,1.0166666666666666,2.9757781171597615,40.485695809443065,-3.4042872540629103,1.2074994927724907,129.37579753411939,1.0554892424469968,0
1439.5,143.95,132.49916666666667,40.4812339525,-3.40868865875,585.7882083333334,4.03375,5.0,240.87108333333336,0.8671725,0.13708333333333333,0.18333333333333332,0.0,1.0,-0.011904583333333335,-0.0012291666666666664,-0.00024375,-0.01157625,-0.0012341666666666666,-0.00024958333333333375,-1.5530079166666666,-0.008043749999999999,0.30631916666666664,-0.11287708333333332,0.028113750000000007,3.9361304166666664,1.68125,8.5725125,-0.5706166666666667,0.55875,132.51083333333332,120.0,1.0166666666666666,3.0,40.48155811708333,-3.4079878920833333,1.2210645833333333,132.37712499999998,1.1041597222222224,0
1679.5,167.95,131.71345833333336,40.4777162425,-3.417548319583333,583.255625,4.0304166666666665,5.0,244.47579166666662,0.8649174999999999,0.13291666666666666,0.13333333333333333,0.0,1.0,-0.012165416666666668,-0.0011450000000000002,-0.0014745833333333336,-0.011809583333333333,-0.0011516666666666667,-0.0015079166666666665,-1.5493116666666666,-0.010379583333333334,0.30204875,-0.11681250000000001,0.029245833333333332,3.9286279166666667,1.68375,11.6630375,-0.4305833333333334,0.6025,131.602,120.0,1.02,3.0,40.47801624375,-3.41681351125,1.2516520833333333,131.731625,1.0976121527777778,0
1919.5,191.95,127.28545833333332,40.47468014583333,-3.42634634625,581.2448333333334,4.12625,5.0,247.65833333333333,0.9090524999999998,0.15375,0.058333333333333334,0.0,1.0,-0.012150416666666669,-0.0006625000000000001,-0.0010954166666666664,-0.011752083333333333,-0.0006245833333333332,-0.0011045833333333333,-1.5493704166666666,-0.01256125,0.3115616666666667,-0.08932874999999998,0.03293833333333333,3.9168870833333336,1.6941666666666666,14.092016666666666,-0.2432875,0.7383333333333333,127.17941666666665,120.0,1.02,3.0,40.47494592416667,-3.42555964125,1.3239395833333334,127.30016666666667,1.0607121527777776,0
2159.5,215.95,123.42529166666667,40.472078177916664,-3.4350224958333335,579.8353750000001,4.184583333333333,5.0,250.62154166666664,0.9181545833333333,0.14583333333333334,0.058333333333333334,0.0,1.0,-0.012122083333333334,0.0002479166666666667,-0.00241625,-0.011720416666666667,0.0002595833333333331,-0.0024770833333333333,-1.5495837499999998,-0.014398749999999998,0.32379291666666665,-0.08617791666666666,0.028344583333333333,3.9066570833333327,1.7095833333333332,14.367433333333333,-0.15205416666666666,0.87,123.313875,118.85,1.02,2.9425,40.472283985833336,-3.4342838804166664,1.27844625,123.48629166666666,1.0404989583333335,0
2399.5,239.95,117.50679166666666,40.47001365666667,-3.4435979229166667,579.0057916666666,4.1175,5.0,256.2588333333333,1.5363425,0.14166666666666666,0.058333333333333334,0.0,1.0,-0.01343375,-0.001567916666666667,-0.0038887500000000003,-0.013047916666666666,-0.0014762500000000001,-0.0039320833333333334,-1.5508125,-0.01585416666666667,0.2939916666666667,-0.07629666666666667,0.028714999999999997,3.913965833333333,1.65375,16.062858333333335,-0.002354166666666657,0.9520833333333333,117.38087500000002,114.04583333333333,1.02,2.7425,40.47012638,-3.442930429583333,1.2077641666666667,117.60029166666668,1.033988988095238,0
2639.5,263.95,110.65104166666667,40.468465494583334,-3.451984806666666,579.4669166666667,4.09625,5.0,254.67495833333334,2.218856666666667,-0.041666666666666664,-0.12916666666666668,0.0,0.9791666666666666,-0.014904583333333334,-0.0021454166666666666,-0.006288333333333333,-0.014382916666666665,-0.0020791666666666667,-0.006290416666666668,-1.5541404166666666,-0.0014245833333333307,0.41953125,-0.2551533333333333,-0.15136666666666665,3.656405,1.46,16.196308333333334,0.06093333333333334,1.0141666666666667,110.66583333333334,107.42916666666666,1.02,2.5425,40.46856516458334,-3.451338975833334,1.2177245833333332,110.872125,1.0447787698412698,0
2879.5,287.95,105.98937500000001,40.46733764416667,-3.4594186183333324,581.0273333333333,4.055416666666667,5.0,238.56762500000002,2.8739670833333335,-0.02125,-0.06666666666666667,0.0,0.9791666666666666,-0.014968333333333333,-0.0007954166666666666,-0.008242083333333334,-0.014485416666666667,-0.0007920833333333334,-0.008287083333333334,-1.557215,0.01033041666666667,0.15965000000000001,-0.24494625,-0.15154499999999999,3.641955,1.4741666666666666,15.760729166666666,0.07480416666666666,0.9316666666666666,106.04370833333334,103.5375,1.065,2.3425,40.46741893833333,-3.4588697608333328,1.2566875000000002,106.08016666666667,1.0377822420634921,0
3119.5,311.95,100.72866666666665,40.46661879083333,-3.4654192016666667,581.5968333333333,4.045833333333333,5.0,220.70641666666663,3.035427916666667,0.024166666666666666,0.04583333333333333,0.0,0.9791666666666666,-0.01507,-0.00014625000000000022,-0.008479166666666668,-0.0145875,-9.208333333333346e-05,-0.008537500000000002,-1.5588066666666667,0.010090833333333332,-0.1152475,-0.24396083333333332,-0.15711,3.5900312500000005,1.4816666666666667,14.927195833333336,0.11512083333333333,0.9925,100.7875,100.725,1.065,2.16125,40.46667282041667,-3.4649800987500003,1.2800720833333332,100.869125,1.0138349041005292,0
3359.5,335.95,99.44412500000001,40.466289517916664,-3.4697303766666665,582.7905833333333,4.020833333333333,5.0,203.72233333333332,3.0641175,0.02,0.17875,0.0,0.9791666666666666,-0.014736250000000001,-0.0002874999999999995,-0.009542499999999999,-0.014306666666666665,-0.00021000000000000028,-0.009580000000000002,-1.5627566666666666,0.009191250000000002,-0.4046808333333333,-0.23780875000000004,-0.15464875,3.512635833333333,1.4579166666666667,15.176629166666668,0.12378750000000001,0.95125,99.61529166666666,100.725,1.0595833333333333,2.24,40.466320511250004,-3.469418179583333,1.27152375,99.463625,1.0031303902116402,0
3599.5,359.95,98.56133333333332,40.46616614166667,-3.472013436666667,583.6940416666666,4.153333333333333,5.020833333333333,187.11691666666667,3.0283945833333337,0.020416666666666666,0.27875,0.0,0.9791666666666666,-0.014370416666666668,-0.0005845833333333337,-0.009638750000000001,-0.01407125,-0.0005029166666666667,-0.009647916666666667,-1.5621654166666668,0.00982541666666667,-0.6937708333333334,-0.23612500000000003,-0.14878,3.439030833333333,1.46875,17.323508333333333,0.2698041666666667,1.0420833333333333,98.72033333333334,100.725,1.0595833333333333,2.24,40.46618903875,-3.471913600833333,1.3091183333333334,98.66804166666667,0.995773792989418,0
3839.5,383.95,98.09920833333332,40.46614074083334,-3.4722815691666664,584.8634999999999,4.161666666666667,5.020833333333333,169.323625,3.066474166666667,-0.017083333333333332,0.29125,0.0,0.9791666666666666,-0.013988333333333335,-0.0002862500000000003,-0.0097575,-0.013714999999999998,-0.0001808333333333334,-0.009770000000000001,-1.56437125,0.010850833333333334,-0.9715941666666666,-0.25831375,-0.1452483333333333,3.3498775,1.51875,17.941333333333333,0.33662500000000006,1.1270833333333334,98.29258333333334,100.725,1.0595833333333333,2.24,40.466156327916664,-3.4723468983333334,1.3411816666666667,98.14895833333334,0.9919227513227512,0
4079.5,407.95,99.44858333333333,40.466212775416665,-3.470451407083333,586.0189583333333,4.18625,5.020833333333333,150.064375,3.1165687500000003,-0.02125,0.29125,0.0,0.9791666666666666,-0.013723333333333334,-2.9583333333333037e-05,-0.008415,-0.013445833333333332,2.750000000000014e-05,-0.008417083333333334,-1.5665916666666666,0.013492500000000003,-1.2461929166666663,-0.24201541666666665,-0.14193416666666664,3.2581233333333337,1.5208333333333333,13.164950000000001,0.1301,1.02,99.72095833333333,100.725,1.045,2.24,40.466206050000004,-3.4708077879166663,1.49376125,99.42883333333334,1.003167542989418,0
4319.5,431.95,103.867375,40.46644751708334,-3.4666929150000003,587.0179166666667,4.222916666666666,5.020833333333333,130.71379166666665,3.132182083333334,-0.050416666666666665,0.26625,0.0,0.9791666666666666,-0.013682916666666666,-7.375000000000002e-05,-0.008798333333333333,-0.013375416666666666,-5.958333333333334e-05,-0.008826666666666667,-1.5665816666666668,0.01595,-1.526625,-0.2751720833333333,-0.14155791666666667,3.1647720833333337,1.5333333333333334,11.740208333333333,-0.01572083333333334,0.9266666666666666,104.15179166666667,100.725,1.045,2.24,40.46638404666667,-3.4674745129166666,1.5698558333333332,103.76266666666665,1.039990806878307,0
4559.5,455.95,108.14183333333334,40.46700683125,-3.461186609583333,587.4755416666666,4.28125,5.020833333333333,111.99941666666666,3.1056516666666667,-0.0425,0.23291666666666666,0.0,0.9791666666666666,-0.0135275,-0.0009324999999999994,-0.0073349999999999995,-0.013303333333333332,-0.0009000000000000001,-0.007354166666666668,-1.5674883333333332,0.014108750000000001,-1.818044166666667,-0.2670429166666667,-0.13491833333333333,3.069839583333333,1.5395833333333333,9.964883333333335,-0.17783749999999998,0.7954166666666667,108.43941666666667,101.875,1.045,2.2975,40.466914215416665,-3.4620988137499995,1.5923358333333335,108.02425,1.0636564318783068,0
4799.5,479.95,114.63283333333332,40.46791363,-3.4540067370833336,587.4909166666666,4.335416666666666,5.020833333333333,90.06320833333334,2.6090316666666666,-0.03791666666666667,0.23291666666666666,0.0,0.9791666666666666,-0.012920833333333335,0.0007754166666666666,-0.00598875,-0.012657916666666668,0.00071625,-0.006038750000000001,-1.5659575,0.017385416666666667,-2.050308333333333,-0.27450625,-0.13387833333333332,2.97050375,1.6075,8.269458333333333,-0.3275375,0.7025,114.94262500000002,106.67916666666666,1.045,2.4975,40.46776979833333,-3.455084905833334,1.6416683333333333,114.52633333333331,1.0749372354497355,0
5039.5,503.95,121.50620833333335,40.46949754125,-3.445550944583333,587.141875,4.42,5.020833333333333,73.598,1.9593941666666668,0.15333333333333332,0.47041666666666665,0.0,1.0,-0.010995416666666667,0.0014595833333333333,-0.0033450000000000008,-0.010924166666666667,0.0013537500000000001,-0.0034020833333333338,-1.5645904166666667,0.006802916666666666,-2.430598333333333,-0.09716666666666667,0.05439291666666667,3.1302679166666665,1.8295833333333333,6.712904166666665,-0.4483249999999999,0.6066666666666667,121.66854166666667,113.29583333333333,1.045,2.6975,40.46916245208333,-3.4468391491666672,1.95876,121.33683333333335,1.0642943287037039,0
5279.5,527.95,128.28441666666666,40.47181320666667,-3.4366380575,587.1035416666666,4.549166666666666,5.020833333333333,70.15166666666667,1.191605,0.1375,0.495,0.0,1.0,-0.010152916666666668,0.00016333333333333328,-0.0015416666666666667,-0.010105,0.0001091666666666667,-0.0016004166666666667,-1.5636208333333335,-0.0008004166666666679,-2.4276324999999996,-0.12260375000000001,0.05458708333333334,3.0667208333333336,1.83625,7.554937499999999,-0.480525,0.5845833333333333,128.42329166666667,117.1875,1.0,2.8975,40.47135511666667,-3.438023795,2.015850416666667,127.94454166666668,1.0889287037037036,0
5519.5,551.95,134.44916666666666,40.47458233458333,-3.427496455416667,587.7610833333333,4.7675,5.020833333333333,67.81354166666667,1.0791075,0.09958333333333333,0.4741666666666667,0.0,1.0,-0.009994583333333334,0.0007179166666666668,-0.0003787499999999999,-0.010012916666666666,0.0006612500000000002,-0.0004108333333333333,-1.55974875,-0.0036491666666666664,-2.4241645833333334,-0.1239575,0.06145208333333334,3.0359470833333333,1.82875,7.9517750000000005,-0.531925,0.5179166666666667,134.53066666666666,120.0,1.0,3.07875,40.47408857375,-3.4289065229166664,2.00373875,134.15554166666666,1.1204097222222222,0
5759.5,575.95,135.46625,40.4776958225,-3.4182520266666665,587.9927083333333,4.908333333333333,5.020833333333333,65.17879166666667,1.0091845833333333,0.09958333333333333,0.34125,0.0,1.0,-0.00974625,5.958333333333343e-05,0.00020874999999999995,-0.009800416666666667,-4.9583333333333235e-05,0.00019666666666666666,-1.5530666666666666,-0.001210416666666666,-2.4043108333333336,-0.10259208333333333,0.06230333333333333,3.0201966666666666,1.86625,8.9996875,-0.42722499999999997,0.6629166666666667,135.4355416666667,120.0,1.0,3.0,40.47717332958334,-3.4196731216666665,2.0283104166666663,135.353125,1.1288854166666669,0
5999.5,599.95,134.647,40.481193204166665,-3.409184208333333,588.2418333333333,4.843333333333334,5.0,61.633874999999996,1.0501966666666667,0.13708333333333333,0.3120833333333333,0.0,1.0,-0.009949166666666667,-7.708333333333322e-05,0.00055125,-0.010093333333333334,-0.00018416666666666627,0.0005291666666666666,-1.5537183333333333,0.00032333333333333254,-2.3816525,-0.05419833333333334,0.058225416666666675,2.9951708333333333,1.8366666666666667,7.0896875,-0.5172125,0.6220833333333333,134.60779166666669,120.0,1.0,3.033333333333333,40.48063944166667,-3.410532749583333,1.98896,134.50212499999998,1.1220583333333332,0
6239.5,623.95,130.88774999999998,40.4850086175,-3.4003785795833332,588.386,4.816666666666666,5.0,59.77954166666667,1.1829695833333334,0.19541666666666666,0.5120833333333333,0.0,1.0,-0.010129583333333332,-0.0003733333333333331,-0.0014916666666666663,-0.01026125,-0.0004370833333333336,-0.001503333333333333,-1.5490408333333332,-0.0003916666666666672,-2.3821054166666666,0.0038425000000000035,0.04795875,2.976094166666667,1.8420833333333333,7.4009833333333335,-0.4791541666666666,0.6225,130.779375,120.0,1.0,3.1195833333333334,40.48443601208334,-3.4017040395833336,2.0008925,130.94779166666666,1.0907312500000002,0
5765.541666666667,576.5541666666667,121.10171555343851,40.488809889659294,-3.3921591939238436,589.1156215539802,6.151519146923156,14.953064918405131,64.95127078458611,1.8258526337215646,-0.19175638230771852,0.12449361769228147,0.0,0.9533333333333334,-0.010085,-0.0015550000000000002,-0.0019374999999999998,-0.0101175,-0.00149,-0.0019908333333333336,-1.5560475,-0.001788333333333334,-2.1666495833333332,-0.3624266666666667,-0.3304795833333334,2.47487375,1.355,7.528812500000001,-0.46953750000000005,0.6195833333333334,124.78912500000001,118.04060508823036,1.0,3.0469207008656083,40.48668210332936,-3.3977295689528892,1.9229023271881898,124.82636033717911,1.012800348547757,0
5260.541666666667,526.0541666666667,117.28754888677186,40.492426894659296,-3.3853253926738436,588.7858715539801,6.160685813589822,14.95306491840513,83.29697911791945,2.0145038837215647,-0.13758971564105185,0.40074361769228145,0.0,0.9533333333333334,-0.010108750000000001,-0.0011695833333333335,-0.0020375000000000002,-0.010162916666666666,-0.001085833333333333,-0.0020570833333333335,-1.5607912499999999,-0.0004991666666666669,-1.9141133333333336,-0.34330750000000004,-0.3365329166666666,2.44761125,1.36125,6.442616666666667,-0.51385,0.6204166666666666,121.00399999999999,118.04060508823036,1.0,3.0481707008656085,40.490378291246024,-3.3904722456195553,1.8693785771881897,120.95186033717913,0.9810156263255351,0
4755.541666666667,475.5541666666667,114.29371555343852,40.49550128299263,-3.380251446007177,589.2202048873135,6.101519146923156,14.953064918405131,99.94831245125276,2.0279947170548986,-0.11300638230771852,0.7007436176922814,0.0,0.9533333333333334,-0.010137499999999999,-0.0010808333333333332,-0.0021820833333333336,-0.01012625,-0.0010129166666666665,-0.0022054166666666667,-1.5606449999999998,0.0021025000000000006,-1.6614270833333333,-0.33096375000000006,-0.3409141666666667,2.4325633333333334,1.375,6.442616666666668,-0.51385,0.595,118.00670833333335,118.04060508823036,1.0,3.0481707008656085,40.493577678746014,-3.385107552286222,2.0254223271881897,117.88411033717912,0.9560670152144238,0
4250.541666666667,425.0541666666667,111.1128405534385,40.49789774799263,-3.376917299757176,589.6773715539803,6.093185813589822,14.953064918405131,117.68772911791945,1.8663001337215652,-0.07092304897438519,0.9882436176922814,0.0,0.9533333333333334,-0.009504166666666668,-0.001445833333333333,-0.002040416666666666,-0.009475,-0.0013220833333333329,-0.002064583333333333,-1.5618316666666665,-0.0019220833333333332,-1.4367670833333333,-0.2926895833333334,-0.34657458333333335,2.4101991666666667,1.3704166666666666,6.790358333333334,-0.4934375,0.63375,114.83145833333333,117.48602175489704,0.9908333333333333,3.029837367532275,40.49624606791268,-3.3812110422862225,2.630547743854856,114.76331867051245,0.42803993188109035,0
3745.5416666666665,374.5541666666667,108.5146322201052,40.49936684174263,-3.3750789680905102,589.6728298873135,6.068185813589823,14.953064918405131,137.23668745125275,1.8206705503882317,0.012826951025614809,1.322410284358948,0.017083333333333332,0.9533333333333334,-0.009673333333333334,-0.0020199999999999997,-0.0020120833333333327,-0.009627916666666667,-0.00184625,-0.002044583333333333,-1.5627133333333332,-0.0004258333333333327,-1.2099445833333333,-0.22560416666666658,-0.35692708333333334,2.3850854166666666,1.3766666666666667,7.3560291666666675,-0.46206250000000004,0.6729166666666667,112.24637500000001,112.79727175489704,0.9133333333333333,2.874837367532275,40.498041852912685,-3.3788680702028886,3.003400660521523,112.08165200384582,-3.8107559014522425,0
3240.5416666666665,324.0541666666667,105.3363822201052,40.499785712159294,-3.3745651030905104,588.8882048873136,6.184019146923156,14.953064918405131,155.5752291179194,1.781337633721565,0.061993617692281476,1.7815769510256148,0.11708333333333333,0.9533333333333334,-0.00959375,-0.0017375,-0.0019270833333333334,-0.009489166666666667,-0.0015929166666666667,-0.0019387499999999997,-1.5617870833333332,0.003261666666666668,-0.9625791666666667,-0.21275958333333334,-0.36310833333333337,2.36164875,1.3604166666666666,6.2204250000000005,-0.46852083333333333,0.7333333333333333,109.05395833333333,112.79727175489704,0.9133333333333333,2.874837367532275,40.49863875791268,-3.3781277814528887,2.978731077188189,109.25086033717913,-3.83724131811891,1
2735.5416666666665,273.5541666666667,101.53942388677186,40.499174025075966,-3.37543360934051,587.4976632206468,6.191519146923156,14.95306491840513,172.94947911791942,1.7622343003882315,0.07949361769228147,2.1682436176922812,0.18333333333333332,0.9533333333333334,-0.009787500000000001,-0.0027508333333333334,-0.0021058333333333333,-0.009562916666666667,-0.002582916666666666,-0.0021325000000000003,-1.5624329166666666,0.009082499999999999,-0.71384625,-0.1889204166666667,-0.36781791666666663,2.3266429166666662,1.3508333333333333,5.487970833333334,-0.4717333333333334,0.7820833333333334,105.249,112.79727175489704,0.9133333333333333,2.874837367532275,40.498220179996025,-3.378739507702889,3.2403477438548567,105.5770270038458,-3.8688826375633547,1
2230.5416666666665,223.05416666666667,98.44259055343852,40.49762861382597,-3.3776320922571768,586.0709965539801,6.037352480256489,14.953064918405131,188.98981245125276,1.7426788837215648,0.11282695102561481,2.4132436176922814,0.18333333333333332,0.9533333333333334,-0.009698333333333331,-0.001993333333333333,-0.0021645833333333335,-0.009472083333333334,-0.0018066666666666667,-0.0022245833333333336,-1.5629854166666666,0.011997916666666667,-0.4705108333333334,-0.17675375000000002,-0.3744995833333334,2.2664166666666663,1.3491666666666666,3.6093250000000006,-0.6209166666666667,0.7120833333333333,102.15554166666668,111.53685508823037,0.8925,2.833170700865608,40.496889570829346,-3.3806911922862226,3.444831493854856,102.35161033717912,-4.872940970896688,1
1725.5416666666667,172.55416666666667,96.29196555343852,40.49523394632596,-3.38113756934051,584.1371632206469,6.1040191469231555,14.953064918405131,205.81214578458614,1.811136800388232,0.09199361769228148,2.5424102843589482,0.18333333333333332,0.9533333333333334,-0.009889166666666668,-0.0012016666666666664,-0.00238625,-0.009612916666666665,-0.0010358333333333333,-0.00245125,-1.5649154166666666,0.009291666666666667,-0.2465429166666667,-0.20198750000000007,-0.37918583333333333,2.261573333333333,1.3658333333333332,4.562995833333334,-0.5504125,0.77875,100.0515,109.8226884215637,0.8641666666666666,2.7431707008656083,40.494642610412676,-3.3839986497862222,3.7490835771881894,100.06406867051247,-6.230853818118908,1
1220.5416666666667,122.05416666666666,97.24338222010519,40.492200152575954,-3.3859835801738436,582.7006632206469,6.172352480256489,14.953064918405131,223.4028957845861,1.7437684670548985,0.10074361769228148,2.5553269510256147,0.18333333333333332,0.9533333333333334,-0.009985416666666667,-0.0017054166666666667,-0.0006262500000000001,-0.009704166666666666,-0.0015620833333333333,-0.0007133333333333332,-1.5697462500000001,0.00806625,-0.01980208333333333,-0.20695999999999992,-0.37622083333333334,2.24841875,1.3366666666666667,4.762075,-0.5614583333333333,0.7941666666666667,101.04125,109.8226884215637,0.8641666666666666,2.656920700865608,40.491668596246015,-3.3886745447862223,3.7856131605215237,100.92456867051247,-6.222925345896687,1
1429.5,142.95,102.61366666666667,40.488893213749996,-3.3920308175,580.7475,5.029166666666667,5.020833333333333,235.33616666666668,1.0448141666666666,0.5541666666666667,3.2891666666666666,0.18333333333333332,1.0,-0.010023750000000001,-0.0005466666666666668,-0.0005691666666666666,-0.009869166666666667,-0.0005479166666666666,-0.0005979166666666667,-1.5630354166666667,0.01025125,-0.000572499999999998,0.20775083333333336,-0.0068758333333333345,2.72120125,1.8404166666666666,6.735062499999999,-0.42275,0.9533333333333334,102.60683333333334,111.78208333333333,0.8641666666666666,2.7295833333333333,40.48998677541667,-3.3900788737499994,3.973582499999999,102.63520833333335,-6.1817923611111105,1
1669.5,166.95,101.833875,40.485395519583335,-3.3984523533333335,579.8586666666666,5.1125,5.064583333333333,234.53862499999997,0.8336170833333333,0.5416666666666666,3.466666666666667,0.23708333333333334,1.0,-0.010179583333333332,-0.0006245833333333334,-0.00041041666666666673,-0.010058333333333334,-0.0005625000000000001,-0.00042583333333333346,-1.5623916666666666,0.007866666666666666,-0.019967083333333337,0.23249583333333335,-0.00883208333333333,2.7124175,1.8204166666666666,8.104291666666668,-0.3098416666666667,1.1091666666666666,101.81695833333333,111.78208333333333,0.8641666666666666,2.7283333333333335,40.48649324083333,-3.396527815,3.945377916666667,101.93804166666666,-6.1882906250000005,1
1909.5,190.95,100.71266666666666,40.4820162675,-3.404868221666667,579.62225,5.288333333333333,5.064583333333333,236.57166666666666,0.8555754166666668,0.6179166666666667,3.6254166666666667,0.29583333333333334,1.0,-0.010264166666666666,-0.00106375,-0.0003366666666666666,-0.010099166666666666,-0.0009891666666666666,-0.0003575000000000001,-1.5626887499999997,0.005355833333333333,-0.03789041666666666,0.25444208333333335,-0.010285833333333333,2.6968879166666664,1.8208333333333333,9.715987499999999,-0.21291666666666667,1.23375,100.67675,111.78208333333333,0.8641666666666666,2.7283333333333335,40.483045527499996,-3.4029652720833337,4.022809583333332,100.89420833333332,-6.197634027777778,1
2149.5,214.95,99.21708333333333,40.47887596208333,-3.4112861229166667,579.3196250000001,5.488333333333333,5.064583333333333,238.86458333333334,0.8762304166666667,0.6545833333333333,3.8379166666666666,0.3958333333333333,1.0,-0.010325833333333333,-0.00060625,-0.0003533333333333334,-0.010245,-0.0005525,-0.00037375,-1.56267,0.00464875,-0.04325749999999999,0.2483820833333333,-0.01312875,2.66922625,1.82625,9.982495833333333,-0.19421666666666668,1.3183333333333334,99.18533333333333,112.33666666666667,0.8733333333333333,2.7466666666666666,40.47970443749999,-3.4097161445833333,3.452700833333333,99.30845833333333,-5.708577430555555,1
2389.5,238.95,98.63074999999999,40.47602511583332,-3.4177579175,579.169625,5.571666666666666,5.064583333333333,241.91458333333333,0.8602566666666667,0.57875,3.9491666666666667,0.4741666666666667,1.0,-0.01023625,-0.0004108333333333333,-0.0003966666666666667,-0.010158333333333333,-0.0003670833333333334,-0.0004054166666666666,-1.5635416666666666,0.0013191666666666673,-0.051125416666666666,0.214325,-0.009565416666666667,2.66115625,1.8025,12.7619625,-0.02245416666666666,1.4979166666666666,98.61316666666666,117.02541666666667,0.9508333333333333,2.901666666666667,40.47670687958334,-3.416322699583333,2.9384454166666663,98.627875,-1.4963194444444448,1
2629.5,262.95,97.21216666666666,40.47356943416666,-3.42437054875,579.1653749999999,5.453333333333333,5.064583333333333,246.40025000000003,0.8664579166666666,0.53375,3.7104166666666667,0.37416666666666665,1.0,-0.010288750000000001,-0.0008208333333333334,-0.00013291666666666676,-0.0102275,-0.00072125,-0.00012708333333333332,-1.5640495833333334,-0.0005133333333333331,-0.06464583333333332,0.24111375,-0.009558750000000001,2.6562658333333333,1.8166666666666667,12.111408333333332,-0.06434166666666666,1.5525,97.19495833333335,117.02541666666667,0.9508333333333333,2.901666666666667,40.474191346666665,-3.42296533125,2.889722083333333,97.19458333333333,-1.5081409722222217,1
2869.5,286.95,97.93504166666666,40.47158807875,-3.4311741120833337,579.8634166666667,5.420833333333333,5.064583333333333,251.29125,0.8505912499999999,0.5625,3.42375,0.30791666666666667,1.0,-0.010095833333333332,-0.00037500000000000017,-0.0005962499999999999,-0.010107916666666666,-0.00031458333333333344,-0.0005616666666666666,-1.56756,-0.005174166666666666,-0.07124875,0.21279166666666668,-0.00916083333333333,2.6807616666666667,1.81,13.254770833333334,-0.013366666666666653,1.5595833333333333,97.96675,117.02541666666667,0.9508333333333333,2.901666666666667,40.47206039625,-3.4298438591666667,2.6860533333333336,97.69129166666667,-1.5021170138888886,1
3109.5,310.95,98.51791666666666,40.47003557666667,-3.438327027916667,580.5079583333332,5.6175,5.064583333333333,255.74233333333336,0.9085508333333333,0.57875,3.45,0.30791666666666667,1.0,-0.010181250000000001,-0.00060625,-0.0006525000000000001,-0.010169583333333334,-0.0005375,-0.00059875,-1.5664466666666665,-0.00495375,-0.06727291666666665,0.1986754166666667,-0.0027275,2.73322625,1.8041666666666667,14.355179166666664,0.05465416666666667,1.61625,98.51854166666666,117.32791666666667,0.96375,2.9275,40.470337810000004,-3.4370714570833334,2.5396775,98.51720833333333,-1.311936458333333,1
3349.5,334.95,97.222,40.46884778541667,-3.445701648333334,581.3291666666667,5.674166666666666,5.064583333333333,260.544375,1.1128083333333332,0.5833333333333334,3.55,0.30791666666666667,1.0,-0.0107125,-0.0011483333333333335,-0.0011654166666666668,-0.010763333333333333,-0.00108375,-0.0010904166666666666,-1.5657329166666667,-0.007474583333333333,-0.08500916666666666,0.21346375,0.0001387500000000023,2.7640833333333332,1.7845833333333334,12.620808333333333,-0.092475,1.4816666666666667,97.18466666666667,116.90875,0.9920833333333333,2.8958333333333335,40.46905543,-3.4443426133333332,2.5898629166666667,97.6735,0.03753360615079368,1
3589.5,358.95,94.87533333333333,40.46799634125,-3.4530131566666658,582.1563333333335,5.5325,5.064583333333333,260.53270833333335,1.7382204166666668,0.5408333333333334,3.5570833333333334,0.30791666666666667,1.0,-0.012036666666666666,-0.0035437500000000005,-0.005515416666666666,-0.01212375,-0.0035812500000000002,-0.005371249999999999,-1.5686654166666667,0.0055025,-0.02742958333333333,0.15912166666666666,0.0038062499999999993,2.77228875,1.7975,11.205558333333332,-0.19854166666666667,1.3508333333333333,94.81604166666666,112.41708333333334,1.0545833333333334,2.6958333333333333,40.46817865208333,-3.451682316666666,2.5986474999999998,95.27804166666667,0.057047604166666634,1
3829.5,382.95,92.08158333333333,40.46713356125,-3.4596777858333327,583.3182499999999,5.365833333333334,5.04375,245.84416666666667,3.0764774999999998,0.4866666666666667,3.3691666666666666,0.30791666666666667,1.0,-0.013570833333333336,-0.0021720833333333327,-0.008495833333333334,-0.013680416666666665,-0.0022333333333333346,-0.008367499999999998,-1.5753545833333331,0.018534583333333333,-0.08286333333333334,0.12174125,0.0133325,2.803439583333333,1.7870833333333334,9.278775,-0.33084583333333334,1.1716666666666666,92.07945833333332,107.12125,1.0720833333333333,2.495833333333333,40.46727889875,-3.4585686229166672,2.3849633333333333,92.38375,0.08382026620370378,1
4069.5,406.95,91.88879166666666,40.46659169625,-3.465036882916667,584.3532499999999,5.358333333333333,5.0,228.09154166666664,3.233346666666667,0.4825,3.1154166666666665,0.25416666666666665,1.0,-0.013118333333333333,-0.0019320833333333336,-0.008616666666666667,-0.013225,-0.0020645833333333336,-0.008521666666666667,-1.5739312500000002,0.019067083333333335,-0.3820016666666667,0.08946291666666666,0.012995000000000003,2.8202587500000003,1.80125,7.9496625,-0.4400583333333334,1.1070833333333334,91.87841666666667,104.12125,1.0720833333333333,2.2958333333333334,40.466684809166665,-3.4641231108333335,2.4182645833333334,92.23850000000002,0.10771679398148147,1
4309.5,430.95,92.44770833333334,40.466353100416676,-3.4689312,584.4542916666666,5.215833333333333,5.0,210.41575,3.2445312500000005,0.39875,2.8566666666666665,0.19541666666666666,1.0,-0.013007916666666668,-0.0016958333333333335,-0.008695,-0.013205833333333333,-0.0018341666666666667,-0.008574583333333332,-1.5754870833333332,0.018659999999999996,-0.4229791666666667,0.05121375,0.013525833333333334,2.8339608333333333,1.7804166666666668,8.280029166666665,-0.3979375,1.1729166666666666,92.46970833333333,103.88375,1.0720833333333333,2.3658333333333332,40.466403944583334,-3.4682630304166664,2.17448375,92.75783333333334,0.11449804398148142,1
4549.5,454.95,93.67741666666666,40.466262318750005,-3.4712663800000003,584.8428333333334,5.083333333333333,5.0,193.61825000000002,3.2338125,0.34875,2.5566666666666666,0.09541666666666666,1.0,-0.01295375,-0.0018637500000000004,-0.008473749999999999,-0.013095833333333333,-0.0019904166666666677,-0.0083575,-1.5763645833333333,0.017869166666666672,-0.4874008333333334,0.04630124999999999,0.01623166666666667,2.8565275,1.7741666666666667,10.003775,-0.26826666666666665,1.195,93.70158333333333,103.88375,1.0720833333333333,2.3658333333333332,40.466299730833335,-3.4707701124999994,2.108227916666667,93.97875,0.1247456134259259,1
4789.5,478.95,93.94666666666667,40.46621811208333,-3.4720102004166664,585.2475,5.023333333333333,5.0,176.30429166666667,3.25242625,0.3545833333333333,2.265833333333333,0.0,1.0,-0.0128425,-0.0022925000000000003,-0.008455,-0.013039166666666668,-0.0024479166666666673,-0.008364583333333333,-1.5743733333333334,0.016247916666666664,-0.7893345833333334,0.04994666666666666,0.018681666666666666,2.8630429166666667,1.7929166666666667,8.703645833333333,-0.30588750000000003,1.13125,93.94225000000002,103.88375,1.0720833333333333,2.3658333333333332,40.46624412791667,-3.4718330366666668,2.0671475000000004,94.43216666666667,0.1269893634259258,1
5029.5,502.95,94.67154166666667,40.46622599041667,-3.4711538691666664,585.4903333333333,4.91625,5.0,157.58725,3.257212083333333,0.3958333333333333,2.283333333333333,0.0,1.0,-0.012748750000000001,-0.002035833333333333,-0.008605,-0.012975416666666666,-0.0022512500000000015,-0.008522499999999999,-1.5745833333333332,0.01582,-1.0831308333333334,0.05902166666666666,0.01736625,2.8679858333333335,1.7808333333333333,8.452129166666667,-0.3255125,1.1733333333333333,94.67541666666666,103.88375,1.0720833333333333,2.3658333333333332,40.46624276166667,-3.4711864033333337,2.221165,95.14120833333332,0.13302998842592606,1
5269.5,526.95,93.83820833333334,40.466281306666666,-3.468736862916667,585.6439999999999,4.661666666666667,5.0,138.29741666666666,3.266967916666667,0.44583333333333336,2.53,0.04625,1.0,-0.01296625,-0.002011666666666667,-0.008255833333333334,-0.013162083333333335,-0.0022100000000000006,-0.0081875,-1.5726983333333333,0.018652500000000002,-1.3828250000000002,0.11376041666666666,0.013869583333333336,2.857100833333333,1.8120833333333333,8.534158333333334,-0.31867083333333335,1.29125,93.796125,103.88375,1.0720833333333333,2.3658333333333332,40.46628821916666,-3.4689619866666663,2.224009166666667,94.42383333333333,0.12608554398148147,1
5509.5,550.95,93.08762499999999,40.46649049541667,-3.4647395566666668,585.9871666666668,4.4783333333333335,5.0,119.88483333333332,3.2390391666666667,0.48,2.9054166666666665,0.14625,1.0,-0.01263,-0.0021337500000000002,-0.008364166666666666,-0.012839166666666667,-0.0023429166666666668,-0.008312083333333333,-1.5735304166666666,0.017401666666666666,-1.6956333333333333,0.15111875,0.005566666666666668,2.84357125,1.8241666666666667,9.447279166666666,-0.2204,1.2975,93.075375,104.84166666666667,1.08,2.381666666666667,40.46647649875,-3.4651335375,2.1920033333333335,93.53195833333334,0.9127588078703703,1
5749.5,574.95,93.81925000000001,40.46694153916667,-3.459333909166667,585.4587083333333,4.421666666666667,5.0,99.49495833333333,2.9570058333333336,0.5170833333333333,3.3054166666666664,0.24625,1.0,-0.012235,-0.0017750000000000003,-0.008052499999999999,-0.012311666666666665,-0.0019816666666666676,-0.007984166666666667,-1.574454166666667,0.024655833333333335,-1.9697195833333334,0.16814624999999997,0.0005208333333333318,2.80518625,1.8670833333333334,11.039420833333333,-0.1029375,1.5433333333333332,93.84224999999999,106.975,1.08,2.47,40.46685051291667,-3.4601590362499994,1.9878829166666667,93.77670833333333,0.8985772850529099,1
5989.5,598.95,95.10579166666666,40.467579577500004,-3.4526822637499994,584.5235416666667,4.555,5.0,82.20625,2.2511904166666667,0.6091666666666666,3.7308333333333334,0.34625,1.0,-0.010751666666666668,0.0010158333333333336,-0.003562500000000001,-0.010819166666666668,0.0008266666666666666,-0.0035558333333333336,-1.5694883333333334,0.015379583333333334,-2.31624625,0.23256416666666666,-0.007467083333333336,2.7913391666666665,1.87875,12.535233333333334,0.03436666666666666,1.8020833333333333,95.11229166666666,110.26666666666667,1.0975,2.59,40.467436936666665,-3.453715237916667,2.0941691666666666,95.12941666666667,0.8805252083333333,1
6229.5,622.95,96.74008333333335,40.46860402791666,-3.4453379712499994,583.1197916666666,4.63,5.0,78.35854166666667,0.9721029166666667,0.63375,4.139166666666667,0.44625,1.0,-0.009235833333333334,-0.00012791666666666672,-0.00033375000000000006,-0.009310833333333334,-0.00026875,-0.0003208333333333334,-1.5644820833333333,0.0008066666666666667,-2.5526741666666664,0.24845874999999998,-0.016385416666666666,2.7566725,1.8929166666666666,13.32665833333333,0.1279,2.07125,96.72316666666669,115.5625,1.08,2.79,40.46842048250001,-3.44644407,2.1763904166666665,96.72895833333334,0.8440903935185186,1
6469.5,646.95,97.25654166666668,40.46979503666667,-3.4380067212500003,582.2551666666666,4.5633333333333335,5.0,75.99533333333333,0.8932874999999999,0.6008333333333333,4.3133333333333335,0.4625,1.0,-0.009649166666666667,-0.00031583333333333344,7.499999999999997e-05,-0.009713333333333334,-0.0004316666666666667,0.00010875,-1.5663162499999999,0.00027166666666666783,-2.5413825,0.2639175,-0.016733333333333333,2.7462645833333332,1.8879166666666667,14.8803375,0.2765208333333333,2.1875,97.25245833333334,118.5625,1.08,2.99,40.46957854208333,-3.4390944724999994,2.1722379166666665,97.00225,0.822891087962963,1
6709.5,670.95,96.74024999999999,40.47129536333334,-3.430889095,581.9328333333334,4.5633333333333335,5.0,71.619375,0.8576308333333332,0.625,4.329583333333333,0.4625,1.0,-0.009984166666666667,-0.00015833333333333332,-0.0002029166666666667,-0.00997875,-0.0002395833333333332,-0.0001583333333333332,-1.5630145833333333,0.002881666666666666,-2.793462083333333,0.2871445833333333,-0.0176575,2.7440145833333336,1.8579166666666667,14.404720833333334,0.2702,2.16375,96.66520833333334,118.8,1.08,2.92,40.4709690025,-3.432042500833333,2.3740912499999998,96.78775,0.8164650462962962,1
6949.5,694.95,94.93541666666667,40.4731760275,-3.4241777525,581.9074583333332,4.5425,5.0,66.51870833333334,0.8808991666666668,0.6083333333333333,4.329583333333333,0.4625,1.0,-0.010107083333333334,-3.083333333333336e-05,-0.00030791666666666673,-0.0101375,-0.0001516666666666667,-0.00024291666666666645,-1.5662708333333335,0.003175416666666667,-2.6396345833333332,0.2814933333333333,-0.02141833333333333,2.7315970833333334,1.8820833333333333,12.6711125,0.1696375,2.151666666666667,94.90741666666666,118.8,1.08,2.92,40.4727328175,-3.4253882054166667,2.6887966666666663,94.56858333333334,0.8014247685185185,1
7189.5,718.95,94.22345833333333,40.47549610875,-3.4177667537500005,582.2148333333333,4.6425,5.0,62.031083333333335,0.8699066666666666,0.6491666666666667,4.392083333333333,0.4625,1.0,-0.010103750000000002,0.00029416666666666664,-0.00014666666666666666,-0.010085833333333334,0.0002025000000000001,-7.33333333333333e-05,-1.5671658333333334,0.006123333333333334,-2.5343424999999997,0.30125375,-0.025498333333333335,2.722680416666667,1.89,11.115591666666665,0.03277916666666667,2.08125,94.19912500000001,118.8,1.08,2.92,40.475023836666665,-3.418870920833333,2.5576008333333333,93.80866666666667,0.7954917824074075,1
7429.5,742.95,93.98366666666666,40.47818750291667,-3.4116072099999997,582.8766666666667,4.810416666666667,5.0,58.61866666666666,0.8861424999999999,0.6241666666666666,4.37125,0.4625,1.0,-0.010061249999999999,0.00033666666666666675,-0.0001429166666666667,-0.010027916666666666,0.00025666666666666665,-6.833333333333335e-05,-1.5686370833333334,0.005560416666666666,-2.03489875,0.2834708333333333,-0.024018333333333333,2.7112754166666666,1.86125,12.297341666666664,0.1090625,1.9370833333333333,93.98266666666667,118.8,1.08,2.92,40.47769879291666,-3.4125933662500003,2.4023625,93.49583333333334,0.7934935185185185,1
7669.5,766.95,94.55387499999999,40.481164754999995,-3.405577634166667,583.3864166666666,5.013333333333334,5.0,56.34012500000001,0.87049375,0.5958333333333333,4.279166666666667,0.41625,1.0,-0.010123333333333333,1.7083333333333255e-05,-0.00011124999999999982,-0.010126666666666667,-5.8333333333333245e-05,-6.916666666666664e-05,-1.5685941666666667,0.005026666666666667,-1.6080091666666667,0.27820625000000004,-0.022764999999999997,2.711862916666667,1.8604166666666666,10.942370833333333,0.023066666666666624,1.7695833333333333,94.56370833333334,118.8,1.08,2.92,40.48065506791667,-3.4065487120833335,2.3871925,94.042,0.7982452546296296,1
7909.5,790.95,95.348625,40.48436517375001,-3.3995997320833333,584.0500833333333,5.013333333333334,5.0,54.33433333333333,0.873325,0.6325,4.111666666666666,0.3954166666666667,1.0,-0.010469583333333332,0.0003066666666666667,-2.3750000000000066e-05,-0.01044,0.00022625000000000002,3.6250000000000204e-05,-1.5707454166666668,0.004823749999999999,-1.1736708333333334,0.2873425,-0.02131875,2.7100558333333336,1.845,9.801295833333334,-0.08494583333333336,1.7983333333333333,95.36645833333333,118.8,1.08,2.92375,40.483842287916666,-3.400555219166667,2.360144583333333,94.84141666666667,0.8048681712962963,1
8149.5,814.95,95.99958333333333,40.48771957541667,-3.3936494908333334,586.0392499999999,4.98,5.0,53.490249999999996,0.9426695833333334,0.6745833333333333,3.9875,0.3954166666666667,1.0,-0.009899166666666667,0.0006070833333333333,2.2083333333333305e-05,-0.009980416666666669,0.0005079166666666666,3.20833333333335e-05,-1.5702704166666668,0.00373125,-0.57427875,0.2938570833333333,-0.009947083333333334,2.7045654166666666,1.845,8.2520125,-0.19814583333333333,1.5279166666666666,95.9975,118.8,1.08,3.02375,40.48720913458333,-3.3945074083333338,2.300487083333333,95.61004166666666,0.8102928240740742,1
7990.17125,799.0171250000001,92.75412500000002,40.49104859375,-3.3878125895833335,588.5613749999999,5.965,13.248333333333333,51.26183333333333,1.0112454166666667,0.23708333333333334,3.35625,0.35333333333333333,0.9579166666666666,-0.0109775,-0.006129166666666668,-0.002917083333333334,-0.01110125,-0.006325833333333334,-0.0029691666666666673,-1.5754904166666668,-0.009554166666666667,-0.1348941666666665,-0.09580833333333331,-0.38336500000000007,2.2178095833333336,1.3775,6.756200000000001,-0.3354500000000001,1.2775,96.00604166666666,117.77767075618452,1.0583333333333333,2.99221687114256,40.48921411506948,-3.392520922756472,2.1184793006077833,95.63463091010587,0.7806975694444445,1
7281.27125,728.1271250000001,91.75370833333332,40.49422539291667,-3.382365575833333,591.413875,6.273333333333333,15.649583333333334,68.76658333333333,1.4160204166666668,0.1675,2.912916666666667,0.2658333333333333,0.9483333333333334,-0.011168333333333334,-0.0081325,-0.003657083333333334,-0.011210416666666667,-0.008467500000000001,-0.003717083333333334,-1.57673125,-0.009216666666666666,0.08396583333333335,-0.18773041666666668,-0.46622541666666656,2.1579941666666667,1.2283333333333333,6.780354166666666,-0.35129166666666667,1.12,95.87891666666668,115.67925530594152,1.0683333333333334,2.937295584490806,40.492081516009115,-3.38817841373059,2.0753951891290696,95.69378706564153,-0.07452359047591818,1
6572.37125,657.237125,92.33108333333332,40.49701144625,-3.378149303333333,594.3573749999999,6.189166666666667,15.649583333333334,88.61316666666667,1.5058404166666668,0.16708333333333333,2.8245833333333334,0.24958333333333332,0.9483333333333334,-0.010447916666666666,-0.0079425,-0.00409375,-0.010484583333333332,-0.008270833333333333,-0.0041875,-1.5762966666666667,-0.0074708333333333345,0.3348462500000002,-0.21681833333333325,-0.4584479166666667,2.2096733333333334,1.2241666666666666,6.9814875,-0.3638,1.0025,96.43666666666667,115.67925530594152,1.0683333333333334,2.937295584490806,40.494957776425785,-3.383779815813923,2.0529706057957364,96.28962039897486,-0.06971213214258493,1
5863.47125,586.347125,94.27604166666667,40.499000424583336,-3.3752035375,596.4408749999999,6.0775,15.649583333333334,108.65887500000002,1.5088633333333332,0.13416666666666666,2.8033333333333332,0.24958333333333332,0.9483333333333334,-0.010099583333333334,-0.008180833333333333,-0.004021666666666667,-0.010238333333333334,-0.008592083333333334,-0.004131250000000001,-1.5759270833333334,-0.0074154166666666665,0.5782066666666666,-0.23382208333333324,-0.4498320833333334,2.2603983333333333,1.2433333333333334,7.251179166666668,-0.43249166666666666,0.875,98.43375,115.67925530594152,1.0683333333333334,2.937295584490806,40.49711551350912,-3.38061054248059,1.9255589391290695,97.8905787323082,-0.05350414603147371,1
5154.57125,515.457125,96.51525,40.5002033925,-3.3734325012500004,597.2961666666666,5.95875,15.649583333333334,128.20425,1.5002641666666667,0.13041666666666665,2.6820833333333334,0.24958333333333332,0.9483333333333334,-0.010073333333333333,-0.007996250000000002,-0.0040391666666666675,-0.010142499999999999,-0.008369166666666665,-0.004161250000000001,-1.5706537500000002,-0.004506250000000002,0.4341616666666666,-0.24402000000000007,-0.4434825,2.327475416666667,1.2029166666666666,11.354379166666666,-0.28586249999999996,0.84375,100.62162500000001,115.67925530594152,1.0683333333333334,2.937295584490806,40.49849434809245,-3.378596025813923,1.6714326891290698,100.54887039897486,-0.0348440765870293,1
4445.67125,444.56712500000003,98.34341666666667,40.500594007500005,-3.3729167991666666,597.7406666666667,5.857083333333334,15.649583333333334,146.59829166666668,1.5184741666666668,0.05541666666666667,2.4891666666666667,0.24958333333333332,0.9483333333333334,-0.009981249999999999,-0.008132083333333337,-0.004145416666666667,-0.009984166666666667,-0.008540833333333334,-0.004269166666666668,-1.569255,-0.0020787500000000003,0.5783183333333333,-0.27512916666666665,-0.44052625000000006,2.38982375,1.1895833333333334,11.048058333333335,-0.3065375000000001,0.8941666666666667,102.458125,115.67925530594152,1.0683333333333334,2.937295584490806,40.498930638509115,-3.37801344123059,1.6466906057957365,102.33332873230819,-0.019609354364807055,2
3736.77125,373.677125,100.43191666666665,40.50010455166667,-3.3736446825,597.6672916666666,5.822916666666667,15.649583333333334,164.13037500000002,1.4840416666666665,0.034166666666666665,2.205416666666667,0.24958333333333332,0.9483333333333334,-0.010047916666666667,-0.007885833333333335,-0.004647916666666667,-0.010059166666666668,-0.008322083333333334,-0.004781666666666667,-1.5669237500000002,0.0018683333333333325,0.3194758333333333,-0.2944679166666667,-0.43830374999999994,2.4540533333333334,1.2170833333333333,18.09049583333334,-0.05703333333333333,0.9691666666666666,104.526375,115.67925530594152,1.0683333333333334,2.937295584490806,40.49849714434245,-3.37866078623059,1.6398626891290697,104.44591206564154,-0.002205187698140397,2
3027.87125,302.787125,101.85966666666666,40.49871071125,-3.375653932083333,597.0674583333333,5.755416666666667,15.649583333333334,180.27295833333332,1.5013150000000002,-0.01625,1.8683333333333334,0.24958333333333332,0.9483333333333334,-0.009793333333333334,-0.007849583333333333,-0.004890416666666667,-0.009792083333333333,-0.008265416666666667,-0.004997083333333333,-1.5642404166666668,0.0034329166666666657,0.13047500000000015,-0.33971499999999993,-0.43204583333333335,2.5053483333333335,1.1875,21.41867916666667,0.10920416666666669,1.0783333333333334,105.954875,115.67925530594152,1.0754166666666667,2.937295584490806,40.49716703975912,-3.380575405397256,1.5724385224624031,105.86528706564154,0.009692728968526201,2
2318.97125,231.897125,103.67120833333333,40.49641375125,-3.37894322,595.1189999999999,5.772083333333334,15.649583333333334,197.10375000000002,1.5860458333333334,-0.145,1.46375,0.17041666666666666,0.9483333333333334,-0.009880000000000002,-0.007850416666666667,-0.004870833333333334,-0.009939166666666666,-0.008275,-0.004987083333333334,-1.5617729166666667,-0.0010666666666666676,-0.0819879166666667,-0.3987666666666666,-0.42514250000000003,2.5686725,1.1895833333333334,22.349954166666667,0.12872916666666664,1.0008333333333332,107.77041666666666,115.67925530594152,1.0754166666666667,2.9335455844908065,40.49492488767578,-3.3837726316472563,1.5524518557957363,107.65874539897486,0.024788909524081835,2
1610.07125,161.007125,106.01037500000001,40.49340987416667,-3.38368617875,592.7830000000001,5.78125,15.649583333333334,215.63658333333336,1.5742549999999997,-0.24958333333333332,0.9504166666666667,0.07041666666666667,0.9483333333333334,-0.00998625,-0.008625416666666668,-0.004716250000000001,-0.01001,-0.009000000000000001,-0.004814166666666667,-1.5613675,-0.0048041666666666675,-0.46736416666666664,-0.4522341666666667,-0.43020249999999993,2.6199720833333333,1.16875,22.282370833333335,0.12269999999999999,1.0408333333333333,110.12066666666665,115.67925530594152,1.0754166666666667,2.8335455844908064,40.49203305517579,-3.3882180128972563,1.7031993557957366,109.95928706564152,0.04428196507963728,2
1300.5,130.05,112.33833333333334,40.49000327666667,-3.3898878595833337,589.8335,4.744583333333333,7.40125,235.7217916666667,1.4724225,0.07541666666666667,0.92375,0.0125,0.9904166666666666,-0.0094025,-0.001825,-0.0018095833333333334,-0.00932,-0.00205375,-0.001847916666666667,-1.5552266666666665,0.00853625,-0.6747758333333334,-0.12056999999999997,-0.045491250000000004,3.154263333333333,1.6308333333333334,24.485908333333334,0.2238958333333333,1.1229166666666666,113.23591666666667,117.901584549757,1.0170833333333333,2.945078713348247,40.49000330552297,-3.3903818951407847,1.6726067218546197,112.93023948886899,0.08926842341297075,2
1540.5,154.05,116.71808333333334,40.4863465575,-3.3972100095833326,586.9749583333333,4.3620833333333335,5.0,237.1689166666667,1.0516787499999998,0.1175,0.8004166666666667,0.0,1.0,-0.009091666666666666,-0.00029166666666666664,-0.0014141666666666667,-0.009020000000000002,-0.00034291666666666677,-0.0014266666666666666,-1.5524579166666668,0.00582375,-0.6764604166666667,-0.051817499999999996,0.04493333333333333,3.2644975,1.7333333333333334,26.410670833333338,0.2667041666666667,1.0895833333333333,116.71637500000001,120.0,1.0070833333333333,3.0,40.48670716708333,-3.3963940879166667,1.59496625,116.51195833333331,0.9726506944444444,2
1780.5,178.05,117.60266666666665,40.4826367225,-3.4047736920833334,584.1239166666667,4.487916666666667,5.0,238.38708333333332,0.8682845833333332,0.105,0.5145833333333333,0.0,1.0,-0.009393333333333333,-0.0007470833333333332,-0.0013133333333333335,-0.009396666666666666,-0.0008220833333333333,-0.0013162500000000001,-1.5484104166666666,0.002167083333333332,-0.71713375,-0.048485,0.04613291666666666,3.261589166666667,1.755,27.912141666666674,0.329575,1.11375,117.59987500000001,120.0,1.0070833333333333,3.0,40.482975405,-3.4039831616666665,1.5415525000000003,117.60841666666667,0.9800222222222222,2
2020.5,202.05,116.65004166666665,40.47919180791667,-3.4124422079166665,581.523,4.742083333333333,5.0,241.12279166666664,0.8598575000000002,0.10125,0.31958333333333333,0.0,1.0,-0.009553750000000001,-0.0006808333333333332,-0.00109,-0.009472083333333336,-0.0007112500000000001,-0.0010708333333333334,-1.5485995833333335,0.0009883333333333333,-0.7399858333333333,-0.04471416666666667,0.0427725,3.2429820833333336,1.76375,28.73334583333333,0.43100000000000005,1.1704166666666667,116.64666666666666,120.0,1.01625,3.0,40.47948438791666,-3.4116650366666668,1.5145266666666666,116.77558333333334,0.9720836805555554,2
2260.5,226.05,116.17445833333333,40.476099687083334,-3.4201972129166665,580.1349583333334,4.775,5.0,244.67966666666663,0.8545766666666667,0.08,0.24083333333333334,0.0,1.0,-0.009289583333333334,-0.001245833333333333,-0.0011250000000000001,-0.009249166666666668,-0.0012958333333333333,-0.0010849999999999998,-1.5501316666666667,-0.0025241666666666667,-0.76218,-0.05127,0.04487916666666667,3.231980833333333,1.7970833333333334,28.744500000000002,0.46586666666666665,1.1820833333333334,116.16758333333331,120.0,1.01625,3.0,40.47633019041667,-3.4194273999999996,1.4707133333333335,116.22345833333333,0.9681204861111109,2
2500.5,250.05,115.87833333333333,40.47344042208333,-3.4281023429166666,578.9625416666667,4.660416666666666,5.0,248.7361666666667,0.8485937499999999,0.08166666666666667,0.16666666666666666,0.0,1.0,-0.009646666666666666,-0.0013408333333333334,-0.0016091666666666667,-0.009674166666666666,-0.0013945833333333334,-0.0015820833333333331,-1.5493133333333333,-0.007253750000000001,-0.7787725000000001,-0.039592083333333326,0.046607083333333334,3.22661375,1.7995833333333333,35.06574166666667,0.7620333333333333,1.22,115.87179166666668,120.0,1.01625,3.0,40.47364942916666,-3.4272769975,1.5330958333333335,115.98570833333332,0.9656527777777778,2
2740.5,274.05,113.48708333333333,40.47121813583333,-3.4361382370833327,577.8482916666667,4.662083333333333,5.0,252.14066666666665,0.9105604166666665,0.08958333333333333,0.14625,0.0,1.0,-0.00970125,-0.001882083333333333,-0.0009462499999999999,-0.009701666666666667,-0.0018862500000000001,-0.0008841666666666667,-1.5475979166666665,-0.007880416666666668,-0.7835975000000001,-0.02800625,0.04932375,3.2081958333333334,1.8016666666666667,29.4815375,0.6288833333333333,1.3225,113.47970833333335,117.8825,0.99875,2.965,40.47140646083333,-3.435293152083333,1.549831666666667,113.62754166666666,-0.7815493055555557,2
2980.5,298.05,109.07225,40.469468739166665,-3.44421346625,577.2145833333333,4.620416666666666,5.0,258.25916666666666,1.2482637499999998,0.06958333333333333,0.13708333333333333,0.0,1.0,-0.010329583333333333,-0.002197083333333333,-0.0015720833333333335,-0.010398333333333334,-0.0021975,-0.0015179166666666665,-1.5470616666666666,-0.0148325,-0.8329058333333333,-0.01912708333333334,0.04914583333333333,3.25131,1.7420833333333334,27.216470833333332,0.5826958333333333,1.2920833333333333,109.06795833333332,114.72,0.9916666666666667,2.8341666666666665,40.46963546083333,-3.4432816699999997,1.6651454166666668,109.43958333333333,-0.7921205109126989,2
3220.5,322.05,104.074375,40.468267024166664,-3.4521967066666663,578.3535833333334,4.50375,5.0,259.557375,1.8292462500000004,0.09916666666666667,0.15916666666666668,0.0,1.0,-0.011056666666666668,-0.006506666666666667,-0.004175,-0.011145833333333334,-0.0063191666666666665,-0.004069166666666666,-1.55099875,-0.0028641666666666655,-0.7784937500000001,-0.03585875000000001,0.05119125,3.24312125,1.74625,28.457424999999997,0.7286875000000002,1.3179166666666666,104.05604166666667,110.20333333333333,1.0575,2.6341666666666668,40.46841505125,-3.4512130591666663,1.8379879166666664,104.3845,-0.796061790674603,2
3460.5,346.05,98.95041666666667,40.4672542325,-3.4594325454166666,580.1902083333333,4.31125,5.0,244.89845833333337,3.0036062500000003,0.10291666666666667,0.19666666666666666,0.0,1.0,-0.01111375,-0.01761125,-0.009407916666666669,-0.011191666666666666,-0.017624583333333332,-0.009377916666666668,-1.5575191666666668,0.0021799999999999996,-0.47571291666666665,-0.03265208333333334,0.053789583333333335,3.280860416666667,1.7491666666666668,29.474129166666668,0.8256999999999999,1.3304166666666666,98.91191666666667,105.07,1.0808333333333333,2.4341666666666666,40.467334468333334,-3.458684249583333,1.6012825000000002,99.20166666666667,-0.7898371378968254,2
3700.5,370.05,96.626625,40.46661783958333,-3.4651284679166663,581.5922499999999,4.1970833333333335,5.0,227.173125,3.18583,0.145,0.3175,0.0,1.0,-0.010928333333333333,-0.017864583333333333,-0.009475416666666667,-0.011057083333333334,-0.01787375,-0.0094625,-1.5593079166666666,0.0014599999999999984,-0.14437708333333338,-0.049694166666666664,0.04816541666666666,3.3094741666666665,1.73875,28.383458333333333,0.7909166666666667,1.3320833333333333,96.58333333333333,102.07,1.0808333333333333,2.234166666666667,40.46667059041666,-3.4644858275000003,1.62223125,96.84424999999999,-0.7825862119708997,2
3940.5,394.05,96.46866666666666,40.466350375416674,-3.4691152766666664,582.7302916666666,4.19625,5.0,210.026625,3.474325,0.14791666666666667,0.4175,0.0,1.0,-0.011043750000000001,-0.017087916666666664,-0.0090825,-0.011174583333333335,-0.0171275,-0.009105,-1.5603270833333334,0.0017750000000000008,0.18508500000000003,-0.050306250000000004,0.0465275,3.3163641666666663,1.7504166666666667,25.518666666666665,0.6574958333333334,1.2654166666666666,96.41820833333334,101.97,1.0808333333333333,2.3108333333333335,40.466365249166664,-3.4687661412499997,1.7379545833333334,96.44533333333332,-0.7828886425264551,2
4180.5,418.05,97.86183333333334,40.46624838666666,-3.4712724695833335,584.1760416666667,4.1970833333333335,5.0,193.38329166666665,3.474835833333333,0.15625,0.5175,0.0,1.0,-0.010959583333333333,-0.017890000000000003,-0.009229583333333333,-0.01106375,-0.017909166666666667,-0.009245416666666667,-1.5618033333333334,0.0015845833333333352,0.5197925,-0.06670916666666667,0.045963750000000005,3.3307229166666668,1.7308333333333332,22.275225,0.45746250000000005,1.1204166666666666,97.80733333333332,101.97,1.0808333333333333,2.3108333333333335,40.46626080083333,-3.4713079566666663,2.0211875000000004,97.72066666666667,-0.7712789203042333,2
4420.5,442.05,99.35095833333332,40.4662112575,-3.4715894333333326,585.686875,4.03875,5.0,175.61354166666666,3.5171279166666665,0.16458333333333333,0.6175,0.0,1.0,-0.010912499999999999,-0.017755,-0.009129166666666667,-0.01098,-0.017779999999999997,-0.009185416666666668,-1.5602941666666668,0.0008787499999999996,0.86867375,-0.10278166666666669,0.04864375,3.3415466666666664,1.735,24.217574999999997,0.47467916666666676,1.16,99.31129166666666,101.97,1.0716666666666668,2.3108333333333335,40.46621522458333,-3.4722881858333334,2.5728066666666662,99.78954166666668,-0.7588695453042327,2
4660.5,466.05,100.5795,40.46627010083333,-3.47014774,586.87,4.209583333333334,5.0,156.5515,3.5312575,0.17708333333333334,0.7175,0.0,1.0,-0.011112083333333331,-0.0176125,-0.009235833333333335,-0.011212083333333333,-0.017641666666666667,-0.009307500000000002,-1.5603562500000001,0.0026029166666666657,1.2193795833333334,-0.11902208333333332,0.04809375,3.34000625,1.7133333333333334,21.698341666666664,0.3405166666666667,1.1416666666666666,100.53941666666668,101.97,1.0716666666666668,2.3108333333333335,40.46624329958333,-3.4713254174999997,3.0282408333333333,101.06395833333333,-0.7486316980820107,2
4900.5,490.05,101.36783333333332,40.46644224875,-3.4669122979166667,588.0415,4.255833333333333,5.0,137.20941666666667,3.5314791666666663,0.18375,0.7883333333333333,0.0,1.0,-0.0104275,-0.01778916666666667,-0.008699166666666668,-0.010507083333333334,-0.017789583333333334,-0.00875,-1.5593591666666669,0.0042699999999999995,1.5588745833333333,-0.13733791666666667,0.05073125,3.335355416666667,1.6975,15.193933333333334,0.0363666666666667,0.9991666666666666,101.33008333333333,101.97,1.0716666666666668,2.3108333333333335,40.46639163375,-3.4683294075,3.120815416666667,101.80554166666667,-0.7420622536375663,2
5140.5,514.05,103.93412500000001,40.46686938583333,-3.4619515549999997,588.4626249999999,4.2125,5.0,118.23183333333334,3.492383333333333,0.18541666666666667,0.875,0.0,1.0,-0.010935416666666668,-0.016531249999999997,-0.008875833333333335,-0.0110175,-0.01662791666666667,-0.008997083333333334,-1.56099125,0.004068750000000001,1.8924441666666667,-0.16545291666666667,0.05008833333333333,3.3380883333333333,1.695,12.581512499999999,-0.15554166666666666,0.8341666666666666,103.89708333333334,104.0875,1.0891666666666666,2.345833333333333,40.466754234583334,-3.463633509166667,3.27250125,104.29866666666666,1.006598510251323,2
5380.5,538.05,108.59691666666667,40.46760878541667,-3.455419544166667,589.0176250000001,4.214166666666666,5.0,97.33283333333333,3.1842420833333334,0.21333333333333335,0.955,0.0,1.0,-0.01004125,-0.016387083333333337,-0.00816625,-0.010075,-0.0165025,-0.008269583333333332,-1.5617858333333334,0.009737916666666669,2.2704691666666665,-0.18559041666666667,0.05326458333333334,3.2926604166666666,1.7558333333333334,11.100054166666666,-0.3020666666666666,0.7341666666666666,108.55787500000001,107.25,1.0891666666666666,2.4766666666666666,40.46743033291666,-3.4574226649999997,3.382530416666667,108.76625,1.01923603505291,2
5620.5,562.05,113.43329166666665,40.468700722916665,-3.4475613104166665,588.595625,4.300833333333333,5.0,78.539625,2.62715875,0.20041666666666666,0.9583333333333334,0.0,1.0,-0.00934375,-0.011958333333333333,-0.0053225,-0.009310833333333334,-0.01223875,-0.005471666666666668,-1.5584929166666666,0.004412083333333333,2.58121,-0.1870966666666667,0.05234125,3.2938575,1.745,8.758516666666667,-0.5006083333333333,0.6195833333333334,113.408625,111.76666666666667,1.0233333333333334,2.6766666666666667,40.4684069625,-3.449827394166667,3.4373787499999997,113.66304166666666,1.0218314814814813,2
5860.5,586.05,117.60904166666667,40.470522681249996,-3.4390623629166672,587.9596666666667,4.3133333333333335,5.0,72.231125,1.3700679166666667,0.2175,1.0258333333333334,0.0,1.0,-0.009187916666666665,-0.0001958333333333335,-0.00020833333333333343,-0.009141666666666668,-0.000335,-0.00029875,-1.5503945833333335,0.003315416666666668,2.6394395833333335,-0.21232083333333332,0.053763750000000006,3.251445833333333,1.7358333333333333,12.278333333333334,-0.36527083333333327,0.6966666666666667,117.61579166666668,116.9,1.0,2.8766666666666665,40.47008296833334,-3.4414472408333334,3.721824166666667,118.04412500000001,1.0077050925925926,2
6100.5,610.05,118.69766666666668,40.47270823666666,-3.430673854583333,588.3571666666668,4.304166666666666,5.0,69.33075,1.2198366666666665,0.17541666666666667,1.0416666666666667,0.0,1.0,-0.008800416666666666,9.041666666666633e-05,-0.00036416666666666656,-0.008727500000000001,-3.8333333333332996e-05,-0.00040791666666666667,-1.5498162500000001,0.0014304166666666673,2.6425554166666667,-0.19881916666666666,0.05754625000000001,3.2156904166666673,1.7316666666666667,15.082612499999998,-0.20786249999999995,0.8220833333333334,118.70700000000002,119.9,1.0,3.0766666666666667,40.47221202375,-3.433089539166667,3.8350258333333334,119.14079166666667,0.9901611111111112,2
