t_sec,speed_kmh,lat,lon,alt,vert_acc,horiz_acc,course,difcourse,hdop,vdop,pdop,active,acc_x,acc_y,acc_z,acc_x_kf,acc_y_kf,acc_z_kf,roll,pitch,yaw,x_lane,phi,road_width,lane_state,dist_front,ttc_front,num_vehicles,gps_speed,max_speed,speed_rel,road_type_osm,num_lanes,lane_id,lat_osm,lon_osm,osm_delay,gps_speed_osm,driver,behavior,road_type
12,74.9,40.505779,-3.355771,595.7,4,5,274.9,0.352,0,0,0,1.0,-0.0093,-0.0039,-0.025,-0.014099999999999998,-0.0043,-0.0225,-1.6311,-0.0269,-0.2203,0.0,0.0,3.5,-0.9642857142857143,-1.0,-1.0,0.0,73.76666666666668,120.0,1,motorway,3,1,40.505222,-3.353082,1.874,71.5,D1,Drowsy,motor
13,76.8,40.505787,-3.35604,594.8,4,5,275.3,0.352,0,0,0,1.0,-0.003199999999999999,-0.0149,-0.006900000000000001,-0.004,-0.0119,-0.0124,-1.6186,-0.023899999999999998,-0.22360000000000002,0.12560000000000002,0.06056,2.65884,2.0,-1.0,-1.0,0.0,76.42,90.0,1,motorway_link,1,1,40.505779,-3.355772,0.923,74.9,D1,Drowsy,motor
15,81.4,40.505791,-3.35658,594.2,4,5,276.3,1.055,0,0,0,1.0,-0.0066,-0.0322,0.0121,-0.006999999999999999,-0.0329,0.0165,-1.6481999999999999,0.0063,-0.2122,-0.04565217391304348,0.1031304347826087,2.7329565217391303,2.0,-1.0,-1.0,0.0,80.87272727272727,90.0,1,motorway_link,2,1,40.505787,-3.35604,1.364,78.5,D1,Drowsy,motor
17,88.5,40.505821,-3.357152,591.5,6,5,275.6,0.703,2,0,0,1.0,-0.0064,-0.005299999999999999,-0.013600000000000001,-0.007300000000000001,-0.0034000000000000002,-0.0132,-1.6376000000000002,0.0454,-0.16999999999999998,-0.8138571428571428,0.06835714285714285,2.703,2.0,-1.0,-1.0,0.2222222222222222,87.76666666666667,120.0,1,motorway,4,1,40.505791,-3.35658,1.599,85.2,D1,Drowsy,motor
21,95.5,40.505901,-3.358378,591.6,6,5,275.3,1.055,0,0,0,1.0,-0.023600000000000003,0.0,-0.005199999999999999,-0.021800000000000003,0.0026,-0.0076,-1.6024999999999998,-0.0201,-0.16960000000000003,0.2512758620689655,-0.02317241379310345,3.0198620689655176,1.6551724137931034,-1.0,-1.0,1.0,95.21111111111111,120.0,1,motorway,4,1,40.505821,-3.357153,3.304,94.2,D1,Drowsy,motor
23,98.2,40.505943,-3.359024,591.8,4,5,275.3,0.352,1,2,0,1.0,-0.0162,-0.05,0.0072,-0.0142,-0.0512,0.0071,-1.6035,0.0418,-0.12610000000000002,0.4672307692307692,0.005,2.6607307692307693,2.0,-1.0,-1.0,1.0,97.66666666666667,120.0,1,motorway,3,1,40.505901,-3.358378,1.438,96.6,D1,Drowsy,motor
26,100.7,40.50597,-3.360019,584.3,4,5,270.0,2.812,0,3,0,1.0,-0.026600000000000002,0.0243,-0.0268,-0.028500000000000004,0.0201,-0.0241,-1.5939999999999999,0.059899999999999995,-0.027100000000000003,0.2096551724137931,-0.056448275862068964,2.7854137931034484,2.0,-1.0,-1.0,0.0,100.94444444444444,120.0,1,motorway,3,1,40.505943,-3.359025,2.743,101.8,D1,Drowsy,motor
27,100.8,40.505966,-3.360353,582.7,4,5,268.2,3.164,0,3,0,1.0,-0.0351,0.0242,-0.0191,-0.033999999999999996,0.026600000000000002,-0.0236,-1.5725,0.038900000000000004,-0.0098,0.035166666666666666,-0.0121,2.8423000000000003,1.9666666666666666,-1.0,-1.0,0.0,100.77000000000001,120.0,1,motorway,3,1,40.50597,-3.36002,0.855,100.7,D1,Drowsy,motor
29,99.6,40.505939,-3.361017,582.0,4,5,266.1,2.109,0,3,0,1.0,-0.010555555555555556,0.003333333333333334,0.008666666666666666,-0.004555555555555556,0.0026666666666666674,0.008444444444444444,-1.583777777777778,0.03233333333333333,0.042,0.14745833333333333,0.00045833333333333316,2.7202916666666668,2.0,-1.0,-1.0,0.0,99.66666666666667,120.0,1,motorway,3,1,40.505966,-3.360353,1.943,99.8,D1,Drowsy,motor
31,99.9,40.505882,-3.361666,581.1,4,5,262.6,3.516,0,2,0,1.0,-0.008,0.008799999999999999,0.0108,-0.0038000000000000004,0.0109,0.009,-1.5869,0.0161,0.0863,0.2779259259259259,-0.0005925925925925924,2.7367777777777778,1.962962962962963,-1.0,-1.0,0.6,99.86,120.0,1,motorway,3,1,40.505939,-3.361017,1.229,99.7,D1,Drowsy,motor
34,100.3,40.505749,-3.362632,582.7,6,5,257.0,4.219,0,3,0,1.0,-0.0117,0.017400000000000002,0.0007999999999999997,-0.0109,0.015099999999999999,0.0008999999999999998,-1.5931000000000002,0.038900000000000004,0.1758,-0.10212500000000001,-0.06279166666666666,2.7266666666666666,2.0,-1.0,-1.0,0.0,100.2,120.0,1,motorway,3,1,40.505882,-3.361667,2.418,99.9,D1,Drowsy,motor
36,100.7,40.505604,-3.363269,584.3,6,5,253.5,3.516,2,3,0,1.0,0.0023999999999999994,0.0115,0.0048000000000000004,-0.0036999999999999997,0.016999999999999998,0.0045,-1.5902,-0.012199999999999999,0.1875,-0.8940714285714285,0.03675,2.6520357142857143,2.0,-1.0,-1.0,1.0,100.72222222222223,120.0,1,motorway,3,1,40.505749,-3.362633,1.561,100.8,D1,Drowsy,motor
44,106.1,40.504765,-3.365789,589.0,6,5,241.5,2.109,0,3,0,1.0,-0.008400000000000001,0.0036,0.0032,-0.0071,0.0063,0.0028,-1.5753,0.0178,0.257,0.03004,0.07384,2.68436,2.0,-1.0,-1.0,0.0,106.0111111111111,120.0,1,motorway,3,2,40.505604,-3.363269,7.464,105.7,D1,Drowsy,motor
46,107.5,40.504482,-3.366389,588.1,6,5,238.4,3.164,1,3,0,1.0,-0.006999999999999999,0.025,-0.0045,-0.0083,0.020800000000000003,-0.0019999999999999996,-1.576,0.0509,0.261,0.38223076923076926,-0.007923076923076923,2.704076923076923,2.0,-1.0,-1.0,0.2222222222222222,107.13333333333334,120.0,1,motorway,3,2,40.504765,-3.365789,1.474,106.4,D1,Drowsy,motor
49,106.7,40.504051,-3.36729,587.6,4,5,237.3,0.0,1,3,0,1.0,-0.002777777777777777,0.008,0.0037777777777777775,0.00011111111111111121,0.01211111111111111,0.0026666666666666666,-1.5583333333333331,0.024444444444444446,0.2061111111111111,0.3634074074074074,0.010074074074074076,2.7099259259259263,2.0,-1.0,-1.0,0.0,106.775,120.0,1,motorway,3,2,40.504482,-3.366389,2.481,107.0,D1,Drowsy,motor
53,107.2,40.503468,-3.368454,588.6,4,5,236.2,0.703,1,3,0,1.0,-0.027200000000000002,0.0046,-0.0086,-0.027600000000000003,0.0062,-0.0077,-1.5595,-0.0009000000000000001,0.139,-0.21462499999999998,0.033375,2.8054583333333336,2.0,-1.0,-1.0,0.0,107.16666666666667,120.0,1,motorway,3,2,40.504051,-3.36729,3.981,107.1,D1,Drowsy,motor
56,107.3,40.503033,-3.36935,586.0,4,5,237.3,0.352,0,3,0,1.0,-0.005200000000000001,-0.0242,-0.0031,-0.0047,-0.026500000000000003,-0.0022,-1.5585,0.0082,0.08979999999999999,0.30368,0.03924,2.778,2.0,-1.0,-1.0,0.0,107.32857142857142,120.0,1,motorway,3,2,40.503468,-3.368455,2.421,107.4,D1,Drowsy,motor
70,109.9,40.500977,-3.373546,586.3,4,5,237.7,1.055,0,3,0,1.0,-0.0089,-0.0094,0.00010000000000000009,-0.0108,-0.006500000000000001,-0.0002,-1.5693,-0.0098,0.0049,0.0402,0.04925,2.9308,1.95,-1.0,-1.0,0.0,109.75,120.0,1,motorway,3,2,40.503033,-3.36935,13.232,109.5,D1,Drowsy,motor
76,111.5,40.500084,-3.375378,587.5,4,5,236.6,0.352,0,3,0,1.0,-0.020999999999999998,0.0052,-0.0087,-0.0189,0.0021999999999999997,-0.0076,-1.5663,0.012,0.016300000000000002,0.16848148148148148,-0.002518518518518519,2.915259259259259,2.0,-1.0,-1.0,0.0,111.35,120.0,1,motorway,3,2,40.500977,-3.373546,5.516,111.1,D1,Drowsy,motor
93,108.5,40.497528,-3.380458,583.7,4,5,236.6,1.055,0,3,0,1.0,-0.0108,-0.0071,0.0021,-0.0111,-0.0022000000000000006,0.0023,-1.5579,-0.0081,-0.0073999999999999995,0.262,0.018346153846153845,2.8358461538461537,2.0,36.41142857142857,1.2114285714285715,1.7142857142857142,108.38571428571429,-1.0,-1,-,-1,-1,40.500084,-3.375379,17.006,108.1,D1,Drowsy,motor
104,107.6,40.495865,-3.383681,583.0,4,5,234.1,1.406,1,4,0,1.0,-0.011300000000000001,-0.0036000000000000003,0.0019,-0.01,-0.0008,0.0041,-1.5683,0.045799999999999993,0.0472,0.46976,-0.04896,2.79796,2.0,-1.0,-1.0,1.0,107.66666666666667,120.0,1,motorway,3,1,40.497383,-3.380752,9.448,107.8,D1,Drowsy,motor
106,107.4,40.495552,-3.384233,582.9,4,5,233.1,1.055,0,4,0,1.0,-0.0078,0.024,-0.00010000000000000044,-0.0093,0.023600000000000003,0.00019999999999999993,-1.5709,0.018,0.0514,0.13458333333333333,-0.038,2.9032916666666666,1.25,-1.0,-1.0,0.0,107.45714285714287,120.0,1,motorway,3,1,40.495865,-3.383682,1.19,107.6,D1,Drowsy,motor
108,103.9,40.495243,-3.384806,583.1,4,5,233.4,0.352,1,4,0,1.0,-0.0107,-0.0344,0.0024999999999999996,-0.0125,-0.035699999999999996,0.0018000000000000002,-1.5714000000000001,0.033600000000000005,0.0524,0.39604,-0.012920000000000001,2.7966,2.0,-1.0,-1.0,0.8888888888888888,105.06666666666666,120.0,1,motorway,3,1,40.495552,-3.384234,1.196,107.4,D1,Drowsy,motor
109,107.6,40.495079,-3.385094,583.0,4,5,233.1,0.352,1,4,0,1.0,0.0052,0.006900000000000001,-0.0039,0.005600000000000001,0.007000000000000001,-0.0024000000000000002,-1.5707,0.0436,0.0635,0.42921739130434783,-0.03943478260869565,2.7919565217391304,2.0,-1.0,-1.0,1.0,106.675,120.0,1,motorway,3,1,40.495243,-3.384806,0.962,103.9,D1,Drowsy,motor
110,108.3,40.494915,-3.385375,583.1,4,5,232.4,1.055,1,4,0,1.0,-0.0212,0.0068000000000000005,-0.00040000000000000034,-0.0199,0.0058,-0.0001,-1.5696999999999999,0.028800000000000003,0.06570000000000001,0.49470833333333336,-0.030125,2.8502083333333332,2.0,-1.0,-1.0,0.375,108.125,120.0,1,motorway,3,1,40.495079,-3.385094,0.812,107.6,D1,Drowsy,motor
111,107.8,40.494747,-3.385665,583.1,4,5,232.0,1.055,2,4,0,1.0,-0.0079,0.0023,-0.0023,-0.008,0.0019,-0.0024999999999999996,-1.5695999999999999,0.028300000000000002,0.0678,0.5060714285714286,-0.023821428571428573,2.7624999999999997,2.0,-1.0,-1.0,0.0,107.94285714285715,120.0,1,motorway,3,1,40.494915,-3.385375,0.916,108.3,D1,Drowsy,motor
113,108.7,40.494411,-3.386221,583.0,4,5,231.7,0.352,2,4,0,1.0,-0.011699999999999999,-0.0091,0.00019999999999999993,-0.0094,-0.0083,0.00030000000000000003,-1.5724,0.0349,0.07039999999999999,0.5994761904761905,-0.022523809523809522,2.732666666666667,2.0,-1.0,-1.0,0.0,108.55,120.0,1,motorway,3,1,40.494747,-3.385665,1.868,108.1,D1,Drowsy,motor
119,109.9,40.493374,-3.387829,582.2,6,5,229.2,0.703,2,5,1,1.0,0.0017999999999999995,-0.0075,-0.006900000000000001,0.0018999999999999996,-0.0099,-0.0064,-1.5691000000000002,0.0279,0.0715,0.57775,-0.0025833333333333333,2.734125,2.0,-1.0,-1.0,0.0,109.72857142857143,120.0,1,motorway,3,1,40.494411,-3.386221,5.382,109.3,D1,Drowsy,motor
121,109.4,40.493015,-3.388359,582.2,6,5,228.2,1.055,1,5,1,1.0,0.0015,-0.0093,-0.0006999999999999999,0.0026999999999999997,-0.0093,-0.0013000000000000002,-1.5678,0.0445,0.0837,0.4744347826086957,-0.04673913043478261,2.705391304347826,1.5217391304347827,-1.0,-1.0,0.0,109.45714285714287,120.0,1,motorway,3,1,40.493374,-3.387829,1.33,109.6,D1,Drowsy,motor
123,110.5,40.492645,-3.388876,582.0,6,5,226.8,1.406,0,5,1,1.0,-0.0198,0.022600000000000002,-0.0013,-0.0131,0.0219,-0.0009999999999999998,-1.5708,0.0235,0.0851,-0.23966666666666667,-0.0025833333333333337,2.7983333333333333,2.0,-1.0,-1.0,0.125,110.2,120.0,1,motorway,3,1,40.493015,-3.388359,1.439,109.7,D1,Drowsy,motor
124,110.3,40.492455,-3.389133,582.6,6,5,227.1,0.352,1,5,1,1.0,-0.0166,-0.0067,0.0045,-0.0158,-0.0044,0.0039,-1.5707,0.0187,0.0811,-0.4282083333333333,0.0060416666666666665,2.7805416666666667,1.9583333333333333,-1.0,-1.0,0.0,110.375,120.0,1,motorway,3,1,40.492645,-3.388876,1.04,110.3,D1,Drowsy,motor
127,112.1,40.491882,-3.389929,582.5,6,5,227.1,0.352,0,6,1,1.0,-0.0032999999999999995,-0.016800000000000002,0.0085,-0.0018,-0.014599999999999998,0.0075,-1.5702,-0.006,0.0593,-0.41607692307692307,0.07515384615384615,2.8207692307692307,2.0,-1.0,-1.0,0.0,111.88571428571427,120.0,1,motorway,3,1,40.492268,-3.389394,1.268,111.6,D1,Drowsy,motor
128,111.8,40.491692,-3.390191,582.3,6,5,227.1,0.352,0,6,1,1.0,-0.0153,-0.0185,-0.0041,-0.0154,-0.0189,-0.0019,-1.5685,0.0060999999999999995,0.058100000000000006,-0.1276923076923077,0.08353846153846155,2.872230769230769,2.0,-1.0,-1.0,0.0,111.9125,120.0,1,motorway,3,1,40.491882,-3.389929,1.06,111.8,D1,Drowsy,motor
131,110.9,40.491108,-3.390977,581.2,6,5,226.1,0.352,0,5,1,1.0,-0.0092,0.005200000000000001,-0.0059,-0.0107,0.0027,-0.0049,-1.5372,0.0318,0.0553,0.23858333333333334,-0.035166666666666666,2.7960833333333333,2.0,15.679999999999998,-0.04571428571428572,2.0,111.24285714285715,120.0,1,motorway,3,1,40.491497,-3.390453,1.694,112.1,D1,Drowsy,motor
133,109.3,40.490723,-3.391491,580.7,6,5,225.7,0.352,0,5,1,1.0,-0.011000000000000001,-0.0019,-0.009600000000000001,-0.0097,-0.0003000000000000001,-0.0072,-1.534,0.016300000000000002,0.0486,-0.01085185185185185,-0.01762962962962963,2.8544074074074075,2.0,-1.0,-1.0,2.0,109.475,120.0,1,motorway,3,1,40.491108,-3.390978,1.959,110.0,D1,Drowsy,motor
135,106.3,40.490345,-3.391983,580.4,6,5,225.4,0.352,2,6,1,1.0,-0.014799999999999999,-0.004399999999999999,0.0033,-0.014599999999999998,-0.0043,0.0027999999999999995,-1.5272000000000001,0.0157,0.047,-0.5297931034482759,0.005724137931034483,2.8512758620689653,2.0,-1.0,-1.0,1.0,106.7,120.0,1,motorway,3,1,40.490723,-3.391492,1.306,107.7,D1,Drowsy,motor
147,100.2,40.488152,-3.394877,575.3,6,5,226.1,0.352,0,5,1,1.0,-0.02033333333333333,-0.0024444444444444444,0.012666666666666666,-0.018333333333333333,-0.0024444444444444444,0.01211111111111111,-1.5416666666666667,0.008222222222222221,0.011333333333333332,0.06504347826086956,-0.009043478260869566,2.8713478260869563,1.826086956521739,14.79857142857143,0.53,1.4285714285714286,100.67142857142858,120.0,1,motorway,3,2,40.490345,-3.391983,11.88,101.3,D1,Drowsy,motor
150,99.5,40.487629,-3.395575,575.9,6,5,226.1,0.0,1,5,1,1.0,-0.0137,0.0221,0.0097,-0.013999999999999999,0.0218,0.008199999999999999,-1.5569,-0.0046,0.0095,0.46840740740740744,-0.017962962962962962,2.8655925925925922,1.8518518518518519,13.468571428571428,0.48714285714285716,1.0,99.47142857142856,120.0,1,motorway,3,2,40.488152,-3.394877,2.976,99.4,D1,Drowsy,motor
152,100.0,40.487282,-3.39607,576.5,6,5,224.3,1.756,0,5,1,1.0,-0.0125,-0.0312,0.0024999999999999996,-0.0086,-0.030699999999999998,0.0028,-1.5714000000000001,0.0186,0.016300000000000002,0.0,0.0,2.812,0.0,-1.0,-1.0,1.0,100.11428571428571,120.0,1,motorway,3,1,40.487629,-3.395575,1.467,100.4,D1,Drowsy,motor
155,101.8,40.486759,-3.396769,577.4,6,5,223.4,0.384,1,5,1,1.0,-0.0189,-0.0213,-0.0013999999999999998,-0.019799999999999998,-0.0201,0.0002,-1.5693,0.06739999999999999,0.0708,0.338875,0.12291666666666667,2.9769583333333336,1.875,-1.0,-1.0,1.0,101.62857142857142,120.0,1,motorway,3,1,40.487282,-3.39607,2.943,101.2,D1,Drowsy,motor
166,97.9,40.484642,-3.399156,576.9,6,5,216.4,1.623,0,4,0,1.0,-0.016099999999999996,0.0076,-0.0008999999999999998,-0.0111,0.0126,-0.0004000000000000002,-1.5298,0.0393,0.11739999999999999,-0.044173913043478265,0.008521739130434783,2.1001739130434784,2.0,-1.0,-1.0,0.0,98.0875,120.0,1,motorway,3,1,40.486759,-3.396769,10.343,98.4,D1,Drowsy,motor
168,95.3,40.484245,-3.399547,576.5,4,5,216.4,0.0,0,3,0,1.0,-0.0029,0.0214,0.0112,-0.0012999999999999997,0.025,0.0116,-1.5351,0.0109,0.0954,-0.04759259259259259,0.014222222222222223,2.177925925925926,1.037037037037037,-1.0,-1.0,0.6666666666666666,95.89999999999999,120.0,1,motorway,3,1,40.484642,-3.399157,1.23,97.1,D1,Drowsy,motor
169,96.6,40.484043,-3.399742,576.7,4,5,216.8,0.358,0,3,0,1.0,-0.005777777777777778,-0.018000000000000002,0.009111111111111111,-0.008111111111111112,-0.014555555555555556,0.009555555555555555,-1.5417777777777777,0.01411111111111111,0.08377777777777778,0.11553571428571428,0.0545,2.4071428571428575,1.8928571428571428,4.504,-0.6,1.6,96.08,120.0,1,motorway,3,1,40.484245,-3.399547,0.728,95.3,D1,Drowsy,motor
171,95.6,40.483665,-3.400124,577.3,4,5,216.9,0.158,0,3,0,1.0,-0.0085,-0.014299999999999998,0.016,-0.0078,-0.0174,0.014299999999999998,-1.5611000000000002,0.036699999999999997,0.0753,0.2628333333333333,-0.04724999999999999,2.167125,2.0,-1.0,-1.0,1.0,95.39999999999999,120.0,1,motorway,3,1,40.484043,-3.399742,1.479,94.9,D1,Drowsy,motor
188,93.1,40.480373,-3.403349,575.1,4,5,216.7,0.243,0,2,0,1.0,-0.0108,0.0128,0.010600000000000002,-0.010600000000000002,0.013999999999999999,0.0081,-1.5375999999999999,0.006500000000000001,0.0039,0.21495999999999998,-0.0776,2.7176799999999997,2.0,-1.0,-1.0,1.0,93.27142857142857,-1.0,-1,-,-1,-1,40.483665,-3.400124,16.637,93.7,D1,Drowsy,motor
194,95.0,40.479233,-3.404526,574.2,4,5,221.1,3.66,2,2,0,1.0,-0.0033,-0.011600000000000001,0.0013000000000000002,-0.0045,-0.0086,-0.0008999999999999998,-1.5654,-0.0267,-0.0486,-0.9337826086956522,-0.03026086956521739,2.8152608695652175,2.0,20.791428571428572,0.7857142857142857,2.0,95.11428571428571,120.0,1,motorway,3,1,40.480373,-3.403349,5.548,95.4,D1,Drowsy,motor
196,95.5,40.478851,-3.404921,574.1,4,5,221.4,0.316,0,2,0,1.0,-0.0034000000000000002,0.0103,0.008299999999999998,-0.0026000000000000003,0.0111,0.0092,-1.5717,-0.0243,-0.0696,0.0,0.0,2.57152,0.0,16.765,0.6325000000000001,1.375,95.4,120.0,1,motorway,3,2,40.479233,-3.404526,1.425,95.1,D1,Drowsy,motor
199,98.5,40.478302,-3.405552,574.0,6,5,221.8,1.357,0,2,0,1.0,-0.016444444444444446,-0.004888888888888889,-0.0012222222222222224,-0.019666666666666666,-0.002333333333333333,-0.0012222222222222222,-1.5964444444444446,-0.04511111111111111,-0.119,0.36462962962962964,-0.004703703703703704,2.7913703703703705,1.9259259259259258,18.462857142857143,0.6757142857142858,1.0,98.2,120.0,1,motorway,3,2,40.478851,-3.404922,2.716,97.8,D1,Drowsy,motor
200,100.4,40.478123,-3.405775,574.2,6,5,224.3,2.461,0,2,0,1.0,-0.011199999999999998,-0.0066,-0.007200000000000001,-0.0097,-0.008499999999999999,-0.0066,-1.5928,-0.033600000000000005,-0.127,0.26504347826086955,-0.012695652173913042,2.838478260869565,2.0,15.4825,0.43875000000000003,1.0,99.92500000000001,120.0,1,motorway,3,2,40.478302,-3.405552,0.894,98.5,D1,Drowsy,motor
209,98.6,40.476631,-3.407943,571.7,6,5,231.0,1.055,1,2,0,1.0,-0.014444444444444446,-0.004222222222222222,0.006666666666666666,-0.013888888888888888,-0.002111111111111111,0.005,-1.5498888888888889,-0.034555555555555555,-0.1811111111111111,0.3987727272727273,-0.04063636363636364,2.8051363636363638,2.0,15.11,0.5516666666666667,1.0,98.76666666666665,120.0,1,motorway,3,2,40.478123,-3.405776,8.914,99.1,D1,Drowsy,motor
211,98.2,40.476315,-3.408463,574.1,6,5,233.1,2.109,0,2,0,1.0,-0.0076,0.0147,0.0023,-0.009600000000000001,0.013600000000000001,0.0019,-1.559,-0.034499999999999996,-0.183,0.21826086956521737,-0.04778260869565217,2.864478260869565,2.0,25.99285714285714,0.9528571428571428,2.0,98.2,120.0,1,motorway,3,2,40.476631,-3.407944,1.374,98.2,D1,Drowsy,motor
216,98.4,40.47562,-3.409763,572.9,6,5,237.3,2.461,2,2,0,1.0,-0.0185,-0.0123,0.0019999999999999996,-0.016800000000000002,-0.0123,0.0010999999999999998,-1.5779999999999998,-0.0373,-0.2065,0.6320370370370371,0.041296296296296296,2.766296296296296,2.0,27.305714285714284,1.0014285714285713,2.0,98.20000000000002,120.0,1,motorway,3,2,40.476315,-3.408463,5.079,98.4,D1,Drowsy,motor
218,98.5,40.475361,-3.410304,573.6,6,5,238.7,1.406,2,2,0,1.0,-0.0158,0.00010000000000000026,-0.006,-0.0155,0.00020000000000000025,-0.0039,-1.5774000000000001,-0.0235,-0.2042,0.910888888888889,-0.030629629629629628,2.799222222222222,2.0,26.038333333333338,0.9516666666666667,1.3333333333333333,98.53333333333335,120.0,1,motorway,3,2,40.475487,-3.410046,0.921,98.6,D1,Drowsy,motor
219,99.2,40.475243,-3.410581,573.6,6,5,239.1,1.055,2,2,0,1.0,-0.0086,-0.0015,-0.010199999999999999,-0.008,0.0002999999999999999,-0.0123,-1.5657999999999999,-0.0241,-0.20389999999999997,1.0224285714285715,-0.04089285714285714,2.774607142857143,1.8571428571428572,25.59142857142857,0.9299999999999999,1.0,99.0,120.0,1,motorway,3,2,40.475361,-3.410304,1.179,99.2,D1,Drowsy,motor
222,99.5,40.47488,-3.41141,573.8,6,5,242.9,3.164,0,2,0,1.0,-0.015,-0.006,0.0063,-0.014599999999999998,-0.0047,0.0064,-1.5794000000000001,-0.057699999999999994,-0.2379,0.0,0.0,2.5532,0.0,-1.0,-1.0,1.0,99.0125,120.0,1,motorway,3,1,40.475121,-3.410864,1.298,98.2,D1,Drowsy,motor
223,99.9,40.474773,-3.411696,574.3,6,5,244.0,2.812,0,2,0,1.0,-0.014599999999999998,-0.016300000000000002,0.0042,-0.011300000000000001,-0.0137,0.0038,-1.5783,-0.040799999999999996,-0.2375,-0.07304000000000001,-0.01084,2.78604,0.64,-1.0,-1.0,1.0,99.75,120.0,1,motorway,3,1,40.47488,-3.41141,0.849,99.5,D1,Drowsy,motor
224,100.3,40.47467,-3.412,574.7,6,5,244.7,1.758,0,2,0,1.0,-0.0183,-0.0359,-0.0009000000000000001,-0.0225,-0.0365,0.0006999999999999999,-1.5801,-0.0063,-0.22549999999999998,-0.04856666666666667,0.07073333333333333,2.8417000000000003,2.0,2.5814285714285714,-0.7342857142857142,1.0,100.18571428571428,120.0,1,motorway,3,1,40.474773,-3.411696,0.549,99.9,D1,Drowsy,motor
226,99.9,40.474457,-3.412588,575.3,6,5,244.3,0.352,0,2,0,1.0,-0.0126,0.013900000000000001,0.0024000000000000002,-0.011300000000000001,0.0126,0.0024000000000000002,-1.5704,-0.0056,-0.20469999999999997,0.1591818181818182,0.004045454545454546,2.758590909090909,2.0,-1.0,-1.0,1.0,100.11428571428573,120.0,1,motorway,3,1,40.47467,-3.412,1.189,100.4,D1,Drowsy,motor
228,100.0,40.474247,-3.413167,577.2,6,5,246.1,1.758,0,2,0,1.0,-0.0118,0.005599999999999999,-0.011899999999999999,-0.014599999999999998,0.0064,-0.010499999999999999,-1.5732,-0.027100000000000003,-0.20549999999999996,0.21057692307692305,0.009346153846153846,2.7891153846153847,2.0,-1.0,-1.0,1.0,100.225,120.0,1,motorway,3,1,40.474457,-3.412588,1.551,100.6,D1,Drowsy,motor
235,98.9,40.473625,-3.415242,582.9,6,5,251.4,1.406,0,3,0,1.0,0.0009000000000000001,-0.0279,-0.004,0.0040999999999999995,-0.0236,-0.0016999999999999997,-1.5842,-0.0246,-0.2157,0.15459259259259261,-0.04051851851851852,2.675,2.0,21.87,0.8,2.0,98.61428571428573,120.0,1,motorway,3,1,40.474247,-3.413167,6.918,97.9,D1,Drowsy,motor
237,98.0,40.473476,-3.415862,583.1,6,5,252.1,0.703,0,3,0,1.0,-0.00039999999999999964,-0.007899999999999999,-0.0051,0.0004999999999999999,-0.0051,-0.0048000000000000004,-1.5645,-0.0043,-0.197,0.1533103448275862,0.02710344827586207,2.7055172413793107,1.9655172413793103,22.531666666666666,0.8283333333333333,2.0,98.0,120.0,1,motorway,3,1,40.473625,-3.415242,1.758,98.0,D1,Drowsy,motor
239,97.1,40.473331,-3.416484,583.5,6,5,252.1,0.352,1,3,0,1.0,-0.01,0.0007777777777777778,-0.00022222222222222204,-0.005111111111111111,0.00022222222222222223,0.00022222222222222231,-1.5499999999999998,0.022555555555555554,-0.16322222222222224,0.4352272727272727,-0.020772727272727273,2.738590909090909,2.0,23.485,0.8683333333333333,2.0,97.26666666666665,120.0,1,motorway,3,1,40.473476,-3.415862,1.501,97.6,D1,Drowsy,motor
241,96.7,40.47319,-3.417103,582.5,6,5,251.7,1.055,1,3,0,1.0,-0.0092,0.0060999999999999995,0.0079,-0.0077,0.0054,0.009600000000000001,-1.5602,0.0127,-0.1404,0.42184615384615387,-0.049576923076923074,2.7335,2.0,25.026,0.932,2.0,96.62,120.0,1,motorway,3,1,40.473331,-3.416484,1.446,96.5,D1,Drowsy,motor
243,96.0,40.473042,-3.417717,584.8,6,5,251.7,0.0,1,3,0,1.0,-0.0057272727272727275,-0.006454545454545455,0.004272727272727273,-0.004636363636363636,-0.008272727272727272,0.0036363636363636364,-1.5607272727272727,0.012636363636363635,-0.1262727272727273,0.42013636363636364,-0.0445,2.370681818181818,1.5454545454545454,16.67833333333333,0.305,1.3333333333333333,96.0,120.0,1,motorway,3,1,40.47319,-3.417103,2.006,96.0,D1,Drowsy,motor
251,97.8,40.472462,-3.420162,580.5,6,5,251.4,0.703,1,4,0,1.0,-0.0211,-0.0007999999999999997,-0.0206,-0.018,-0.0015,-0.020999999999999998,-1.5546,0.0355,-0.08349999999999999,0.4306666666666667,-0.09400000000000001,2.783962962962963,2.0,33.60333333333333,1.2416666666666667,1.0,97.63333333333333,120.0,1,motorway,3,1,40.472973,-3.41801,7.158,97.8,D1,Drowsy,motor
258,96.5,40.471905,-3.422288,578.2,4,5,250.3,0.703,1,4,0,1.0,-0.0162,0.0025,-0.0028,-0.0221,0.0022,-0.0045,-1.5469,0.024,-0.05620000000000001,0.4783461538461538,0.012653846153846154,2.6933846153846153,1.9615384615384615,16.333333333333332,0.12666666666666668,2.1666666666666665,96.85000000000001,120.0,1,motorway,3,1,40.472378,-3.420468,5.439,97.2,D1,Drowsy,motor
261,94.0,40.471642,-3.423157,577.1,6,5,249.3,0.703,0,4,0,1.0,-0.015999999999999997,0.014799999999999999,-0.0005999999999999998,-0.0134,0.0137,-0.0006000000000000001,-1.5436,0.0126,-0.0418,0.18612499999999998,-0.05416666666666667,2.6967916666666665,1.9583333333333333,6.821666666666666,-0.21999999999999997,1.0,94.13333333333333,120.0,1,motorway,3,1,40.471905,-3.422289,3.136,94.0,D1,Drowsy,motor
265,92.3,40.471317,-3.424301,576.1,6,5,250.0,0.352,2,5,1,1.0,-0.009600000000000001,-0.0055,0.0039,-0.011899999999999999,-0.005,0.0009999999999999998,-1.5482,0.0158,-0.0495,0.7767916666666667,-0.0007499999999999998,2.6940000000000004,2.0,18.48,0.7200000000000001,3.1666666666666665,92.43333333333334,120.0,1,motorway,3,1,40.471546,-3.423445,2.673,92.7,D1,Drowsy,motor
266,92.0,40.471233,-3.424579,576.0,6,5,250.0,0.352,2,5,1,1.0,-0.0184,-0.039900000000000005,0.0116,-0.0125,-0.034999999999999996,0.0128,-1.5501,0.0278,-0.0417,0.9839999999999999,-0.023814814814814816,2.690222222222222,2.0,19.214000000000002,0.75,4.0,92.12,120.0,1,motorway,3,1,40.471317,-3.424302,0.676,92.3,D1,Drowsy,motor
273,91.4,40.470638,-3.426495,574.5,4,5,248.9,0.352,1,5,1,1.0,-0.0312,-0.0013000000000000004,-0.0042,-0.0335,-0.0016,-0.0046,-1.5588000000000002,-0.0046,-0.0514,0.33948,-0.01752,2.7606400000000004,2.0,20.99833333333333,0.8266666666666667,3.0,91.36666666666667,120.0,1,motorway,3,1,40.471233,-3.42458,7.052,91.4,D1,Drowsy,motor
276,90.9,40.470402,-3.42733,575.2,6,5,250.0,0.352,0,5,1,1.0,-0.0077,-0.011300000000000001,0.011,-0.0095,-0.0093,0.0112,-1.5907,0.0089,-0.07,0.3188571428571429,-0.020499999999999997,3.243785714285714,1.9642857142857142,25.0,0.9879999999999999,2.0,91.06,120.0,1,motorway,3,1,40.470558,-3.426772,1.185,91.3,D1,Drowsy,motor
278,92.0,40.470242,-3.427907,576.5,6,5,250.3,0.352,1,4,0,1.0,-0.016,0.0188,0.014199999999999999,-0.0213,0.0161,0.0153,-1.6075,0.0155,-0.06999999999999999,0.3318,0.01688,2.7276800000000003,1.76,-1.0,-1.0,1.0,91.86666666666667,120.0,1,motorway,3,1,40.470402,-3.42733,1.403,91.6,D1,Drowsy,motor
280,95.4,40.470081,-3.428476,577.0,6,5,251.0,0.703,0,4,0,1.0,-0.0024444444444444444,-0.02,0.0014444444444444446,-0.0071111111111111115,-0.01633333333333333,0.0027777777777777775,-1.6197777777777778,0.006555555555555555,-0.08088888888888889,0.2611111111111111,-0.12807407407407406,2.232814814814815,1.5555555555555556,-1.0,-1.0,1.0,94.88,120.0,1,motorway,3,1,40.470242,-3.427908,1.666,94.1,D1,Drowsy,motor
282,97.7,40.469925,-3.42908,578.2,6,5,251.4,0.352,0,4,0,1.0,-0.0086,-0.020900000000000002,-0.0001,-0.011600000000000001,-0.0164,-0.0006000000000000003,-1.6182000000000003,-0.0020000000000000005,-0.086,0.14971428571428572,-0.026999999999999996,1.9884761904761905,1.2857142857142858,-1.0,-1.0,1.0,97.05000000000001,120.0,1,motorway,3,1,40.470081,-3.428477,1.529,96.4,D1,Drowsy,motor
283,99.0,40.469841,-3.429393,579.4,6,5,250.7,0.703,0,4,0,1.0,-0.0125,-0.0046,-0.0086,-0.0105,-0.011,-0.0076,-1.6169,0.011300000000000001,-0.0801,0.061809523809523814,-0.01219047619047619,2.264952380952381,1.9523809523809523,-1.0,-1.0,1.0,98.35000000000001,120.0,1,motorway,3,1,40.469925,-3.42908,0.839,97.7,D1,Drowsy,motor
284,100.6,40.469761,-3.429703,580.0,6,10,251.4,0.703,0,4,0,1.0,-0.0076,0.041999999999999996,-0.0019,-0.0083,0.0388,-0.0016,-1.6148,-0.0062,-0.08499999999999999,-0.12990909090909092,-0.031318181818181814,2.4217272727272725,1.7727272727272727,-1.0,-1.0,0.16666666666666666,100.06666666666666,120.0,1,motorway,3,1,40.469841,-3.429393,0.659,99.0,D1,Drowsy,motor
291,101.6,40.469315,-3.431937,583.9,6,5,258.0,2.109,1,4,0,1.0,-0.013000000000000001,-0.018,0.0046,-0.0152,-0.0199,0.0076,-1.5994,-0.036199999999999996,-0.1625,0.28709090909090906,0.03240909090909091,2.677409090909091,2.0,-1.0,-1.0,0.6,101.08,120.0,1,motorway,3,1,40.469761,-3.429703,6.76,100.3,D1,Drowsy,motor
300,94.5,40.468876,-3.43478,586.7,6,5,258.4,0.352,0,5,1,1.0,-0.0017000000000000006,-0.0054,-0.0118,-0.0039000000000000007,-0.0036000000000000003,-0.0107,-1.5710000000000002,-0.023399999999999997,-0.0668,0.32069565217391305,-0.05565217391304348,2.652304347826087,2.0,30.308,0.966,2.2,94.22,120.0,1,motorway,3,1,40.469315,-3.431938,8.238,93.8,D1,Drowsy,motor
302,93.5,40.468784,-3.435383,586.7,6,5,258.0,0.352,1,5,1,1.0,-0.006199999999999999,-0.005900000000000001,0.0089,-0.005100000000000001,-0.0058000000000000005,0.0091,-1.5657999999999999,-0.0206,-0.051500000000000004,0.3992962962962963,-0.04722222222222222,2.6651481481481483,2.0,29.776,0.954,3.0,93.46000000000001,120.0,1,motorway,3,1,40.468876,-3.43478,1.291,93.3,D1,Drowsy,motor
303,93.9,40.468731,-3.435693,587.0,6,5,257.7,0.703,1,5,1,1.0,-0.0075000000000000015,0.014499999999999999,0.0012000000000000001,-0.0093,0.0132,0.0021,-1.5655000000000001,-0.0156,-0.0464,0.3880769230769231,-0.009576923076923077,2.704269230769231,2.0,30.106,0.962,2.8,93.82000000000001,120.0,1,motorway,3,1,40.468784,-3.435383,1.114,93.5,D1,Drowsy,motor
306,93.2,40.468594,-3.436578,587.9,6,5,257.7,0.352,2,5,1,1.0,-0.004100000000000001,-0.0046,0.0007000000000000003,0.0072,-0.0070999999999999995,-0.0004999999999999999,-1.5552,-0.0073999999999999995,-0.026600000000000002,0.6455909090909091,-0.008136363636363636,2.6415454545454544,2.0,-1.0,-1.0,1.0,92.88000000000001,120.0,1,motorway,3,1,40.468678,-3.436001,1.413,92.4,D1,Drowsy,motor
308,93.1,40.468494,-3.437166,586.4,6,5,257.7,0.0,2,5,1,1.0,-0.0191,-8.673617379884036e-20,0.00010000000000000009,-0.0172,0.0013000000000000002,-0.0003000000000000001,-1.549,0.0008,-0.0162,0.6255454545454545,-0.022318181818181817,2.726318181818182,2.0,-1.0,-1.0,1.0,93.13333333333333,120.0,1,motorway,3,1,40.468594,-3.436578,1.532,93.2,D1,Drowsy,motor
309,93.1,40.468445,-3.437458,586.2,6,5,257.0,0.703,2,5,1,1.0,0.0061111111111111106,0.013888888888888888,0.011444444444444445,0.007555555555555556,0.010888888888888889,0.009777777777777778,-1.5545555555555555,0.0074444444444444445,-0.013222222222222222,0.5751363636363637,-0.023818181818181818,2.719181818181818,2.0,-1.0,-1.0,1.0,93.09999999999998,120.0,1,motorway,3,1,40.468494,-3.437166,1.056,93.1,D1,Drowsy,motor
312,95.3,40.468285,-3.438356,585.3,6,5,256.6,0.352,2,5,1,1.0,0.0005999999999999998,-0.0005000000000000002,-0.0001,-0.0046,0.0021,0.0005,-1.5812000000000002,0.013300000000000001,-0.013500000000000002,0.579,-0.02123809523809524,2.7034285714285713,2.0,4.426666666666667,-0.635,1.0,94.96666666666665,120.0,1,motorway,3,1,40.468391,-3.437755,1.198,94.3,D1,Drowsy,motor
313,96.0,40.468231,-3.438659,585.0,6,5,256.6,0.352,2,5,1,1.0,-0.0089,0.0029,-0.0063,-0.0079,0.0021,-0.0051,-1.5802,0.011699999999999999,-0.0149,0.6195,-0.03983333333333333,2.684125,2.0,-1.0,-1.0,0.3333333333333333,95.76666666666667,120.0,1,motorway,3,1,40.468285,-3.438356,1.151,96.0,D1,Drowsy,motor
316,96.5,40.468075,-3.439577,585.0,6,5,256.6,0.352,2,5,1,1.0,-0.0118,0.0071,-0.0164,-0.0121,0.0036999999999999997,-0.016300000000000002,-1.5406,0.0256,-0.0118,0.7021052631578947,-0.025157894736842105,2.7075789473684213,2.0,35.36,1.314,1.6,96.82000000000001,120.0,1,motorway,3,1,40.468182,-3.438964,1.403,97.3,D1,Drowsy,motor
318,94.8,40.467972,-3.44017,583.5,6,5,256.6,0.352,0,5,1,1.0,-0.0103,0.0243,0.0039,-0.008700000000000001,0.026500000000000003,0.0035000000000000005,-1.5334999999999999,0.0012,-0.019700000000000002,0.10483333333333333,-0.056791666666666664,2.14025,1.25,8.7475,-0.3875,1.25,94.7,120.0,1,motorway,3,1,40.468075,-3.439578,1.86,94.4,D1,Drowsy,motor
321,94.7,40.467819,-3.441065,582.1,6,5,259.5,1.758,0,5,1,1.0,-0.0319,-0.005,0.0005000000000000001,-0.0369,-0.0067,0.0012000000000000001,-1.5629,-0.029699999999999997,-0.0553,0.3270434782608696,-0.04643478260869566,2.7217826086956523,1.9130434782608696,-1.0,-1.0,1.0,94.5,120.0,1,motorway,3,1,40.467972,-3.44017,2.425,94.2,D1,Drowsy,motor
326,95.0,40.467621,-3.442563,582.4,6,5,262.3,1.406,2,5,1,1.0,-0.0123,-0.0004999999999999998,-0.004100000000000001,-0.009999999999999998,0.0018,-0.0013999999999999998,-1.5664,-0.013900000000000001,-0.09390000000000001,0.5509130434782609,-0.07269565217391304,2.6875652173913043,1.9130434782608696,-1.0,-1.0,1.0,94.88,120.0,1,motorway,3,1,40.467819,-3.441066,5.159,95.0,D1,Drowsy,motor
329,94.2,40.467525,-3.443487,580.5,6,5,263.3,0.703,0,5,1,1.0,-0.0028999999999999976,-0.008,-0.0116,-0.0103,-0.0051,-0.008,-1.5531,0.0032,-0.0857,-0.013874999999999998,0.14454166666666665,2.5885833333333332,1.75,-1.0,-1.0,2.0,94.2,120.0,1,motorway,3,1,40.46759,-3.44287,1.61,94.2,D1,Drowsy,motor
338,96.8,40.467297,-3.446235,580.2,6,5,262.6,0.352,0,5,1,1.0,-0.0172,0.014000000000000002,0.0097,-0.0156,0.0171,0.010400000000000001,-1.6036000000000001,-0.0184,-0.027200000000000002,0.12672,0.03292,2.7786399999999998,0.84,35.085,1.31,3.0,96.4,120.0,1,motorway,3,2,40.467525,-3.443487,8.761,96.0,D1,Drowsy,motor
341,101.7,40.467209,-3.447213,580.6,4,5,263.3,0.352,1,5,1,1.0,-0.004000000000000001,0.0128,-0.0018999999999999996,-0.0039,0.0106,-0.0010999999999999998,-1.6087,0.005,-0.025500000000000002,0.4721923076923077,-0.026076923076923077,2.612461538461538,2.0,34.714,1.236,2.0,101.02000000000001,120.0,1,motorway,3,2,40.467297,-3.446236,2.387,100.0,D1,Drowsy,motor
343,104.3,40.467155,-3.447897,581.2,4,5,264.0,0.703,1,5,1,1.0,-0.0092,9.999999999999975e-05,-0.014499999999999999,-0.010100000000000001,0.0018000000000000002,-0.0157,-1.5958999999999999,0.0104,-0.0273,0.37792000000000003,0.00444,2.47648,2.0,35.57333333333333,1.2316666666666667,1.5,103.86666666666667,120.0,1,motorway,3,2,40.467209,-3.447214,1.95,103.0,D1,Drowsy,motor
352,105.3,40.466888,-3.451008,582.6,6,5,265.4,0.703,0,5,1,1.0,-0.01,0.0064,0.00030000000000000003,-0.0107,0.0043,0.001,-1.574,-0.0047,-0.0395,-0.13407407407407407,0.09748148148148149,2.807148148148148,1.962962962962963,29.508,0.8160000000000001,2.0,105.3,120.0,1,motorway,3,2,40.467155,-3.447897,8.558,105.3,D1,Drowsy,motor
353,105.6,40.466866,-3.451347,583.0,6,5,265.4,0.352,0,5,1,1.0,-0.0126,0.0078,-0.0043,-0.0102,0.0072,-0.0017000000000000001,-1.5721,-0.011399999999999999,-0.0445,-0.07117391304347827,0.04873913043478261,2.762086956521739,2.0,14.594,-0.07999999999999999,2.0,105.47999999999999,120.0,1,motorway,3,2,40.466888,-3.451008,0.887,105.3,D1,Drowsy,motor
356,102.8,40.466789,-3.452383,580.4,4,5,266.7,0.872,0,5,1,1.0,-0.0125,-0.0129,0.0015,-0.013800000000000002,-0.013800000000000002,0.0005,-1.5458,-0.0059,-0.055600000000000004,0.20576,0.013839999999999998,2.7586399999999998,1.96,41.472,1.446,2.0,103.4,120.0,1,motorway,3,2,40.466866,-3.451348,2.255,104.3,D1,Drowsy,motor
357,103.6,40.466774,-3.452722,581.1,4,5,266.7,0.0,0,4,0,1.0,-0.0086,0.0237,0.0021,-0.0082,0.0207,0.0015,-1.5444,-0.011199999999999998,-0.056999999999999995,0.28974074074074074,-0.003074074074074074,2.7048518518518523,1.9259259259259258,41.656,1.454,2.0,103.28,120.0,1,motorway,3,2,40.466789,-3.452384,0.57,102.8,D1,Drowsy,motor
358,101.3,40.46677,-3.453047,581.7,6,5,267.5,0.825,0,4,0,1.0,-0.011,-0.0085,0.0005,-0.0116,-0.0047,0.0013,-1.5446,-0.02,-0.0663,0.284,0.005565217391304348,2.8369130434782606,1.9565217391304348,24.613999999999997,0.476,1.6,102.22,120.0,1,motorway,3,2,40.466774,-3.452723,0.968,103.6,D1,Drowsy,motor
361,99.0,40.466751,-3.454013,581.7,4,5,268.6,0.0,0,4,0,1.0,-0.0128,0.0076999999999999985,0.0006000000000000001,-0.0127,0.005,0.0018000000000000002,-1.5514,-0.0099,-0.0736,0.3772413793103448,-0.02093103448275862,2.7808275862068967,1.9310344827586208,-1.0,-1.0,1.0,99.1,120.0,1,motorway,3,2,40.46677,-3.453047,2.332,99.4,D1,Drowsy,motor
362,100.5,40.466747,-3.454354,580.1,4,5,268.6,0.0,0,4,0,1.0,-0.0091,-0.0013000000000000002,-0.0012000000000000001,-0.0113,-0.0001,-0.0019999999999999996,-1.5498999999999998,-0.0124,-0.078,0.33017391304347826,-0.04865217391304348,2.6938695652173914,2.0,19.446,0.506,3.2,99.9,120.0,1,motorway,3,2,40.466751,-3.454013,0.791,99.0,D1,Drowsy,motor
363,97.7,40.466751,-3.454679,579.9,4,5,269.0,0.415,1,4,0,1.0,-0.0121,0.004399999999999999,-0.0057,-0.0089,0.0046,-0.0048000000000000004,-1.5502,-0.0155,-0.0814,0.23448148148148149,0.026407407407407407,2.7015925925925925,1.9259259259259258,21.4425,0.7775000000000001,3.25,99.1,120.0,1,motorway,3,2,40.466747,-3.454355,0.525,100.5,D1,Drowsy,motor
364,96.9,40.466751,-3.455008,580.1,4,5,269.7,1.076,0,4,0,1.0,-0.0021999999999999997,0.0012000000000000003,-0.0007,-0.0038,0.0005000000000000001,-0.0021000000000000003,-1.549,-0.0153,-0.0852,0.18625925925925926,-0.008333333333333333,2.743037037037037,2.0,20.506,0.76,3.6,97.22,120.0,1,motorway,3,2,40.466751,-3.454679,0.837,97.7,D1,Drowsy,motor
366,95.9,40.466755,-3.455635,579.4,6,5,270.7,1.0,0,4,0,1.0,-0.0044,-0.0075,-0.00019999999999999993,-0.004599999999999999,-0.005699999999999999,0.0008,-1.5509,-0.0169,-0.0934,0.23040740740740742,0.010925925925925926,2.737740740740741,1.962962962962963,-1.0,-1.0,2.0,95.9,120.0,1,motorway,3,2,40.466751,-3.455009,2.093,95.9,D1,Drowsy,motor
368,94.3,40.466778,-3.456263,579.3,6,5,271.6,0.913,0,3,0,1.0,-0.004,-0.0095,0.0042,-0.0081,-0.0152,0.0039,-1.5545,0.013800000000000002,-0.08349999999999999,0.35296153846153844,-0.02873076923076923,2.7464615384615385,2.0,-1.0,-1.0,2.0,94.9,120.0,1,motorway,3,2,40.466759,-3.455941,0.835,95.5,D1,Drowsy,motor
369,94.1,40.466793,-3.456589,579.4,6,5,272.5,0.927,0,3,0,1.0,-0.010777777777777778,0.026333333333333334,-0.003333333333333333,-0.007333333333333334,0.027666666666666666,-0.0022222222222222222,-1.5573333333333332,0.00988888888888889,-0.08255555555555555,0.2749130434782609,-0.08378260869565217,2.7303043478260873,2.0,-1.0,-1.0,2.0,94.19999999999999,120.0,1,motorway,3,2,40.466778,-3.456263,1.089,94.3,D1,Drowsy,motor
372,91.7,40.466824,-3.457499,580.9,4,5,272.5,0.0,0,3,0,1.0,-0.0104,-0.0081,0.0103,-0.011699999999999999,-0.0076,0.0097,-1.5525,-0.0018000000000000002,-0.0859,0.1075925925925926,-0.014148148148148148,2.8114444444444446,1.8518518518518519,-1.0,-1.0,1.0,92.06,120.0,1,motorway,3,2,40.466805,-3.456899,1.216,92.6,D1,Drowsy,motor
373,92.4,40.466843,-3.457796,580.4,6,5,272.9,0.397,0,3,0,1.0,-0.0114,-0.0099,0.005900000000000001,-0.011699999999999999,-0.009600000000000001,0.0063,-1.5549,-0.0060999999999999995,-0.0856,0.1371923076923077,0.031384615384615386,2.7961153846153843,1.8846153846153846,-1.0,-1.0,1.75,92.22500000000001,120.0,1,motorway,3,2,40.466824,-3.457499,1.1,91.7,D1,Drowsy,motor
376,91.3,40.466885,-3.458671,584.0,6,5,273.6,0.721,0,2,0,1.0,-0.0064,0.014500000000000002,0.0054,-0.009,0.013900000000000001,0.0058,-1.5729,0.0054,-0.07239999999999999,-0.011833333333333333,0.013083333333333334,2.754,1.7916666666666667,-1.0,-1.0,1.0,91.17999999999999,120.0,1,motorway,3,2,40.466858,-3.458082,1.219,91.0,D1,Drowsy,motor
378,90.9,40.466915,-3.459263,582.7,4,5,273.6,0.449,0,2,0,1.0,-0.0041111111111111105,-0.005222222222222222,-0.015666666666666666,-0.004,-0.005111111111111111,-0.013777777777777778,-1.573,-0.007555555555555556,-0.07644444444444444,-0.09073913043478261,0.07965217391304348,2.757695652173913,1.6956521739130435,-1.0,-1.0,0.0,91.38,120.0,1,motorway,3,2,40.466885,-3.458671,1.196,92.1,D1,Drowsy,motor
380,92.0,40.466957,-3.459843,580.0,4,5,273.6,0.0,0,2,0,1.0,-0.010400000000000001,-0.0058,0.0102,-0.010199999999999999,-0.005699999999999999,0.009999999999999998,-1.5823,0.0041,-0.07239999999999999,0.1792,0.0264,2.8398,1.6,-1.0,-1.0,0.0,91.76666666666667,120.0,1,motorway,3,2,40.466915,-3.459263,1.915,91.3,D1,Drowsy,motor
381,92.7,40.466972,-3.460142,580.2,4,5,273.6,0.0,1,2,0,1.0,-0.011,0.0036999999999999997,0.007000000000000001,-0.0121,0.0042,0.006900000000000001,-1.5885,0.0034000000000000002,-0.07010000000000001,0.4381111111111111,-0.00033333333333333283,2.7842222222222226,1.9259259259259258,-1.0,-1.0,1.0,92.525,120.0,1,motorway,3,2,40.466957,-3.459844,0.735,92.0,D1,Drowsy,motor
382,94.0,40.466995,-3.460442,581.1,4,5,273.6,0.0,2,2,0,1.0,-0.0045,-0.0134,0.0094,-0.0041,-0.0093,0.0099,-1.5953000000000002,-0.0073999999999999995,-0.0673,0.6216086956521739,0.05413043478260869,2.694434782608696,2.0,-1.0,-1.0,1.0,93.47999999999999,120.0,1,motorway,3,2,40.466972,-3.460142,1.081,94.0,D1,Drowsy,motor
386,100.4,40.467056,-3.461693,582.0,4,5,274.0,0.429,0,2,0,1.0,-0.0092,0.014000000000000002,0.0079,-0.0093,0.0153,0.0078,-1.6196000000000002,-0.0392,-0.0397,-0.10288,-0.01328,2.73852,2.0,28.02,1.006,1.0,100.08000000000001,120.0,1,motorway,3,2,40.467018,-3.460744,2.239,98.8,D1,Drowsy,motor
388,105.5,40.467087,-3.462361,584.5,6,5,273.3,0.732,0,2,0,1.0,-0.0178,-0.0008000000000000001,0.0004999999999999998,-0.013600000000000001,-0.0024000000000000002,0.0017000000000000001,-1.6291,-0.026600000000000002,-0.0369,-0.28214814814814815,0.03759259259259259,2.7017777777777776,1.962962962962963,29.958,1.036,1.0,104.05999999999999,120.0,1,motorway,3,2,40.467056,-3.461694,2.108,105.5,D1,Drowsy,motor
391,110.5,40.46714,-3.463431,587.0,6,5,272.9,0.908,0,2,0,1.0,-0.008700000000000001,0.0428,-0.0259,-0.009,0.035699999999999996,-0.0252,-1.6103999999999998,-0.0241,-0.0303,-0.2364166666666667,0.07616666666666667,2.7231666666666663,2.0,32.94199999999999,1.084,1.0,109.66,120.0,1,motorway,3,2,40.467102,-3.462711,1.974,108.4,D1,Drowsy,motor
393,111.5,40.467182,-3.464149,584.0,6,5,272.9,0.0,2,2,0,1.0,-0.0082,-0.0045000000000000005,-0.009600000000000001,-0.008,-0.0094,-0.0109,-1.5833,-0.0222,-0.034600000000000006,0.8590769230769231,0.05246153846153846,2.7314615384615384,2.0,35.746,1.156,1.0,111.42,120.0,1,motorway,3,2,40.46714,-3.463431,1.717,111.1,D1,Drowsy,motor
395,112.2,40.467216,-3.464883,585.1,6,5,271.9,0.936,0,2,0,1.0,-0.0071,-0.0247,-0.0023,-0.0091,-0.0312,-0.004200000000000001,-1.5724,0.0112,-0.014099999999999998,0.0,0.0,2.6963684210526315,0.0,-1.0,-1.0,1.0,112.10000000000001,120.0,1,motorway,3,1,40.467182,-3.46415,1.252,111.9,D1,Drowsy,motor
396,112.1,40.467224,-3.465252,585.0,6,5,271.4,1.411,0,2,0,1.0,0.0016,0.0004999999999999998,-0.006500000000000001,0.0,0.00030000000000000003,-0.0053,-1.5725,0.0217,0.0046,-0.050916666666666666,-0.0077083333333333335,2.93125,0.25,-1.0,-1.0,1.0,112.14000000000001,120.0,1,motorway,3,1,40.467216,-3.464883,1.009,112.2,D1,Drowsy,motor
400,112.4,40.467239,-3.466752,584.6,6,5,270.3,0.699,0,2,0,1.0,-0.00020000000000000017,-0.005200000000000001,-0.00030000000000000035,-0.001799999999999999,-0.0046,0.0006000000000000001,-1.5689,0.005,0.029699999999999997,-0.20847826086956522,-0.004,2.933913043478261,2.0,-1.0,-1.0,1.0,112.4,120.0,1,motorway,3,1,40.467228,-3.465629,2.187,112.4,D1,Drowsy,motor
407,112.3,40.467201,-3.469361,584.4,6,5,267.4,0.438,0,2,0,1.0,-0.0153,-0.035199999999999995,-0.0076,-0.0153,-0.035699999999999996,-0.0073999999999999995,-1.5431,-0.0103,0.0385,-0.12115999999999999,0.019119999999999998,2.89856,2.0,40.494,1.294,1.6,112.58,120.0,1,motorway,3,1,40.467239,-3.466752,6.76,113.0,D1,Drowsy,motor
408,110.4,40.46719,-3.469717,583.9,4,5,266.7,1.088,0,2,0,1.0,0.0013999999999999998,-0.010499999999999999,-0.008799999999999999,-0.0011000000000000003,-0.0132,-0.0093,-1.5342,0.0028,0.048,0.23923076923076922,-0.03757692307692308,2.8984230769230765,2.0,37.504,1.214,2.0,111.16,120.0,1,motorway,3,1,40.467201,-3.469362,0.871,112.3,D1,Drowsy,motor
411,106.4,40.467125,-3.470767,583.9,6,5,265.2,0.0,1,2,0,1.0,0.0018999999999999996,0.024399999999999998,0.0005,0.003000000000000001,0.020499999999999997,-0.0013999999999999998,-1.521,0.013600000000000001,0.071,0.6070416666666666,-0.10766666666666667,2.903958333333333,2.0,30.375,1.0216666666666667,2.0,107.03333333333335,120.0,1,motorway,3,1,40.46719,-3.469717,2.637,108.3,D1,Drowsy,motor
414,103.2,40.46703,-3.471795,583.2,6,5,262.4,1.614,2,3,0,1.0,-0.0229,0.0188,-0.0038999999999999994,-0.0218,0.0175,-0.004399999999999999,-1.532,-0.008,0.0608,0.2686538461538462,-0.07088461538461538,3.0415769230769234,1.1538461538461537,17.62,0.2916666666666667,2.0,103.39999999999999,120.0,1,motorway,3,1,40.467125,-3.470768,2.506,103.8,D1,Drowsy,motor
416,100.8,40.466957,-3.472464,582.5,6,5,262.1,0.313,2,3,0,1.0,-0.009600000000000001,-0.005699999999999999,0.013900000000000001,-0.007800000000000001,-0.0105,0.012199999999999999,-1.542,0.046599999999999996,0.0703,-0.5826538461538462,-0.0796923076923077,3.5099615384615386,1.5384615384615385,-1.0,-1.0,2.0,101.32,120.0,1,motorway,3,1,40.46703,-3.471795,1.45,102.1,D1,Drowsy,motor
420,100.7,40.466812,-3.473743,583.1,6,5,259.9,1.291,0,3,0,1.0,-0.0051,0.0126,-0.0108,-0.0049,0.0087,-0.0094,-1.5562,0.0499,0.09770000000000001,-0.04556521739130435,0.12117391304347826,2.8206086956521736,2.0,-1.0,-1.0,1.1428571428571428,100.87142857142858,120.0,1,motorway,3,1,40.466957,-3.472464,3.444,101.3,D1,Drowsy,motor
422,99.0,40.466698,-3.474391,582.4,6,5,258.7,1.281,0,3,0,1.0,-0.019200000000000002,-0.0209,-0.0064,-0.0169,-0.0164,-0.0063,-1.5396,0.027600000000000003,0.09090000000000001,-0.16441666666666666,0.10712500000000001,2.7750833333333333,2.0,-1.0,-1.0,1.0,99.34285714285714,-1.0,0,track,1,1,40.466812,-3.473743,1.491,100.2,D1,Drowsy,motor
424,96.9,40.466606,-3.475001,582.5,6,5,257.7,0.969,0,3,0,1.0,-0.003300000000000001,0.0010999999999999996,0.0037000000000000006,-0.0018999999999999996,0.0027,0.0027,-1.5292999999999999,0.023799999999999998,0.08919999999999999,-0.07795833333333334,0.121375,2.674208333333333,2.0,-1.0,-1.0,1.0,97.41428571428573,120.0,1,motorway,3,1,40.466698,-3.474391,1.333,98.7,D1,Drowsy,motor
425,96.4,40.466553,-3.475306,582.4,6,5,257.0,0.717,0,3,0,1.0,-0.014900000000000002,-0.0063,-0.0010000000000000002,-0.014400000000000001,-0.004,-0.0002,-1.5310000000000001,0.0213,0.0858,-0.024153846153846154,0.11996153846153847,2.722192307692308,2.0,-1.0,-1.0,1.0,96.5,120.0,1,motorway,3,1,40.466606,-3.475001,0.983,96.9,D1,Drowsy,motor
431,91.7,40.466228,-3.477108,581.7,6,5,255.5,0.0,0,3,0,1.0,-0.0111,-0.0154,-0.0035000000000000005,-0.0121,-0.014600000000000002,-0.0022,-1.5478999999999998,0.0328,0.0723,0.13971999999999998,0.10636000000000001,2.7431600000000005,2.0,-1.0,-1.0,2.0,92.03333333333335,120.0,1,motorway,3,1,40.466553,-3.475306,5.974,92.7,D1,Drowsy,motor
444,80.9,40.465782,-3.480696,581.8,6,5,289.4,21.501,0,3,0,1.0,-0.008000000000000002,-0.0713,-0.004300000000000001,-0.0196,-0.05569999999999999,-0.0013000000000000002,-1.6003,-0.1889,-0.49560000000000004,0.527423076923077,-0.06961538461538462,3.9590769230769234,1.9230769230769231,-1.0,-1.0,0.0,80.93333333333334,80.0,1,primary_link,1,1,40.466228,-3.477108,12.542,81.0,D1,Drowsy,motor
446,82.2,40.465912,-3.481191,582.4,6,5,292.1,2.73,0,3,0,1.0,-0.0359,-0.1083,-0.0222,-0.0426,-0.0949,-0.0242,-1.624,-0.1861,-0.6296999999999999,0.12654545454545454,0.0015909090909090907,2.6773636363636366,1.0454545454545454,-1.0,-1.0,0.0,82.3,70.0,1,primary_link,1,1,40.465782,-3.480697,1.362,82.5,D1,Drowsy,motor
448,82.8,40.466068,-3.481674,582.6,6,5,294.0,1.859,0,3,0,1.0,-0.0051,-0.0112,-0.025,-0.0042,-0.0154,-0.0246,-1.5449,-0.0355,-0.6325000000000001,0.0,0.0,3.172,-1.0,-1.0,-1.0,0.0,83.28,70.0,1,primary_link,1,1,40.465912,-3.481191,1.712,84.0,D1,Drowsy,motor
456,75.8,40.466667,-3.483601,583.2,4,5,281.2,13.878,1,3,0,1.0,-0.0407,0.0036999999999999997,-0.0306,-0.027200000000000002,0.0039,-0.033,-1.5509,0.1322,-0.363,-0.46047368421052637,0.05463157894736842,2.875210526315789,2.0,-1.0,-1.0,0.0,76.89999999999999,70.0,1,primary_link,1,1,40.466068,-3.481674,7.529,79.1,D1,Drowsy,motor
458,74.2,40.466717,-3.484096,584.2,4,5,272.8,8.438,0,3,0,1.0,-0.025,-0.0201,-0.0215,-0.0245,-0.0258,-0.0223,-1.5539999999999998,0.2003,-0.1597,-0.009466666666666668,0.07466666666666667,2.5251333333333337,2.0,-1.0,-1.0,0.0,75.35,70.0,1,primary_link,1,1,40.466667,-3.483602,1.498,76.5,D1,Drowsy,motor
459,72.9,40.466698,-3.484332,584.2,4,5,264.4,13.307,0,3,0,1.0,-0.02488888888888889,0.02588888888888889,-0.1827777777777778,-0.021333333333333333,0.025555555555555557,-0.16977777777777778,-1.552,0.19466666666666665,-0.06322222222222222,-0.002263157894736842,0.006526315789473684,2.6061578947368425,1.9473684210526316,-1.0,-1.0,0.0,73.55000000000001,70.0,1,primary_link,1,1,40.466717,-3.484096,1.172,72.9,D1,Drowsy,motor
461,66.2,40.466644,-3.484768,583.5,4,5,251.2,13.24,0,3,0,1.0,-0.0176,-0.030600000000000006,0.010400000000000001,-0.0161,-0.018,0.010499999999999999,-1.5744,0.15589999999999998,0.10800000000000001,-0.23808333333333334,0.012708333333333334,2.733791666666667,2.0,-1.0,-1.0,0.0,69.0,70.0,1,primary_link,1,1,40.466675,-3.484565,0.503,71.8,D1,Drowsy,motor
462,65.7,40.466602,-3.484967,583.5,4,5,247.5,10.897,0,3,0,1.0,-0.016900000000000002,-0.038,-0.0042,-0.019700000000000002,-0.046200000000000005,-0.002,-1.5998,0.2124,0.2451,-0.2458695652173913,-0.005130434782608695,2.6876521739130435,2.0,-1.0,-1.0,0.0,65.9,70.0,1,primary_link,1,1,40.466644,-3.484768,0.565,66.2,D1,Drowsy,motor
468,76.6,40.465973,-3.486097,585.8,4,5,231.2,9.618,0,2,0,1.0,-0.0152,0.013500000000000002,0.0017999999999999995,-0.0134,0.014799999999999999,0.0006000000000000002,-1.6351,0.0173,0.541,0.05533333333333333,-0.08222222222222222,2.7472592592592595,2.0,-1.0,-1.0,0.0,76.1,70.0,1,primary_link,1,1,40.466602,-3.484967,5.537,74.6,D1,Drowsy,motor
470,80.7,40.465725,-3.486487,586.9,4,5,231.6,0.441,0,2,0,1.0,-0.0116,0.006699999999999999,0.0098,-0.0144,0.006799999999999999,0.0068000000000000005,-1.6305,-0.0114,0.5267000000000001,-0.25514285714285717,0.0735,2.6352857142857142,1.9642857142857142,-1.0,-1.0,0.0,79.78,90.0,3,motorway_link,1,1,40.465973,-3.486097,1.225,78.4,D1,Drowsy,motor
472,84.4,40.46545,-3.486926,587.7,6,5,231.5,0.255,0,2,0,1.0,-0.0191,-0.020900000000000002,-0.003799999999999999,-0.019499999999999997,-0.023399999999999997,-0.0045,-1.6296,-0.020999999999999998,0.5209,-0.19392307692307692,0.1265769230769231,2.5071538461538463,1.8846153846153846,-1.0,-1.0,0.0,83.92,90.0,3,motorway_link,1,1,40.465725,-3.486488,1.871,83.2,D1,Drowsy,motor
475,78.0,40.465042,-3.487551,586.4,6,5,224.3,0.512,0,1,0,1.0,-0.097,-0.2096,-0.0789,-0.09359999999999999,-0.20329999999999998,-0.0763,-1.584,0.0914,0.6389,-0.34546153846153843,-0.0055769230769230765,3.3578076923076923,1.5,-1.0,-1.0,0.0,80.0,90.0,3,motorway_link,1,1,40.46545,-3.486926,2.464,84.0,D1,Drowsy,motor
477,68.2,40.464733,-3.487851,587.9,4,5,208.0,16.247,1,1,0,1.0,-0.014700000000000001,-0.1718,-0.0795,-0.013800000000000002,-0.189,-0.082,-1.643,0.1437,1.0173999999999999,-0.42972,0.14684,2.71604,1.0,-1.0,-1.0,0.0,70.64999999999999,50.0,1,primary,1,1,40.465042,-3.487552,1.695,73.1,D1,Drowsy,motor
478,65.6,40.464569,-3.487935,589.2,4,5,191.0,25.239,0,1,0,1.0,-0.0312,-0.0807,-0.0528,-0.033,-0.0803,-0.0539,-1.6132000000000002,0.22810000000000002,1.176,-0.5366153846153846,0.1396153846153846,3.2688461538461535,1.6923076923076923,-1.0,-1.0,0.0,66.71428571428571,50.0,1,primary,1,1,40.464733,-3.487851,0.916,68.2,D1,Drowsy,motor
480,60.6,40.464249,-3.487961,591.3,4,5,168.3,22.693,0,1,0,1.0,-0.0369,-0.001899999999999999,-0.05600000000000001,-0.0322,-0.008,-0.0551,-1.6199999999999999,0.3229,1.5767,0.4286923076923077,0.10880769230769231,3.843346153846154,1.8461538461538463,-1.0,-1.0,0.0,61.56,50.0,1,primary,1,1,40.464569,-3.487935,1.195,63.0,D1,Drowsy,motor
483,56.5,40.463856,-3.48772,592.9,4,5,147.1,14.036,0,1,0,1.0,-0.030699999999999995,-0.0259,-0.0333,-0.0309,-0.017499999999999998,-0.028599999999999997,-1.6212,0.2554,2.0713999999999997,-0.22664285714285715,0.09089285714285714,2.9646785714285713,1.7857142857142858,-1.0,-1.0,0.0,56.379999999999995,50.0,1,primary,1,1,40.464249,-3.487961,2.49,56.2,D1,Drowsy,motor
485,57.7,40.463657,-3.487458,592.8,4,5,126.3,20.841,0,1,0,1.0,-0.045700000000000005,-0.0364,-0.0593,-0.0434,-0.0328,-0.056600000000000004,-1.6324999999999998,0.2665,2.4125,-0.2126923076923077,0.07115384615384615,2.8907307692307693,1.9615384615384615,-1.0,-1.0,0.0,57.357142857142854,50.0,1,primary,1,1,40.463856,-3.48772,2.025,57.7,D1,Drowsy,motor
488,59.1,40.463497,-3.486916,593.4,4,5,117.6,7.23,1,2,0,1.0,-0.0235,0.033100000000000004,-0.0596,-0.026600000000000002,0.036699999999999997,-0.055099999999999996,-1.6346,0.2285,2.9124,-0.3703913043478261,0.0062173913043478265,2.6630434782608696,2.0,10.888,0.098,0.4,58.620000000000005,50.0,1,primary,1,1,40.463585,-3.487276,2.153,59.1,D1,Drowsy,motor
491,63.1,40.463627,-3.486327,593.8,4,5,69.7,1.4,0,2,0,1.0,-0.024,0.1254,-0.006499999999999999,-0.0252,0.1082,-0.005200000000000001,-1.6502,0.192,-2.9552,0.14779166666666668,-0.023666666666666666,2.8372499999999996,2.0,-1.0,-1.0,0.0,62.625,50.0,1,primary,1,1,40.463539,-3.486688,1.835,61.2,D1,Drowsy,motor
493,70.5,40.463783,-3.485917,594.0,4,5,64.3,5.334,1,2,0,1.0,0.0112,0.11520000000000001,-0.0024999999999999996,0.005,0.11750000000000001,-0.0048000000000000004,-1.6058,0.046,-2.9676,0.54425,0.05675,3.2110833333333333,2.0,-1.0,-1.0,0.0,67.94,100.0,3,primary,1,1,40.463627,-3.486327,1.416,64.1,D1,Drowsy,motor
495,77.3,40.463917,-3.485445,591.8,4,5,69.6,5.273,0,2,0,1.0,-0.0117,0.0068000000000000005,0.0017000000000000001,-0.009,0.014199999999999999,0.0031,-1.6103,-0.053500000000000006,-3.0634,0.44735714285714284,-0.051071428571428566,3.1591071428571427,2.0,-1.0,-1.0,0.0,76.13333333333333,90.0,1,motorway_link,1,1,40.463783,-3.485917,1.504,73.8,D1,Drowsy,motor
497,84.6,40.464062,-3.484916,590.5,4,5,72.4,2.812,0,2,0,1.0,-0.0655,-0.0182,-0.013600000000000001,-0.071,-0.014700000000000001,-0.014000000000000002,-1.6258,-0.0325,-3.0984000000000003,-0.1316923076923077,0.020961538461538462,3.2434615384615384,1.9615384615384615,-1.0,-1.0,0.0,83.74285714285713,90.0,1,motorway_link,1,1,40.463917,-3.485445,1.274,81.6,D1,Drowsy,motor
499,87.9,40.464203,-3.484384,589.7,6,5,71.0,2.109,0,2,0,1.0,-0.005625000000000001,0.01375,-0.022625,-0.006125,0.007625000000000002,-0.02525,-1.636125,0.0011250000000000001,-3.09675,-0.29026315789473683,0.06810526315789474,3.1462631578947367,2.0,-1.0,-1.0,0.0,87.96666666666665,90.0,1,motorway_link,1,1,40.464062,-3.484916,1.712,88.0,D1,Drowsy,motor
501,93.6,40.464314,-3.483811,588.8,4,5,73.8,2.812,0,2,0,1.0,-0.00019999999999999827,-0.0166,-0.0644,-0.0012000000000000001,-0.016300000000000002,-0.059199999999999996,-1.6155000000000002,0.0218,-3.0979,0.18541379310344827,0.06579310344827585,2.556448275862069,1.8275862068965518,-1.0,-1.0,0.0,92.64999999999999,90.0,1,motorway_link,1,1,40.464203,-3.484383,1.566,91.7,D1,Drowsy,motor
503,91.9,40.464451,-3.483231,588.3,4,5,73.8,0.703,1,2,0,1.0,-0.0129,0.0101,-0.0027,-0.006999999999999999,0.011300000000000001,-0.0063,-1.552,0.0245,-3.0879000000000003,0.3016785714285714,-0.020428571428571428,2.588357142857143,1.9642857142857142,-1.0,-1.0,0.0,92.36666666666667,90.0,1,motorway_link,1,1,40.464314,-3.483811,1.481,93.3,D1,Drowsy,motor
505,91.5,40.464581,-3.482658,588.2,4,5,73.8,0.703,0,2,0,1.0,-0.0196,-0.0101,-0.0105,-0.0186,-0.0091,-0.0086,-1.5572,0.014299999999999998,-3.0809,0.197,-0.00837037037037037,2.6336666666666666,1.1851851851851851,-1.0,-1.0,0.0,91.82000000000001,90.0,1,motorway_link,1,1,40.464451,-3.48323,1.578,92.3,D1,Drowsy,motor
512,90.8,40.465073,-3.480736,587.3,6,5,71.0,0.703,0,2,0,1.0,0.023100000000000002,0.0188,0.0008999999999999992,0.0086,0.0174,-0.00029999999999999976,-1.5656,0.027500000000000004,-3.0098,-0.42591999999999997,0.06636,2.7862799999999996,2.0,-1.0,-1.0,1.3333333333333333,90.8,90.0,1,motorway_link,1,1,40.464581,-3.482658,6.713,90.8,D1,Drowsy,motor
514,90.6,40.465233,-3.480196,586.8,6,5,67.6,3.408,0,2,0,1.0,-0.003999999999999999,0.0311,0.0014,-0.0045,0.0329,0.0010999999999999998,-1.5518,-0.0084,-3.0153,0.08022727272727272,-0.03772727272727273,2.896181818181818,2.0,-1.0,-1.0,2.0,90.75,90.0,1,motorway_link,1,1,40.465073,-3.480736,1.579,90.9,D1,Drowsy,motor
516,89.0,40.465389,-3.479666,586.2,6,5,61.5,6.131,0,2,0,1.0,0.006499999999999999,0.019700000000000002,0.0158,0.000599999999999999,0.014000000000000002,0.014100000000000001,-1.5564,-0.0045,-3.0298000000000003,-0.059684210526315784,-0.06915789473684211,2.674894736842105,2.0,-1.0,-1.0,3.0,89.125,90.0,1,motorway_link,1,1,40.465233,-3.480195,1.397,89.5,D1,Drowsy,motor
521,93.1,40.465698,-3.478242,584.9,6,5,74.1,0.0,0,2,0,1.0,-0.019200000000000002,0.0126,-0.0006000000000000001,-0.015099999999999999,0.015,0.00020000000000000017,-1.5950000000000002,-0.0206,-3.0683,0.30472,-0.0806,2.82116,2.0,-1.0,-1.0,2.0,92.78,90.0,1,motorway_link,1,1,40.465389,-3.479666,5.024,93.1,D1,Drowsy,motor
524,96.9,40.465897,-3.477311,586.0,6,5,75.1,0.846,0,2,0,1.0,0.0006000000000000005,0.0062,-0.0060999999999999995,-0.0029,0.004,-0.0064,-1.5936,-0.002,-3.0809,0.04408,-0.09256,2.81508,2.0,-1.0,-1.0,2.0,96.40000000000002,90.0,1,motorway_link,1,1,40.465771,-3.477937,1.277,95.4,D1,Drowsy,motor
525,97.5,40.465961,-3.477008,584.7,6,5,75.1,0.0,0,2,0,1.0,-0.0165,0.0043,-0.0216,-0.014499999999999999,0.0064,-0.0189,-1.5819,-0.0039,-3.0835,-0.03648,-0.08896000000000001,2.7875599999999996,2.0,-1.0,-1.0,2.0,97.26,90.0,1,motorway_link,1,1,40.465897,-3.47731,0.608,96.9,D1,Drowsy,motor
527,96.0,40.46608,-3.476386,585.1,6,5,76.0,0.846,0,2,0,1.0,-0.0126,0.0108,0.0059,-0.011699999999999999,0.008499999999999999,0.0036000000000000003,-1.5584,-0.009,-3.0872,-0.14975,-0.07425,2.8790833333333334,2.0,-1.0,-1.0,3.0,96.34285714285714,90.0,1,motorway_link,1,1,40.465961,-3.477007,1.872,97.2,D1,Drowsy,motor
528,95.6,40.466148,-3.476083,585.1,6,5,76.0,0.419,0,2,0,1.0,-0.014000000000000002,-0.0076,0.0104,-0.0131,-0.0048000000000000004,0.009999999999999998,-1.5649000000000002,-0.0106,-3.0919,-0.17837499999999998,-0.04641666666666666,2.860625,2.0,-1.0,-1.0,3.0,95.73333333333333,120.0,1,motorway,4,1,40.46608,-3.476385,1.04,95.6,D1,Drowsy,motor
531,97.9,40.466331,-3.475158,585.1,4,5,77.4,0.837,2,2,0,1.0,-0.009600000000000001,-0.0112,0.0008999999999999998,-0.0063,-0.0161,0.0016,-1.5936,0.0191,-3.0757000000000003,-0.5319583333333333,-0.09833333333333333,3.018166666666666,2.0,-1.0,-1.0,3.0,97.63333333333333,120.0,1,motorway,4,1,40.466206,-3.475768,1.24,97.1,D1,Drowsy,motor
533,99.7,40.466446,-3.474525,585.2,4,5,78.3,0.954,0,2,0,1.0,-0.0121,0.019200000000000002,-0.0017000000000000001,-0.0131,0.0174,-0.0036999999999999997,-1.5884,-0.0008,-3.0716,0.0,0.0,2.9214230769230767,0.0,22.048333333333332,0.8000000000000002,2.3333333333333335,99.46666666666665,120.0,1,motorway,4,1,40.466331,-3.475158,1.185,99.0,D1,Drowsy,motor
535,99.3,40.46656,-3.473889,585.3,4,5,78.3,0.0,0,2,0,1.0,-0.007299999999999999,-2.6020852139652105e-19,-0.005,-0.0079,0.0001,-0.0043,-1.5953,-0.0416,-3.103,0.14112,-0.03336,2.8372,1.48,24.041666666666668,0.8683333333333333,2.0,99.63333333333333,120.0,1,motorway,4,1,40.466446,-3.474524,1.441,100.3,D1,Drowsy,motor
536,101.3,40.46661,-3.473563,585.3,4,5,79.4,1.053,0,2,0,1.0,-0.0102,-0.0062,-0.0047,-0.01,-0.0036000000000000003,-0.0029000000000000002,-1.5914,-0.046400000000000004,-3.1170999999999998,0.014913043478260871,-0.01591304347826087,2.8698260869565217,1.0869565217391304,25.198333333333334,0.9033333333333333,2.0,100.63333333333333,120.0,1,motorway,4,1,40.46656,-3.473889,0.987,99.3,D1,Drowsy,motor
537,102.5,40.466656,-3.473231,585.9,4,5,79.4,1.053,0,2,0,1.0,-0.016599999999999997,-0.024,-0.0114,-0.0147,-0.0233,-0.0125,-1.5815,-0.0301,-3.1215,-0.17167857142857143,0.060714285714285714,2.6035,1.4285714285714286,27.34714285714286,0.9642857142857143,2.0,102.15714285714286,120.0,1,motorway,4,1,40.46661,-3.473562,0.996,101.3,D1,Drowsy,motor
539,103.9,40.466743,-3.472538,588.6,4,5,80.7,1.336,0,2,0,1.0,-0.0053,0.0019000000000000002,-0.0006999999999999999,-0.0081,-0.0023000000000000004,-0.0008,-1.5797,-0.0183,-3.1315,-0.144,0.0705,2.7439615384615386,2.0,26.1675,0.9125000000000001,2.0,103.45,120.0,1,motorway,4,1,40.466656,-3.473231,1.696,103.0,D1,Drowsy,motor
541,104.5,40.466812,-3.471861,588.3,6,5,83.5,2.762,0,2,0,1.0,-0.0009000000000000001,0.010499999999999999,0.0004999999999999999,-0.0015000000000000007,0.0104,-0.0007000000000000001,-1.5823,-0.0248,3.1378,-0.13951851851851851,0.06848148148148148,2.7245185185185186,2.0,28.025000000000002,0.9666666666666667,2.0,104.3,120.0,1,motorway,4,1,40.466743,-3.472538,1.895,103.9,D1,Drowsy,motor
542,105.3,40.466846,-3.471509,588.3,4,5,83.0,0.524,0,2,0,1.0,-0.008199999999999999,-0.003,0.0047,-0.0086,-0.0028,0.0045,-1.5863,-0.0267,3.1338,-0.0515,0.06307692307692307,2.779346153846154,1.9230769230769231,27.368571428571432,0.9385714285714286,2.0,105.07142857142857,120.0,1,motorway,4,1,40.466812,-3.47186,1.032,105.3,D1,Drowsy,motor
544,106.6,40.466896,-3.470787,585.8,6,5,84.5,1.54,1,2,0,1.0,-0.010100000000000001,-0.0045,-0.0007,-0.0097,-0.0026000000000000003,-0.0008,-1.5887,-0.0308,3.122,0.34152,0.0024,2.6905599999999996,2.0,25.467142857142857,0.86,1.0,106.5142857142857,120.0,1,motorway,4,1,40.466869,-3.471149,1.029,106.6,D1,Drowsy,motor
546,109.3,40.466938,-3.470073,587.0,4,5,86.0,1.507,1,2,0,1.0,-0.0053,-0.0004,-0.0052,-0.0075,-0.0008,-0.004399999999999999,-1.5843,-0.0087,3.1256,0.45630769230769236,-0.0010384615384615387,2.673192307692308,2.0,24.79,0.8242857142857142,1.0,108.39999999999999,120.0,1,motorway,4,1,40.466919,-3.470425,1.011,109.3,D1,Drowsy,motor
549,107.0,40.466988,-3.469005,586.9,4,5,86.5,0.0,0,2,0,1.0,-0.011699999999999999,-0.012,0.0032,-0.0089,-0.0095,0.0043,-1.563,-0.0172,3.1229,0.3058636363636364,0.0037272727272727275,2.7438181818181815,2.0,22.604000000000003,0.76,3.0,107.16,120.0,1,motorway,3,1,40.466957,-3.469705,1.672,107.4,D1,Drowsy,motor
