t_sec,speed_kmh,lat,lon,alt,vert_acc,horiz_acc,course,difcourse,hdop,vdop,pdop,active,acc_x,acc_y,acc_z,acc_x_kf,acc_y_kf,acc_z_kf,roll,pitch,yaw,x_lane,phi,road_width,lane_state,dist_front,ttc_front,num_vehicles,gps_speed,max_speed,speed_rel,road_type_osm,num_lanes,lane_id,lat_osm,lon_osm,osm_delay,gps_speed_osm,driver,behavior,road_type
26,72.6,40.505806,-3.356624,605.3,3,5,276.0,0.703,0,0,0,1.0,-0.0097,-0.026500000000000003,0.0218,-0.0063,-0.028399999999999998,0.0185,-1.6727,0.0319,-1.4775,0.0,0.0,3.5,-1.0,-1.0,-1.0,0.0,72.6,90.0,1,motorway_link,2,1,40.505768,-3.356164,2.008,72.6,D2,Drowsy,motor
28,82.0,40.50584,-3.357125,605.3,3,5,275.3,0.703,0,0,0,1.0,-0.0216,0.0534,-0.0167,-0.0158,0.0499,-0.0121,-1.6924,0.0228,-1.4425000000000001,0.18552,0.047080000000000004,3.3462,0.68,-1.0,-1.0,0.0,82.0,90.0,1,motorway_link,2,1,40.505825,-3.356863,0.957,82.0,D2,Drowsy,motor
30,87.6,40.505871,-3.357689,605.5,3,5,275.3,1.406,0,0,0,1.0,0.0044,0.0016,-0.0655,0.005700000000000001,0.0063,-0.06770000000000001,-1.5848,-0.0279,-1.4758,0.236125,-0.10558333333333332,2.9461666666666666,1.9166666666666667,-1.0,-1.0,0.0,87.4875,120.0,1,motorway,4,1,40.50584,-3.357125,1.763,87.6,D2,Drowsy,motor
31,85.9,40.50589,-3.357972,605.2,3,5,276.3,2.461,0,0,0,1.0,-0.0204,-0.0224,-0.0099,-0.0217,-0.0209,-0.0147,-1.5739,-0.0053,-1.4742000000000002,0.23964285714285713,-0.09817857142857143,2.9710714285714284,1.9642857142857142,-1.0,-1.0,0.0,85.80000000000001,120.0,1,motorway,4,1,40.505871,-3.357689,1.098,85.9,D2,Drowsy,motor
33,87.3,40.505936,-3.35853,605.5,3,5,276.0,0.352,0,0,0,1.0,-0.010875,-0.007625,-0.02275,-0.012,-0.008749999999999999,-0.019,-1.5818750000000001,0.00825,-1.452375,-0.241,0.004714285714285714,3.2660952380952377,1.7619047619047619,-1.0,-1.0,0.0,87.36666666666667,120.0,1,motorway,4,1,40.505913,-3.358252,0.866,87.3,D2,Drowsy,motor
34,87.7,40.505962,-3.358829,604.9,3,5,275.6,0.352,0,0,0,1.0,-0.0115,-0.0211,0.0034999999999999988,-0.0154,-0.0174,0.0011999999999999997,-1.572,0.017599999999999998,-1.4346,0.016285714285714285,0.11066666666666666,2.980095238095238,1.9047619047619047,-1.0,-1.0,1.0,87.7,120.0,1,motorway,3,1,40.505936,-3.35853,0.796,87.7,D2,Drowsy,motor
35,87.6,40.505978,-3.359116,604.2,3,5,274.2,1.758,0,0,0,1.0,-0.0164,-0.027700000000000002,0.0139,-0.013900000000000001,-0.029599999999999998,0.0134,-1.5851000000000002,0.0443,-1.4013,0.10427999999999998,0.04936,2.8413600000000003,1.88,-1.0,-1.0,1.0,87.61428571428571,120.0,1,motorway,3,1,40.505962,-3.358829,1.097,87.6,D2,Drowsy,motor
37,89.9,40.505989,-3.3597,604.1,3,5,270.7,3.516,0,0,0,1.0,-0.0186,0.0045,-0.0157,-0.0176,0.004599999999999999,-0.0134,-1.5948,0.0351,-1.3475,0.03923076923076923,0.02192307692307692,2.8542307692307696,1.9230769230769231,-1.0,-1.0,1.0,89.9,120.0,1,motorway,3,1,40.505985,-3.3594,0.93,89.9,D2,Drowsy,motor
39,90.8,40.505981,-3.360289,605.6,3,5,268.2,2.461,0,0,0,1.0,-0.028300000000000002,-0.0155,0.028999999999999998,-0.0299,-0.012199999999999999,0.028700000000000003,-1.6049,0.0288,-1.3115999999999999,0.04938461538461539,0.046538461538461535,2.8242692307692305,1.9230769230769231,-1.0,-1.0,1.1666666666666667,90.8,120.0,1,motorway,3,1,40.505989,-3.3597,1.473,90.8,D2,Drowsy,motor
40,92.1,40.505974,-3.360584,604.3,3,5,267.2,2.461,0,0,0,1.0,-0.012199999999999999,-0.0159,0.0072,-0.0147,-0.014599999999999998,0.0077,-1.6218,0.038900000000000004,-1.2832,0.06295238095238095,0.08961904761904761,2.8533333333333335,1.7142857142857142,-1.0,-1.0,1.7142857142857142,92.1,120.0,1,motorway,3,1,40.505981,-3.360289,1.226,93.6,D2,Drowsy,motor
43,93.3,40.505901,-3.361505,607.2,3,5,262.3,3.516,0,0,0,1.0,-0.017777777777777778,0.002111111111111111,-0.01,-0.014555555555555556,0.0003333333333333333,-0.017555555555555557,-1.5601111111111112,0.017,-1.2064444444444444,-0.1790769230769231,0.029923076923076924,2.883576923076923,1.9230769230769231,14.668333333333335,0.5666666666666667,1.0,93.3,120.0,1,motorway,3,1,40.505959,-3.360883,1.432,93.3,D2,Drowsy,motor
44,91.8,40.505867,-3.361799,606.4,3,5,260.5,3.867,0,0,0,1.0,-0.0028000000000000013,0.0463,0.007299999999999999,-0.0055,0.0432,0.0064,-1.5593,-0.0126,-1.1936,-0.27404,0.018879999999999997,2.8501999999999996,1.8,16.834285714285716,0.66,2.4285714285714284,91.8,120.0,1,motorway,3,1,40.505901,-3.361505,0.992,91.8,D2,Drowsy,motor
45,91.6,40.505825,-3.362103,606.0,3,5,260.2,2.109,0,0,0,1.0,-0.0097,-0.005900000000000001,0.0249,-0.009,-0.0006000000000000002,0.023299999999999998,-1.569,-0.0194,-1.1845,-0.17220833333333332,0.037,2.7919583333333335,1.9166666666666667,18.711666666666666,0.735,3.0,91.59999999999998,120.0,1,motorway,3,1,40.505867,-3.361799,0.817,91.6,D2,Drowsy,motor
46,91.7,40.505787,-3.362402,606.1,3,5,260.2,0.352,0,0,0,1.0,-0.0113,-0.006,0.0086,-0.0091,-0.0078,0.0095,-1.5794000000000001,0.0032,-1.1603999999999999,-0.08765217391304347,0.07078260869565217,2.87495652173913,1.7391304347826086,21.555714285714284,0.8457142857142858,3.0,91.7,120.0,1,motorway,3,1,40.505825,-3.362103,0.667,91.7,D2,Drowsy,motor
48,91.9,40.505669,-3.363001,609.0,3,5,254.9,5.273,0,0,0,1.0,-0.013900000000000001,0.0134,-0.0091,-0.0132,0.013599999999999998,-0.004600000000000001,-1.5978999999999999,-0.0023,-1.1236000000000002,-0.07555555555555556,0.04403703703703704,2.8754444444444442,1.7777777777777777,25.993333333333336,1.02,3.1666666666666665,91.90000000000002,120.0,1,motorway,3,1,40.505787,-3.362403,1.375,91.9,D2,Drowsy,motor
49,92.7,40.5056,-3.363283,608.6,3,5,252.8,3.867,0,0,0,1.0,-0.0010999999999999998,-0.014000000000000002,-0.0010999999999999996,-0.0029000000000000002,-0.011,-0.0055,-1.5781,-0.0015,-1.1096,-0.004148148148148147,0.05544444444444444,2.8319629629629626,1.8888888888888888,27.57166666666667,1.0683333333333334,3.6666666666666665,92.7,120.0,1,motorway,3,1,40.505669,-3.363001,1.037,92.7,D2,Drowsy,motor
51,92.3,40.505463,-3.363858,608.9,3,5,250.7,2.109,0,0,0,1.0,-0.0051,0.014600000000000002,-0.0246,-0.0055,0.0105,-0.0217,-1.5739,0.0213,-1.062,-0.08666666666666666,0.01919047619047619,2.8396190476190477,1.9047619047619047,29.169999999999998,1.137142857142857,3.142857142857143,92.3,120.0,1,motorway,3,1,40.505535,-3.363578,0.551,92.3,D2,Drowsy,motor
52,92.1,40.505375,-3.364139,609.7,3,5,248.6,3.867,0,0,0,1.0,-0.019,0.0154,-0.0108,-0.0159,0.0165,-0.0149,-1.56,0.006,-1.0478999999999998,-0.3162307692307692,0.0017307692307692306,2.856307692307692,1.9230769230769231,29.91,1.1724999999999999,3.0,91.9875,120.0,1,motorway,3,1,40.505463,-3.363858,0.674,92.1,D2,Drowsy,motor
53,91.2,40.505291,-3.364415,609.5,3,5,247.1,3.516,1,0,0,1.0,-0.0011111111111111111,0.01211111111111111,0.008333333333333333,-0.0034444444444444444,0.014888888888888889,0.010888888888888889,-1.5612222222222223,-0.011888888888888888,-1.0436666666666667,-0.44659090909090904,0.019909090909090908,2.7941818181818183,1.9090909090909092,28.965,1.1433333333333333,3.0,91.2,120.0,1,motorway,3,1,40.505375,-3.364139,0.903,91.2,D2,Drowsy,motor
54,90.9,40.505199,-3.364686,610.1,3,5,246.1,2.461,2,0,0,1.0,-0.0129,0.0020000000000000005,-0.0046,-0.0131,-0.0014999999999999996,-0.0045,-1.5607,-0.0111,-1.0323,-0.5361428571428571,0.017249999999999998,2.7931785714285717,1.8571428571428572,27.75375,1.1,3.0,90.875,120.0,1,motorway,3,1,40.505291,-3.364416,0.827,90.9,D2,Drowsy,motor
55,90.7,40.505108,-3.364954,610.0,3,5,244.3,2.812,1,1,0,1.0,-0.0039000000000000007,0.0191,-0.010499999999999999,-0.0024999999999999996,0.020499999999999997,-0.008799999999999999,-1.5534000000000001,-0.027500000000000004,-1.0314999999999999,-0.5619999999999999,0.04596296296296297,2.833,1.9259259259259258,26.532857142857143,1.0557142857142858,4.0,90.60000000000001,120.0,1,motorway,3,1,40.505199,-3.364686,0.983,90.7,D2,Drowsy,motor
57,89.9,40.504902,-3.365471,610.3,3,5,242.9,1.406,0,1,0,1.0,0.0024000000000000002,-0.026000000000000002,0.0060999999999999995,0.0009000000000000001,-0.028200000000000003,0.0048000000000000004,-1.5596,-0.005,-1.0168,-0.14650000000000002,0.07632142857142857,2.8756071428571426,1.8571428571428572,22.48375,0.90125,3.0,89.86250000000001,120.0,1,motorway,3,1,40.505108,-3.364954,1.937,89.9,D2,Drowsy,motor
59,90.5,40.504673,-3.365981,610.2,3,5,238.7,4.219,0,1,0,1.0,-0.004399999999999999,0.0314,-0.008799999999999999,-0.006900000000000001,0.024399999999999998,-0.005300000000000001,-1.5758,0.0188,-1.0046,-0.12615384615384614,0.052000000000000005,2.8215384615384616,1.8846153846153846,20.475,0.815,3.0,90.5,120.0,1,motorway,3,1,40.504902,-3.365472,1.538,90.5,D2,Drowsy,motor
61,91.0,40.504436,-3.366489,610.5,3,5,238.0,0.703,0,1,0,1.0,0.0006999999999999992,0.0019999999999999996,-0.019,-0.0013,0.0008999999999999998,-0.017599999999999998,-1.5523,0.029100000000000004,-1.0219,0.006423076923076924,0.038461538461538464,2.844346153846154,1.9230769230769231,18.38125,0.72625,3.0,90.9,120.0,1,motorway,3,1,40.504673,-3.365981,1.404,91.0,D2,Drowsy,motor
63,89.6,40.504192,-3.366992,609.9,3,5,237.0,1.055,0,1,0,1.0,-0.0076999999999999985,-0.0008000000000000006,-0.0193,-0.006900000000000001,-0.0031,-0.017099999999999997,-1.5359,0.0299,-1.0445,-0.13221739130434781,0.0066086956521739125,2.858913043478261,1.9565217391304348,16.02375,0.64375,2.0,89.6,120.0,1,motorway,3,1,40.504436,-3.366489,1.532,89.6,D2,Drowsy,motor
64,88.7,40.504074,-3.36724,609.6,3,5,237.3,0.352,1,1,0,1.0,-0.0064,0.0199,-0.0027,-0.007200000000000001,0.0218,-0.0053,-1.5294,0.0083,-1.0628,-0.3860909090909091,-0.0285,2.8582272727272726,1.9545454545454546,14.694444444444445,0.5977777777777777,2.0,88.56666666666666,120.0,1,motorway,3,1,40.504192,-3.366992,1.289,87.5,D2,Drowsy,motor
67,86.3,40.503719,-3.367965,607.8,3,5,238.0,0.703,0,1,0,1.0,-0.006222222222222223,-0.05122222222222222,0.002,-0.01111111111111111,-0.04811111111111111,0.0024444444444444444,-1.5258888888888889,0.006444444444444444,-1.1265555555555555,-0.27391666666666664,0.1305,2.8390416666666667,1.875,11.942857142857141,0.49714285714285716,2.0,86.3,120.0,1,motorway,3,1,40.503956,-3.367482,1.315,86.3,D2,Drowsy,motor
68,86.3,40.503605,-3.368204,607.5,3,5,238.0,0.703,0,1,0,1.0,-0.0193,-0.0115,0.0012000000000000001,-0.013600000000000001,-0.014099999999999998,0.0016,-1.5212999999999999,0.023,-1.1244,-0.2797777777777778,0.12785185185185186,2.7648888888888887,1.8518518518518519,10.762857142857143,0.45,2.0,86.3,120.0,1,motorway,3,1,40.503719,-3.367965,1.155,84.1,D2,Drowsy,motor
71,82.4,40.503254,-3.368891,606.7,3,5,237.7,0.703,1,1,0,1.0,-0.012,-0.0173,-0.0241,-0.0121,-0.0162,-0.0221,-1.5209,-0.0027,-1.1704,-0.4207272727272727,0.07427272727272727,2.9041363636363635,1.7727272727272727,7.906666666666666,0.3466666666666667,3.0,82.4,120.0,1,motorway,3,1,40.503487,-3.368434,1.546,82.4,D2,Drowsy,motor
73,77.9,40.503044,-3.369342,605.8,3,5,237.3,0.352,0,2,0,1.0,-0.0077,-0.0063,0.061399999999999996,-0.0099,-0.0048000000000000004,0.056100000000000004,-1.5242,0.0036000000000000003,-1.1839,-0.17474074074074075,-0.07562962962962962,3.0237037037037036,1.7407407407407407,0.33000000000000007,-0.7799999999999999,4.166666666666667,77.68333333333334,120.0,1,motorway,3,1,40.503254,-3.368891,1.563,77.9,D2,Drowsy,motor
74,76.6,40.502941,-3.369558,607.6,3,5,238.4,1.055,0,1,0,1.0,-0.012,-0.0212,0.07680000000000001,-0.010100000000000001,-0.0173,0.0775,-1.5875,0.0067,-1.1905,-0.02018518518518518,-0.015333333333333334,2.7964814814814813,1.962962962962963,-1.0,-1.0,4.333333333333333,77.23333333333333,120.0,1,motorway,3,1,40.503044,-3.369343,1.057,76.6,D2,Drowsy,motor
76,83.8,40.502731,-3.370005,606.2,3,5,236.6,1.758,0,1,0,1.0,-0.0152,-0.004,0.0075,-0.0154,-0.0034000000000000002,0.0083,-1.6361999999999999,0.022,-1.1827,-0.25385185185185183,-0.08362962962962962,2.803703703703704,1.962962962962963,-1.0,-1.0,3.8333333333333335,83.8,120.0,1,motorway,3,1,40.502838,-3.369779,1.15,86.6,D2,Drowsy,motor
79,91.0,40.502361,-3.370725,606.7,3,5,237.7,1.406,2,2,0,1.0,-0.0121,-0.0137,-0.006900000000000001,-0.0123,-0.0107,-0.0081,-1.6271,-0.0123,-1.2248,-0.6102222222222222,0.16062962962962962,2.712555555555556,1.962962962962963,-1.0,-1.0,1.2,91.0,120.0,1,motorway,3,1,40.502613,-3.370239,1.412,91.0,D2,Drowsy,motor
80,93.5,40.502235,-3.370985,607.2,3,5,238.4,1.758,1,2,0,1.0,-0.014599999999999998,-0.0274,-0.0021999999999999997,-0.016,-0.0288,-0.0029,-1.6212,0.014499999999999999,-1.2208,-0.38721428571428573,0.08825000000000001,2.799071428571428,1.7857142857142858,-1.0,-1.0,2.0,93.5,120.0,1,motorway,3,1,40.502361,-3.370725,1.247,96.2,D2,Drowsy,motor
82,99.0,40.501846,-3.371775,607.6,3,5,236.6,1.406,2,2,0,1.0,-0.0094,0.008799999999999999,-0.0034999999999999996,-0.0094,0.0035000000000000005,-0.0032,-1.6095,0.0193,-1.2095,-0.56688,0.06948,2.83832,2.0,-1.0,-1.0,1.0,97.88571428571429,120.0,1,motorway,3,1,40.502113,-3.371237,0.884,97.7,D2,Drowsy,motor
83,99.0,40.501846,-3.371775,607.6,3,5,236.6,0.703,2,2,0,1.0,-0.003444444444444445,-0.01,-0.01211111111111111,-0.008555555555555556,-0.007333333333333334,-0.012333333333333333,-1.5936666666666666,0.01877777777777778,-1.209111111111111,-0.9140454545454546,-0.0057272727272727275,2.865090909090909,2.0,-1.0,-1.0,1.0,99.0,120.0,1,motorway,3,1,40.50198,-3.371504,0.619,99.0,D2,Drowsy,motor
84,100.1,40.501709,-3.37205,607.2,3,5,236.6,0.352,0,2,0,1.0,-0.019200000000000002,0.0115,-0.012199999999999999,-0.016900000000000002,0.011300000000000001,-0.0124,-1.5782,0.0224,-1.2067999999999999,-0.6254799999999999,-0.01956,2.9626799999999998,0.84,5.778571428571429,-0.48142857142857143,1.0,100.17142857142856,120.0,1,motorway,3,2,40.501846,-3.371776,0.847,100.1,D2,Drowsy,motor
85,100.6,40.501572,-3.372328,607.6,3,5,236.2,0.352,0,2,0,1.0,-0.0089,0.0124,-0.0015000000000000002,-0.0091,0.0126,-0.0035000000000000005,-1.5739,0.014300000000000002,-1.2108,0.0,0.0,3.0100740740740743,0.0,23.74,0.8483333333333333,1.0,100.59999999999998,120.0,1,motorway,3,2,40.501709,-3.37205,0.956,100.6,D2,Drowsy,motor
86,100.7,40.501427,-3.372597,606.7,3,5,236.2,0.352,0,2,0,1.0,-0.011,0.010600000000000002,0.014700000000000001,-0.011399999999999999,0.010499999999999999,0.013800000000000002,-1.583,0.0131,-1.2149,0.0,0.0,3.0030416666666664,0.0,24.02857142857143,0.8585714285714285,1.0,100.8,120.0,1,motorway,3,2,40.501572,-3.372328,0.879,100.7,D2,Drowsy,motor
87,101.4,40.501293,-3.372869,606.9,3,5,236.2,0.0,0,2,0,1.0,-0.016800000000000002,0.0064,0.0026,-0.014000000000000002,0.0063,0.004999999999999999,-1.5951,0.0188,-1.2172,0.035333333333333335,0.008458333333333333,2.9951666666666665,0.4166666666666667,24.411666666666665,0.8649999999999999,1.0,101.40000000000002,120.0,1,motorway,3,2,40.501427,-3.372598,0.916,101.4,D2,Drowsy,motor
88,102.9,40.501152,-3.373152,606.7,3,5,236.2,0.0,0,2,0,1.0,-0.0068000000000000005,0.022600000000000002,0.0034000000000000002,-0.0101,0.0211,0.0013999999999999998,-1.5949,0.008,-1.2222,0.11142307692307692,-0.009807692307692307,2.9863076923076926,1.8076923076923077,24.406666666666666,0.8516666666666666,1.0,102.90000000000002,120.0,1,motorway,3,2,40.501293,-3.37287,0.85,102.9,D2,Drowsy,motor
89,104.8,40.500862,-3.373724,606.3,3,5,237.3,0.352,0,2,0,1.0,-0.014300000000000002,0.0166,-0.0214,-0.0131,0.0183,-0.017599999999999998,-1.5936,-0.0129,-1.2374,-0.10422727272727274,-0.026,2.9724999999999997,1.8181818181818181,24.301666666666666,0.84,1.0,104.3,120.0,1,motorway,3,2,40.501152,-3.373152,0.866,104.3,D2,Drowsy,motor
91,104.7,40.500717,-3.374007,606.3,3,5,237.3,0.703,0,2,0,1.0,-0.0155,-0.0112,0.0022000000000000006,-0.0154,-0.0158,-0.0006000000000000004,-1.5732000000000002,0.0153,-1.2364000000000002,-0.10583333333333333,0.013416666666666667,2.96625,1.75,25.245714285714286,0.8657142857142857,1.0,104.78571428571429,120.0,1,motorway,3,2,40.501003,-3.373435,1.529,104.7,D2,Drowsy,motor
92,105.3,40.500576,-3.374297,606.3,3,5,236.6,0.703,0,2,0,1.0,-0.0081,0.0007000000000000003,0.0021999999999999997,-0.0059,0.0034999999999999996,0.0034000000000000002,-1.5775000000000001,0.0189,-1.235,-0.21854545454545454,0.0039545454545454545,2.9079545454545457,1.9090909090909092,24.796666666666667,0.8466666666666667,1.0,105.3,120.0,1,motorway,3,2,40.500717,-3.374007,1.022,105.3,D2,Drowsy,motor
96,108.0,40.499989,-3.37547,606.3,3,5,237.0,0.352,0,3,0,1.0,-0.0038000000000000004,-0.008400000000000001,-0.023,-0.0043,-0.0092,-0.0193,-1.5674,-0.0023,-1.245,-0.2801111111111111,0.06922222222222223,2.9807407407407407,1.7777777777777777,23.521666666666665,0.7816666666666667,1.0,108.08333333333333,120.0,1,motorway,3,2,40.500435,-3.374583,2.372,108.0,D2,Drowsy,motor
98,107.0,40.499699,-3.376065,605.4,3,5,237.0,0.352,0,3,0,1.0,-0.008,-0.009,-0.0112,-0.011300000000000001,-0.014599999999999998,-0.013300000000000001,-1.5283,0.0059,-1.2419,0.28511111111111115,0.05314814814814815,3.002888888888889,1.8888888888888888,22.895,0.77,1.0,107.0,120.0,1,motorway,3,2,40.499989,-3.37547,2.171,107.0,D2,Drowsy,motor
101,102.7,40.499275,-3.376936,604.1,3,5,236.6,0.352,2,3,0,1.0,-0.011800000000000001,0.0009000000000000001,0.0346,-0.0125,-0.0012999999999999997,0.0328,-1.5345,0.0059,-1.2372,0.82296,0.00444,2.98072,1.88,22.595714285714287,0.79,1.0,102.7,120.0,1,motorway,3,2,40.499554,-3.376358,2.019,102.7,D2,Drowsy,motor
104,105.2,40.498699,-3.378071,602.8,3,5,234.5,0.703,2,3,0,1.0,-0.0091,-0.0094,0.015099999999999999,-0.0076,-0.013000000000000001,0.0134,-1.5785,0.0186,-1.2323,0.93404,-0.01004,2.9977199999999997,1.84,22.876666666666665,0.79,1.0,104.45,120.0,1,motorway,3,2,40.499134,-3.377216,2.274,105.2,D2,Drowsy,motor
106,105.9,40.49855,-3.378358,602.5,3,5,236.2,1.758,2,4,0,1.0,-0.0129,0.0091,-0.0064,-0.0115,0.0117,-0.0046,-1.5953,-0.0049,-1.2428000000000001,0.8720833333333333,-0.0057083333333333335,2.974375,1.7916666666666667,22.393333333333334,0.7600000000000001,1.0,105.90000000000002,120.0,1,motorway,3,2,40.498699,-3.378072,0.949,105.9,D2,Drowsy,motor
108,108.4,40.498257,-3.378941,602.9,3,5,236.2,0.352,2,4,0,1.0,-0.0147,-0.0251,-0.0157,-0.014599999999999998,-0.027800000000000002,-0.013300000000000001,-1.5798,0.0288,-1.2272,0.7757692307692307,-0.034192307692307695,2.958653846153846,1.8846153846153846,22.38,0.7433333333333333,1.0,108.5,120.0,1,motorway,3,2,40.49855,-3.378358,1.417,108.4,D2,Drowsy,motor
109,109.0,40.498112,-3.379243,603.1,3,5,235.2,1.406,0,4,0,1.0,-0.006500000000000001,0.0177,-0.0251,-0.0075,0.0159,-0.0274,-1.5596,0.020499999999999997,-1.2232,0.41604545454545455,-0.06877272727272726,2.9787272727272724,1.7272727272727273,22.183333333333334,0.7316666666666666,1.0,109.0,120.0,1,motorway,3,2,40.498257,-3.378941,0.829,109.0,D2,Drowsy,motor
110,108.0,40.497959,-3.379532,602.7,3,5,235.2,1.055,0,4,0,1.0,-0.0106,0.0212,-0.01,-0.0095,0.0211,-0.0108,-1.5414999999999999,0.0006999999999999999,-1.2301,-0.06914814814814815,-0.07514814814814814,2.9745185185185186,1.8518518518518519,22.05333333333333,0.735,1.0,108.0,120.0,1,motorway,3,2,40.498112,-3.379243,1.265,107.1,D2,Drowsy,motor
112,105.5,40.497517,-3.380405,601.8,3,5,235.5,1.055,1,4,0,1.0,-0.0064,-0.023200000000000002,0.014400000000000001,-0.0070999999999999995,-0.0269,0.013500000000000002,-1.5375999999999999,0.0073999999999999995,-1.2352,-0.5116428571428572,0.01032142857142857,2.9866428571428574,1.8571428571428572,22.205714285714286,0.7528571428571428,1.0,106.0142857142857,120.0,1,motorway,3,2,40.497814,-3.379822,0.785,106.1,D2,Drowsy,motor
113,105.5,40.497517,-3.380405,601.8,3,5,235.5,0.703,2,4,0,1.0,-0.0060999999999999995,0.0055000000000000005,0.0144,-0.0066,0.0028,0.014100000000000001,-1.5462,0.0106,-1.2348000000000001,-0.7937272727272727,0.020272727272727272,3.0089545454545457,1.9090909090909092,21.828,0.744,1.0,105.5,120.0,1,motorway,3,2,40.497662,-3.380116,1.012,105.5,D2,Drowsy,motor
115,104.7,40.497219,-3.380976,601.5,3,5,236.2,0.703,2,4,0,1.0,-0.0128,-0.0014999999999999998,0.0012000000000000001,-0.0112,-0.00029999999999999976,0.0026000000000000003,-1.559,-0.0149,-1.2543,-0.7523333333333333,0.06980952380952381,2.990428571428571,1.8095238095238095,22.47714285714286,0.7728571428571429,1.0,104.7,120.0,1,motorway,3,2,40.497372,-3.380693,0.972,104.7,D2,Drowsy,motor
117,105.6,40.496922,-3.38155,601.4,3,5,237.0,0.703,0,4,0,1.0,-0.0122,-0.024399999999999998,-0.0097,-0.0081,-0.0216,-0.011,-1.5463,0.0125,-1.2528,-0.2891153846153846,0.06653846153846153,2.9936538461538467,1.7692307692307692,23.930000000000003,0.815,1.0,105.59999999999998,120.0,1,motorway,3,2,40.497219,-3.380976,2.002,105.6,D2,Drowsy,motor
119,103.4,40.496632,-3.382119,601.1,3,5,236.2,0.703,0,4,0,1.0,-0.017400000000000002,-0.0125,-0.0011,-0.0176,-0.0127,-0.0024000000000000002,-1.5332000000000001,0.0259,-1.238,-0.15788888888888888,0.03137037037037037,3.0120370370370373,1.8888888888888888,24.228333333333335,0.8433333333333333,1.0,103.40000000000002,120.0,1,motorway,3,2,40.49678,-3.381835,0.969,103.4,D2,Drowsy,motor
121,100.8,40.496342,-3.382668,601.1,3,5,235.2,1.055,1,5,1,1.0,-0.014199999999999999,-0.0049,0.027599999999999996,-0.0137,-0.007300000000000001,0.028200000000000003,-1.5439,0.028499999999999998,-1.2213,-0.5347999999999999,0.00215,2.9424,1.7,26.262857142857143,0.937142857142857,1.0,100.8,120.0,1,motorway,3,2,40.496632,-3.382119,1.386,100.8,D2,Drowsy,motor
122,100.3,40.496201,-3.382937,601.2,3,5,234.5,1.055,2,5,1,1.0,-0.017900000000000003,0.0109,0.023299999999999998,-0.0177,0.011,0.0235,-1.5756999999999999,0.020700000000000003,-1.2181,-0.70088,-0.00528,2.99464,1.96,27.156666666666666,0.975,1.5,100.3,120.0,1,motorway,3,2,40.496342,-3.382669,0.925,100.3,D2,Drowsy,motor
123,101.4,40.496052,-3.383209,600.3,3,5,234.5,0.703,2,5,1,1.0,-0.0099,-0.0077,0.0332,-0.0111,-0.0067,0.0315,-1.6016000000000001,0.0035000000000000005,-1.2172,-0.8783636363636365,0.021045454545454548,2.9605,1.8636363636363635,27.150000000000002,0.9616666666666666,2.0,101.68333333333334,120.0,1,motorway,3,2,40.496201,-3.382938,0.749,101.4,D2,Drowsy,motor
124,103.1,40.495903,-3.383482,600.7,3,5,234.1,0.352,2,5,1,1.0,-0.011600000000000001,0.0013999999999999998,0.0051,-0.0104,-0.0015,0.0081,-1.6157,0.0091,-1.2146000000000001,-0.9642916666666667,0.048749999999999995,2.8965833333333335,1.8333333333333333,27.241666666666664,0.9516666666666667,2.0,103.09999999999998,120.0,1,motorway,3,2,40.496052,-3.383209,0.766,103.1,D2,Drowsy,motor
125,104.9,40.49575,-3.383763,600.7,3,5,234.1,0.352,2,5,1,1.0,-0.005599999999999999,0.0208,0.0043,-0.0049,0.022,0.0039,-1.6178000000000001,0.009600000000000001,-1.2205,-1.0331153846153847,0.07057692307692308,2.942576923076923,1.8846153846153846,27.107142857142858,0.9285714285714286,2.0,104.9,120.0,1,motorway,3,2,40.495903,-3.383482,1.206,106.8,D2,Drowsy,motor
130,110.2,40.494938,-3.385202,601.6,3,5,232.7,1.758,2,5,1,1.0,-0.017499999999999998,0.041499999999999995,0.0043,-0.0245,0.047299999999999995,0.0023,-1.5717,0.0144,-1.2025000000000001,-0.518,0.06628,2.90856,1.92,31.036666666666665,1.0133333333333334,2.0,110.2,120.0,1,motorway,3,2,40.495594,-3.384051,3.392,110.2,D2,Drowsy,motor
131,110.2,40.494762,-3.385481,601.2,3,5,232.4,0.352,1,5,1,1.0,-0.005200000000000001,-0.0325,-0.029599999999999998,-0.0018999999999999996,-0.028599999999999997,-0.027600000000000003,-1.5539999999999998,0.0248,-1.2023,-0.4773478260869565,0.05413043478260869,2.943260869565217,1.826086956521739,30.50857142857143,0.9957142857142857,2.0,110.11428571428571,120.0,1,motorway,3,2,40.494938,-3.385202,1.142,109.6,D2,Drowsy,motor
133,107.7,40.494431,-3.386045,601.3,3,5,231.0,1.406,2,5,1,1.0,-0.008777777777777778,0.05433333333333333,0.025,-0.008666666666666666,0.04777777777777778,0.022111111111111113,-1.539111111111111,0.04088888888888889,-1.1848888888888889,-0.882695652173913,0.016565217391304347,2.966478260869565,1.826086956521739,30.504,1.02,2.0,107.7,120.0,1,motorway,3,2,40.494595,-3.385759,0.889,107.7,D2,Drowsy,motor
134,107.1,40.494263,-3.386307,600.8,3,5,230.3,1.055,2,5,1,1.0,-0.004200000000000001,0.0225,0.0344,-0.0053,0.029199999999999997,0.0356,-1.5698,-0.0049,-1.2013,-0.9461481481481481,0.08592592592592592,2.9683703703703705,1.962962962962963,29.795,1.0016666666666667,1.0,107.09999999999998,120.0,1,motorway,3,2,40.494431,-3.386045,1.045,107.1,D2,Drowsy,motor
137,107.0,40.493584,-3.38741,601.0,3,5,230.3,0.352,0,6,1,1.0,-0.0132,-0.0295,-0.0147,-0.0134,-0.0303,-0.014199999999999999,-1.5389,0.034499999999999996,-1.1945999999999999,-0.06147826086956521,0.13326086956521738,3.1604782608695654,1.608695652173913,26.509999999999998,0.8857142857142858,1.0,107.77142857142859,120.0,1,motorway,3,2,40.494087,-3.386574,1.726,107.9,D2,Drowsy,motor
139,106.2,40.493416,-3.387686,600.7,3,5,229.6,1.406,1,5,1,1.0,-0.0068000000000000005,-0.007000000000000001,0.016900000000000002,-0.0045,-0.0010000000000000002,0.0183,-1.5586,0.017599999999999998,-1.19,0.42346153846153844,0.06238461538461538,2.9803076923076923,1.8076923076923077,24.881428571428568,0.8442857142857143,1.0,106.27142857142857,120.0,1,motorway,3,2,40.493748,-3.387138,1.613,106.2,D2,Drowsy,motor
141,107.3,40.493061,-3.388218,600.6,3,5,228.9,0.703,1,5,1,1.0,-0.0181,0.023299999999999998,8.673617379884036e-20,-0.0104,0.0206,0.0016999999999999995,-1.5817999999999999,0.030699999999999998,-1.1734,0.5677857142857142,0.014107142857142858,2.918357142857143,1.75,22.411666666666665,0.7516666666666666,1.0,107.3,120.0,1,motorway,3,2,40.493416,-3.387686,1.597,107.3,D2,Drowsy,motor
143,108.3,40.492706,-3.388748,600.4,3,5,228.2,1.055,2,5,1,1.0,-0.006,-0.0313,-0.014400000000000001,-0.0025,-0.0242,-0.0154,-1.5631,0.026000000000000002,-1.1759,0.8911904761904762,0.037904761904761906,2.888238095238095,1.8095238095238095,21.958333333333332,0.7316666666666666,1.0,108.3,120.0,1,motorway,3,2,40.493061,-3.388219,1.404,108.3,D2,Drowsy,motor
145,108.1,40.492153,-3.38953,600.0,3,5,226.1,1.406,1,6,1,1.0,-0.018099999999999998,-0.0034999999999999996,-0.0021,-0.0156,-0.0039,0.00030000000000000024,-1.5635,0.054700000000000006,-1.15,0.6137619047619047,-0.06219047619047619,2.8441428571428573,1.7619047619047619,25.638571428571428,0.8557142857142858,3.0,107.8,120.0,1,motorway,3,2,40.492706,-3.388748,1.788,107.8,D2,Drowsy,motor
147,105.0,40.49197,-3.389784,600.0,3,5,226.1,0.703,0,6,1,1.0,-0.008799999999999999,0.0127,-0.0108,-0.0107,0.014799999999999999,-0.0103,-1.5443,0.0128,-1.1573,-0.17851851851851852,-0.008666666666666666,2.956407407407408,1.8148148148148149,28.115999999999996,0.962,3.0,105.0,120.0,1,motorway,3,2,40.49234,-3.389275,1.531,105.0,D2,Drowsy,motor
148,106.3,40.491783,-3.390034,600.2,3,5,226.1,0.0,0,6,1,1.0,-0.016300000000000002,0.0077,-0.0034999999999999996,-0.014299999999999998,0.0073999999999999995,-0.0046,-1.5384,0.0017000000000000001,-1.1666,-0.2436086956521739,0.03282608695652174,2.9735652173913043,1.9130434782608696,27.802857142857142,0.9414285714285714,3.0,106.3,120.0,1,motorway,3,2,40.49197,-3.389785,1.054,106.3,D2,Drowsy,motor
150,105.1,40.491421,-3.390539,599.5,3,5,226.4,0.352,0,6,1,1.0,-0.0118,-0.0191,0.0028,-0.0124,-0.022,0.0004999999999999998,-1.5371000000000001,0.0319,-1.1669,-0.18246428571428572,0.048035714285714286,2.925214285714286,1.8928571428571428,27.205000000000002,0.93,3.0,105.09999999999998,120.0,1,motorway,3,2,40.491604,-3.390287,0.779,105.1,D2,Drowsy,motor
151,104.2,40.491234,-3.390784,599.3,3,5,225.4,1.055,1,6,1,1.0,-0.0155,0.0243,0.014799999999999999,-0.016300000000000002,0.017599999999999998,0.014100000000000001,-1.5478,0.0283,-1.1609,-0.45333333333333337,0.048666666666666664,2.9113333333333333,1.8333333333333333,25.814999999999998,0.89,3.0,104.16666666666667,120.0,1,motorway,3,2,40.491421,-3.390539,1.004,104.2,D2,Drowsy,motor
153,105.4,40.490864,-3.391282,598.6,3,5,226.1,0.703,2,6,1,1.0,-0.006777777777777778,0.008777777777777778,0.0012222222222222226,-0.005666666666666667,0.010777777777777778,0.005,-1.596111111111111,-0.018000000000000002,-1.1943333333333335,-0.6539230769230768,0.18611538461538463,2.9389615384615384,1.9615384615384615,24.28,0.8325,3.0,105.4,120.0,1,motorway,3,2,40.491051,-3.391032,0.693,105.4,D2,Drowsy,motor
155,106.7,40.490498,-3.391799,598.6,3,5,226.4,0.703,0,6,1,1.0,-0.0199,0.0071,-0.02,-0.0152,0.0024000000000000002,-0.0223,-1.5576,0.0131,-1.1942,-0.27,0.06272727272727273,2.947909090909091,1.8181818181818181,23.47142857142857,0.7942857142857144,2.0,106.7,120.0,1,motorway,3,2,40.490864,-3.391282,1.385,106.7,D2,Drowsy,motor
156,105.7,40.490318,-3.392048,598.8,3,5,226.4,0.703,0,6,1,1.0,-0.0018999999999999996,0.0043,0.006999999999999999,-0.006900000000000001,0.0086,0.0055,-1.5567,0.0072,-1.2006000000000001,-0.15591304347826088,0.06378260869565218,2.867608695652174,1.7391304347826086,22.663333333333338,0.7716666666666666,2.3333333333333335,105.7,120.0,1,motorway,3,2,40.490498,-3.391799,0.629,105.7,D2,Drowsy,motor
157,105.7,40.490139,-3.392303,599.7,3,5,226.8,0.352,0,6,1,1.0,-0.013900000000000001,-0.028600000000000004,0.0157,-0.0107,-0.0274,0.0152,-1.5684,0.0167,-1.1978,-0.03468,0.03128,2.8616,1.92,22.186666666666667,0.7516666666666666,2.0,106.26666666666667,120.0,1,motorway,3,2,40.490318,-3.392048,1.158,109.1,D2,Drowsy,motor
159,106.0,40.489594,-3.393047,600.3,3,5,225.7,0.703,1,6,1,1.0,-0.012199999999999999,0.040900000000000006,-0.0274,-0.0126,0.0374,-0.0267,-1.5527,0.0079,-1.1943,-0.42125,0.11625,2.84815,1.9,20.02,0.6799999999999999,2.0,106.3,120.0,1,motorway,3,2,40.489956,-3.392569,0.789,106.3,D2,Drowsy,motor
160,106.0,40.489594,-3.393047,600.3,3,5,225.7,0.352,1,6,1,1.0,-0.013800000000000002,0.014199999999999999,-0.0086,-0.014299999999999998,0.0167,-0.0115,-1.5363,-0.027600000000000003,-1.2092,-0.5078076923076923,0.14996153846153845,2.860923076923077,1.8076923076923077,19.323333333333334,0.6566666666666667,2.0,106.0,120.0,1,motorway,3,2,40.489777,-3.392804,1.016,106.0,D2,Drowsy,motor
163,102.7,40.489067,-3.393778,596.9,3,5,226.8,0.352,0,5,1,1.0,-0.009555555555555555,-0.029111111111111112,-0.0005555555555555557,-0.008888888888888889,-0.033888888888888885,-0.0014444444444444446,-1.5286666666666666,0.028333333333333335,-1.2041111111111111,0.3340740740740741,0.062,2.953111111111111,1.6666666666666667,15.86,0.556,3.0,102.7,120.0,1,motorway,3,2,40.489414,-3.393299,1.37,102.7,D2,Drowsy,motor
164,101.6,40.488884,-3.394017,596.2,3,5,225.7,1.406,0,5,1,1.0,-0.0165,-0.0010999999999999998,0.0153,-0.017499999999999998,0.0,0.0118,-1.5303,0.027100000000000003,-1.1955,0.23230434782608694,-0.04178260869565218,2.9904347826086957,1.7826086956521738,15.598333333333334,0.5516666666666667,3.0,101.59999999999998,120.0,1,motorway,3,2,40.489067,-3.393778,1.194,100.7,D2,Drowsy,motor
166,101.2,40.488522,-3.39449,597.5,3,5,225.0,0.703,2,5,1,1.0,-0.011,-0.0019,0.016800000000000002,-0.010900000000000002,-0.0023,0.0174,-1.5914,0.007299999999999999,-1.1875,-0.8530909090909091,0.022227272727272727,2.864181818181818,1.7727272727272727,14.608,0.518,4.8,101.2,120.0,1,motorway,3,2,40.488705,-3.394254,1.176,103.1,D2,Drowsy,motor
168,104.8,40.488152,-3.394968,595.9,3,5,225.0,0.0,0,5,1,1.0,-0.0178,-0.0005000000000000001,0.013600000000000001,-0.0159,-0.0026,0.011699999999999999,-1.6092,0.0068000000000000005,-1.1895,0.0,0.0,2.958909090909091,0.0,39.41166666666667,1.3533333333333335,3.8333333333333335,104.8,120.0,1,motorway,3,2,40.488338,-3.39473,1.148,106.3,D2,Drowsy,motor
170,108.8,40.487774,-3.395462,596.1,3,5,224.6,0.352,0,5,1,1.0,-0.0191,-0.0077,-0.0419,-0.0185,-0.008400000000000001,-0.0431,-1.6021,0.006,-1.1883000000000001,0.0,0.0,3.47832,-0.96,18.282,0.606,2.0,108.8,120.0,1,motorway,3,2,40.487965,-3.39521,0.65,108.8,D2,Drowsy,motor
172,108.9,40.487385,-3.395974,596.4,3,5,224.3,0.352,0,4,0,1.0,-0.011,-0.0217,0.00020000000000000025,-0.0126,-0.023399999999999997,0.0004,-1.5781,0.0256,-1.1766999999999999,-0.032545454545454544,-0.003409090909090909,3.1624545454545454,0.8181818181818182,21.088333333333335,0.6966666666666667,2.0,108.90000000000002,120.0,1,motorway,3,2,40.487774,-3.395462,2.111,110.4,D2,Drowsy,motor
174,109.2,40.486801,-3.396713,598.3,3,5,222.9,1.406,1,4,0,1.0,-0.0161,-0.0068000000000000005,-0.0104,-0.0144,-0.005599999999999999,-0.0108,-1.569,0.028100000000000003,-1.1626999999999998,-0.3548695652173913,0.17404347826086958,2.849913043478261,1.9130434782608696,23.764,0.784,1.0,109.3,120.0,1,motorway,3,2,40.48719,-3.396229,1.148,109.2,D2,Drowsy,motor
177,108.6,40.486389,-3.397183,597.5,3,5,222.2,0.703,0,4,0,1.0,-0.016,-0.021700000000000004,0.0009999999999999998,-0.0103,-0.013600000000000001,0.0023,-1.5775000000000001,0.0072,-1.1586,-0.43012500000000004,0.201125,2.8095833333333338,1.875,26.51,0.8766666666666666,1.0,108.59999999999998,120.0,1,motorway,3,2,40.486801,-3.396713,1.297,108.6,D2,Drowsy,motor
178,109.6,40.486183,-3.397428,597.3,3,5,222.2,0.0,0,4,0,1.0,0.00011111111111111159,0.00022222222222222242,0.006444444444444444,-0.005,-0.00488888888888889,0.006111111111111111,-1.5823333333333334,0.030555555555555558,-1.148777777777778,-0.20526923076923076,0.2606923076923077,2.8524230769230767,1.8076923076923077,27.636000000000003,0.906,1.0,109.6,120.0,1,motorway,3,2,40.486389,-3.397183,1.246,110.5,D2,Drowsy,motor
180,111.2,40.485771,-3.397901,596.6,3,5,220.1,2.109,0,4,0,1.0,-0.0018,0.0191,-0.0043,-0.003,0.0177,-0.0043,-1.5795,0.055900000000000005,-1.1189,-0.049304347826086954,0.22113043478260871,2.805521739130435,1.9130434782608696,29.363333333333333,0.9499999999999998,3.0,111.2,120.0,1,motorway,3,2,40.485981,-3.39767,1.189,112.2,D2,Drowsy,motor
182,111.3,40.485329,-3.398361,597.1,3,5,218.5,1.554,0,4,0,1.0,-0.007000000000000001,0.028100000000000003,-0.0219,-0.0047,0.0222,-0.0223,-1.5447,0.04,-1.1102,0.16138461538461538,-0.013076923076923078,2.9106923076923077,1.8076923076923077,32.096666666666664,1.0366666666666668,3.1666666666666665,111.3,120.0,1,motorway,3,2,40.485554,-3.398126,1.279,110.4,D2,Drowsy,motor
185,108.9,40.484684,-3.399034,596.3,3,5,217.3,0.764,1,4,0,1.0,-0.0088,0.0167,0.0409,-0.0077,0.0126,0.0412,-1.5727,0.0383,-1.0944,0.44673076923076926,0.0073846153846153844,2.7441153846153843,1.9230769230769231,37.446666666666665,1.24,3.1666666666666665,108.90000000000002,120.0,1,motorway,3,2,40.485119,-3.398597,1.423,108.9,D2,Drowsy,motor
187,111.5,40.484013,-3.399685,596.7,3,5,216.8,0.859,0,4,0,1.0,0.0025,0.0048000000000000004,-0.0209,0.005300000000000001,0.004,-0.0199,-1.581,0.003,-1.1086,0.298,-0.024454545454545455,2.7434090909090907,1.8181818181818181,40.78333333333333,1.3166666666666667,2.1666666666666665,111.5,120.0,1,motorway,3,2,40.484684,-3.399034,1.335,111.5,D2,Drowsy,motor
188,111.5,40.484013,-3.399685,596.7,3,5,216.8,0.358,0,4,0,1.0,-0.0126,0.003999999999999999,-0.0172,-0.0144,0.0043,-0.0182,-1.5644,-9.999999999999991e-05,-1.117,0.2016153846153846,-0.03123076923076923,2.7921538461538464,1.8846153846153846,42.904,1.386,2.2,111.5,120.0,1,motorway,3,2,40.484238,-3.399473,0.977,111.5,D2,Drowsy,motor
190,112.6,40.483555,-3.400158,595.3,3,5,216.9,0.158,0,3,0,1.0,-0.0054,-0.008700000000000001,-0.0098,-0.0049,-0.0097,-0.0116,-1.537,0.0063,-1.1332,0.2899583333333333,-0.027833333333333335,2.8528333333333333,1.9583333333333333,47.908,1.532,3.0,112.6,120.0,1,motorway,3,2,40.484013,-3.399685,1.479,112.6,D2,Drowsy,motor
191,111.3,40.48333,-3.400384,594.5,3,5,216.9,0.0,0,3,0,1.0,0.0004999999999999994,0.0051,-0.0007000000000000001,-0.0017000000000000001,0.0021999999999999997,-0.0014999999999999998,-1.5292,0.0099,-1.1363999999999999,0.27443478260869564,-0.07191304347826087,2.825782608695652,1.826086956521739,46.305,1.4983333333333333,3.0,111.3,120.0,1,motorway,3,2,40.483555,-3.400158,0.984,111.3,D2,Drowsy,motor
192,110.9,40.483097,-3.400603,595.4,3,5,217.6,0.636,0,3,0,1.0,-0.013900000000000001,0.0132,0.0026999999999999997,-0.0111,0.011699999999999999,0.0023000000000000004,-1.5284,0.0062,-1.1438,0.20241666666666666,-0.050416666666666665,2.8402499999999997,1.875,46.854,1.52,3.0,110.9,120.0,1,motorway,3,2,40.48333,-3.400384,1.274,110.4,D2,Drowsy,motor
195,110.8,40.482433,-3.40126,593.6,3,5,216.7,0.861,0,3,0,1.0,-0.013900000000000001,-0.0306,0.0046,-0.012199999999999999,-0.0317,0.0008,-1.5501,0.0156,-1.1571,0.19174074074074074,-0.047703703703703706,2.782925925925926,1.962962962962963,53.94,1.75,3.2,110.8,120.0,1,motorway,3,2,40.482872,-3.400815,1.33,110.8,D2,Drowsy,motor
197,111.7,40.481987,-3.401683,591.4,4,5,216.3,0.348,0,3,0,1.0,-0.0115,-0.0015,0.002,-0.007999999999999998,0.0012000000000000001,0.0039,-1.5805,0.012199999999999999,-1.1615,-0.27895652173913044,0.13195652173913044,2.7201304347826087,1.7391304347826086,45.81,1.4749999999999999,1.3333333333333333,111.96666666666665,120.0,1,motorway,3,2,40.482433,-3.40126,1.599,111.7,D2,Drowsy,motor
199,113.3,40.481522,-3.402115,591.4,3,5,216.3,0.0,2,3,0,1.0,-0.0102,0.0372,-0.0172,-0.0097,0.0435,-0.017,-1.5561,-0.023899999999999998,-1.1843,-0.7184782608695651,0.17678260869565215,2.8572173913043475,1.9130434782608696,44.71,1.42,1.0,113.3,120.0,1,motorway,3,2,40.481987,-3.401683,1.625,113.3,D2,Drowsy,motor
201,112.2,40.481071,-3.402553,591.4,3,5,216.3,0.0,0,3,0,1.0,-0.0127,-0.004,-0.0089,-0.018,-0.006,-0.008,-1.5433999999999999,-0.0048000000000000004,-1.1911999999999998,-0.20376000000000002,0.13412000000000002,2.9013999999999998,1.8,33.232,0.874,1.0,112.2,120.0,1,motorway,3,2,40.481522,-3.402115,1.888,112.2,D2,Drowsy,motor
203,110.7,40.480633,-3.402994,589.7,3,5,216.9,0.555,1,2,0,1.0,-0.011111111111111112,-0.009333333333333334,-0.013222222222222224,-0.008555555555555556,-0.008555555555555556,-0.012777777777777779,-1.531222222222222,-0.013333333333333332,-1.201888888888889,0.4282,0.08216,2.82964,1.92,-1.0,-1.0,1.0,110.7,120.0,1,motorway,3,2,40.481071,-3.402554,1.521,110.7,D2,Drowsy,motor
204,109.4,40.480412,-3.403215,589.4,3,5,216.9,0.526,2,2,0,1.0,-0.0060999999999999995,-0.013699999999999999,-0.0048000000000000004,-0.0043,-0.011000000000000001,-0.0060999999999999995,-1.5236,-0.006500000000000001,-1.2048,0.8376923076923077,0.06184615384615385,2.825,1.6538461538461537,-1.0,-1.0,1.0,109.4,120.0,1,motorway,3,2,40.480633,-3.402994,1.055,109.4,D2,Drowsy,motor
207,105.9,40.479771,-3.40386,588.2,3,5,217.1,0.405,0,2,0,1.0,-0.0159,-0.006900000000000001,-0.0009999999999999998,-0.016300000000000002,-0.0046,-0.0006000000000000001,-1.5233,-0.0382,-1.2363,0.0,0.0,3.1899090909090906,0.0,40.9,1.3883333333333334,1.0,105.90000000000002,120.0,1,motorway,3,1,40.480206,-3.403428,1.301,105.9,D2,Drowsy,motor
208,104.8,40.479561,-3.404079,587.2,3,5,217.5,0.404,0,2,0,1.0,-0.007000000000000001,-0.006699999999999999,0.0046,-0.0095,-0.0082,0.0036999999999999997,-1.5308,-0.027000000000000003,-1.2435,-0.056666666666666664,-0.07033333333333333,3.169952380952381,0.9047619047619048,15.786000000000001,-0.038000000000000034,1.6,104.8,120.0,1,motorway,3,1,40.479771,-3.40386,0.941,104.8,D2,Drowsy,motor
211,105.0,40.478985,-3.404732,585.5,3,5,221.4,2.02,0,2,0,1.0,-0.0102,-0.0009000000000000001,0.0218,-0.0089,-0.0050999999999999995,0.0232,-1.5928,-0.0183,-1.2731,0.13125925925925927,-0.0042592592592592595,2.831925925925926,1.8148148148148149,39.339999999999996,1.348,2.0,105.0,120.0,1,motorway,3,1,40.479561,-3.404079,2.909,105.0,D2,Drowsy,motor
213,108.1,40.478584,-3.405197,588.0,3,5,223.2,1.751,0,2,0,1.0,-0.007625,0.03225,-0.023375,-0.0045000000000000005,0.032625,-0.0215,-1.57425,-0.034375,-1.2938749999999999,0.12476000000000001,0.00732,2.85232,1.76,40.0525,1.335,2.0,108.1,120.0,1,motorway,3,1,40.478985,-3.404733,1.65,108.1,D2,Drowsy,motor
215,107.9,40.478184,-3.405686,583.9,3,5,223.6,0.401,0,2,0,1.0,-0.014400000000000001,0.0178,-0.0024000000000000002,-0.016800000000000002,0.0134,-0.0045,-1.5552,-0.022,-1.3049,-0.08476923076923076,0.007038461538461539,2.8427307692307693,1.8461538461538463,45.92,1.53,1.0,107.9,120.0,1,motorway,3,1,40.478584,-3.405197,1.596,107.9,D2,Drowsy,motor
217,108.1,40.477791,-3.406181,585.9,3,5,224.6,1.055,2,2,0,1.0,-0.013800000000000002,0.0183,0.0038000000000000004,-0.011,0.0245,0.0024000000000000002,-1.5587,-0.0573,-1.3356999999999999,-0.7423846153846154,0.11184615384615385,2.8191923076923078,1.8461538461538463,44.348,1.476,1.0,108.1,120.0,1,motorway,3,1,40.478184,-3.405686,1.304,108.1,D2,Drowsy,motor
218,108.1,40.4776,-3.406442,586.5,3,5,226.4,2.461,2,2,0,1.0,-0.0156,0.0206,0.0023,-0.0189,0.0189,0.0026000000000000003,-1.5657999999999999,-0.05500000000000001,-1.3529,-0.7383214285714285,0.14485714285714285,2.859142857142857,1.7857142857142858,45.422000000000004,1.514,1.0,108.1,120.0,1,motorway,3,1,40.477791,-3.406182,0.776,108.1,D2,Drowsy,motor
219,109.1,40.477238,-3.40696,583.7,3,5,228.5,2.812,1,2,0,1.0,-0.0182,-0.0188,0.0059,-0.0144,-0.019,0.0056,-1.5665,-0.0481,-1.3666,-0.6244782608695651,0.18104347826086956,2.8863478260869564,1.8695652173913044,46.6475,1.54,1.0,108.8,120.0,1,motorway,3,1,40.4776,-3.406442,0.869,108.8,D2,Drowsy,motor
220,109.1,40.477238,-3.40696,583.7,3,5,228.5,2.109,1,2,0,1.0,-0.0267,0.0294,-0.006500000000000001,-0.0254,0.0319,-0.0031,-1.5695000000000001,-0.0686,-1.3862,-0.37096428571428575,0.12360714285714285,2.9028214285714284,1.9642857142857142,50.592,1.67,1.0,109.1,120.0,1,motorway,3,1,40.477417,-3.406702,0.661,109.1,D2,Drowsy,motor
221,109.9,40.477058,-3.407234,583.7,3,5,230.3,2.812,0,2,0,1.0,-0.0274,-0.022,-0.023899999999999998,-0.0318,-0.0219,-0.023899999999999998,-1.5587,-0.058399999999999994,-1.3973,-0.14611538461538462,0.15553846153846151,2.874653846153846,1.8076923076923077,53.306000000000004,1.746,1.0,109.9,120.0,1,motorway,3,1,40.477238,-3.40696,1.136,109.1,D2,Drowsy,motor
223,108.0,40.476715,-3.407788,583.9,3,5,231.3,1.055,0,2,0,1.0,-0.0155,0.0075,-0.009,-0.0156,0.0067,-0.0089,-1.5393,-0.036,-1.3969999999999998,0.12077272727272727,0.16695454545454547,2.441318181818182,1.1818181818181819,-1.0,-1.0,1.0,108.0,120.0,1,motorway,3,1,40.476887,-3.407514,1.104,106.9,D2,Drowsy,motor
226,106.2,40.476238,-3.408611,583.6,3,5,233.1,0.703,0,2,0,1.0,-0.0155,0.0435,0.0009000000000000001,-0.0156,0.0454,0.002,-1.5607,-0.048299999999999996,-1.401,0.0006538461538461542,0.08030769230769232,2.402807692307692,1.1923076923076923,21.7475,0.255,1.75,106.2,120.0,1,motorway,3,1,40.476551,-3.408059,1.466,106.2,D2,Drowsy,motor
227,106.2,40.476082,-3.408886,584.6,3,5,234.1,1.055,0,2,0,1.0,-0.010199999999999999,-0.005699999999999999,0.00019999999999999993,-0.0099,-0.005200000000000001,0.0004,-1.5581,-0.055700000000000006,-1.4129,0.15839999999999999,0.09592,2.46304,1.2,29.736666666666668,0.6866666666666666,2.0,106.2,120.0,1,motorway,3,1,40.476238,-3.408611,1.041,106.2,D2,Drowsy,motor
230,106.1,40.475491,-3.41004,584.2,3,5,237.3,1.758,0,2,0,1.0,-0.0137,-0.034199999999999994,0.0093,-0.013000000000000001,-0.0346,0.0091,-1.5713000000000001,-0.0126,-1.4079,0.0,0.0,2.9527142857142854,0.0,45.4375,1.5425,2.0,105.9,120.0,1,motorway,3,1,40.475929,-3.409167,1.342,105.9,D2,Drowsy,motor
231,106.1,40.475491,-3.41004,584.2,3,5,237.3,0.703,0,2,0,1.0,-0.013600000000000001,0.040999999999999995,-0.0012000000000000001,-0.015,0.035699999999999996,0.0005000000000000001,-1.5744,-0.0241,-1.4054,0.0,0.0,2.9453703703703704,0.0,43.864999999999995,1.4875,2.0,106.1,120.0,1,motorway,3,1,40.475632,-3.40975,1.173,106.5,D2,Drowsy,motor
233,105.9,40.475212,-3.410625,583.9,3,5,239.4,2.109,2,2,0,1.0,-0.014100000000000001,-0.024,-0.013000000000000001,-0.0177,-0.018,-0.014599999999999998,-1.5470000000000002,-0.05669999999999999,-1.4238,0.819409090909091,0.08950000000000001,2.9116818181818185,1.7727272727272727,34.28333333333333,1.1633333333333333,2.6666666666666665,105.90000000000002,120.0,1,motorway,3,1,40.475346,-3.410331,1.026,105.9,D2,Drowsy,motor
235,103.0,40.474953,-3.411226,584.3,3,5,241.2,1.758,2,2,0,1.0,-0.015099999999999999,0.0091,0.0209,-0.016,0.0092,0.0186,-1.55,-0.058699999999999995,-1.4316,0.84568,-0.03336,2.9637599999999997,1.76,28.599999999999998,1.0,4.0,103.0,120.0,1,motorway,3,1,40.475079,-3.410924,0.667,103.0,D2,Drowsy,motor
237,103.1,40.474602,-3.412127,584.5,3,5,244.0,2.109,2,2,0,1.0,-0.0128,-0.013000000000000001,0.0149,-0.0152,-0.0063,0.0154,-1.5752000000000002,-0.016900000000000002,-1.4336,0.9617083333333333,-0.02879166666666667,2.849,1.75,32.01,1.1175,4.75,103.0,120.0,1,motorway,3,1,40.474953,-3.411226,1.613,103.0,D2,Drowsy,motor
238,103.1,40.474602,-3.412127,584.5,3,5,244.0,1.758,2,2,0,1.0,0.0018,-0.0005999999999999998,-0.0042,-0.0011000000000000003,-0.0034999999999999996,-0.0021999999999999997,-1.5735,-0.016300000000000002,-1.4269,0.9016296296296297,-0.039740740740740736,2.876259259259259,1.8888888888888888,37.405,1.305,4.25,103.1,120.0,1,motorway,3,1,40.474716,-3.411824,0.641,103.1,D2,Drowsy,motor
240,103.3,40.474377,-3.412735,584.6,3,5,245.0,1.055,2,3,0,1.0,-0.0359,-0.009600000000000001,0.0064,-0.0344,-0.0052,0.0053,-1.5767,-0.0375,-1.4331,0.8184444444444444,-0.030259259259259257,2.902296296296296,1.7407407407407407,43.805,1.5275,3.5,103.3,120.0,1,motorway,3,1,40.474602,-3.412127,1.896,103.3,D2,Drowsy,motor
241,103.0,40.474274,-3.413044,585.1,3,5,246.1,2.109,2,3,0,1.0,-0.0259,-0.016999999999999998,0.0137,-0.0267,-0.0166,0.0118,-1.5911,-0.023600000000000003,-1.4294,0.8308846153846154,-0.017,2.8438846153846153,1.9615384615384615,42.73333333333333,1.4933333333333334,3.0,103.0,120.0,1,motorway,3,1,40.474377,-3.412736,0.71,103.0,D2,Drowsy,motor
242,103.6,40.474171,-3.413349,585.2,3,5,246.4,1.406,2,3,0,1.0,-0.0201,-0.0046,0.036199999999999996,-0.0204,-0.0086,0.038,-1.6150000000000002,-0.012,-1.4218,0.6834166666666667,-0.03166666666666667,2.828416666666667,1.875,40.182,1.3980000000000001,3.0,103.47999999999999,120.0,1,motorway,3,1,40.474274,-3.413044,0.736,103.6,D2,Drowsy,motor
243,105.5,40.474068,-3.413657,585.6,3,5,246.8,0.703,0,3,0,1.0,-0.010666666666666665,0.03277777777777778,-0.03788888888888889,-0.014333333333333333,0.033,-0.03066666666666667,-1.6164444444444444,-0.03222222222222222,-1.4254444444444445,0.3231818181818182,-0.08527272727272726,2.8602727272727275,1.7727272727272727,35.406666666666666,1.21,3.0,105.5,120.0,1,motorway,3,1,40.474171,-3.41335,0.642,105.5,D2,Drowsy,motor
244,107.2,40.473969,-3.413982,586.7,3,5,247.5,1.055,0,3,0,1.0,-0.006,-0.0013999999999999998,-0.0369,-0.0049,0.0032,-0.0398,-1.5716,-0.0448,-1.4337,0.02052,-0.07696,2.96504,1.84,32.550000000000004,1.0933333333333335,3.0,107.2,120.0,1,motorway,3,1,40.474068,-3.413657,0.672,107.2,D2,Drowsy,motor
245,103.7,40.473789,-3.414619,587.1,3,5,249.6,2.109,1,3,0,1.0,0.00040000000000000105,0.0052,-0.0036000000000000003,-0.0014999999999999992,0.002699999999999999,-0.0083,-1.5538,-0.0485,-1.4372,-0.3996,-0.0414,3.10032,1.92,30.375,1.0375,3.0,105.47500000000001,120.0,1,motorway,3,1,40.473969,-3.413983,0.804,104.9,D2,Drowsy,motor
246,103.7,40.473789,-3.414619,587.1,3,5,249.6,2.109,2,3,0,1.0,-0.0147,0.0029000000000000002,0.0172,-0.013799999999999998,-9.999999999999975e-05,0.0183,-1.5695999999999999,-0.0622,-1.4492,-0.566037037037037,-0.012259259259259258,3.2279259259259256,1.9259259259259258,28.2025,0.98,2.0,103.7,120.0,1,motorway,3,1,40.473873,-3.414307,0.671,103.7,D2,Drowsy,motor
247,103.0,40.473701,-3.414939,588.0,3,5,251.0,2.109,0,3,0,1.0,0.0102,-0.011399999999999999,-0.0016,0.007200000000000001,-0.0045,0.0014000000000000002,-1.5718,-0.062,-1.4622,-0.5356923076923077,-0.02646153846153846,3.2645384615384616,1.5,25.316666666666666,0.8866666666666667,2.0,103.0,120.0,1,motorway,3,1,40.473789,-3.414619,0.712,103.0,D2,Drowsy,motor
248,103.1,40.473625,-3.415257,589.7,3,5,252.4,2.812,0,3,0,1.0,-0.0177,-0.0561,-0.0172,-0.0162,-0.056600000000000004,-0.016900000000000002,-1.5637,-0.0364,-1.4547,-0.22824999999999998,-0.019166666666666665,3.103125,1.5,17.2725,0.365,2.0,103.07499999999999,120.0,1,motorway,3,1,40.473701,-3.414939,0.703,103.1,D2,Drowsy,motor
249,102.7,40.473549,-3.415582,591.1,3,5,252.4,1.406,0,3,0,1.0,-0.007300000000000001,-0.0301,-0.0149,-0.0029,-0.03,-0.016,-1.5482,-0.0099,-1.4383,-0.20528,0.06156,2.8918,1.92,22.085,0.775,2.0,102.7,120.0,1,motorway,3,1,40.473625,-3.415257,0.697,102.7,D2,Drowsy,motor
250,101.8,40.473476,-3.415904,591.3,3,5,252.4,0.0,0,3,0,1.0,-0.00029999999999999976,-0.014199999999999999,-0.008,-0.0041,-0.0177,-0.0093,-1.5362,0.013000000000000001,-1.4209,-0.09025000000000001,0.05839285714285714,2.839,1.8571428571428572,21.0175,0.7424999999999999,2.0,102.025,120.0,1,motorway,3,1,40.473549,-3.415583,0.935,101.8,D2,Drowsy,motor
251,100.2,40.473404,-3.416227,592.1,3,5,252.1,0.352,0,3,0,1.0,-0.011300000000000001,-0.011800000000000001,0.0205,-0.0079,-0.0121,0.0173,-1.5377,0.0247,-1.4001,-0.059458333333333335,0.059416666666666666,2.9013333333333335,1.875,20.497999999999998,0.738,1.8,100.2,120.0,1,motorway,3,1,40.473476,-3.415904,0.655,100.2,D2,Drowsy,motor
252,99.6,40.473328,-3.416534,591.1,3,5,252.4,0.352,0,3,0,1.0,-0.0014000000000000004,-0.0027,0.0267,-0.0036999999999999997,-0.0013999999999999998,0.028100000000000003,-1.5637,0.0256,-1.3795,-0.1528,0.03988,2.8360399999999997,1.84,19.8975,0.7175,1.0,99.6,120.0,1,motorway,3,1,40.473404,-3.416228,1.256,100.0,D2,Drowsy,motor
254,101.0,40.473167,-3.417147,588.5,3,5,251.0,1.406,2,3,0,1.0,-0.0032,0.0304,-0.009,-0.0026000000000000003,0.034699999999999995,-0.0013999999999999998,-1.5852,-0.004,-1.3622,-0.6360384615384616,0.008846153846153846,2.749346153846154,1.6923076923076923,19.276666666666667,0.6866666666666666,1.0,101.0,120.0,1,motorway,3,1,40.473251,-3.416839,0.609,101.0,D2,Drowsy,motor
255,102.0,40.473087,-3.417457,589.0,3,5,251.0,0.352,1,4,0,1.0,-0.0035000000000000005,0.0103,-0.0258,-0.0036999999999999997,0.0118,-0.0273,-1.5632,-0.0178,-1.3637000000000001,-0.5981739130434782,0.05930434782608695,2.9577391304347826,1.8695652173913044,19.685000000000002,0.6925,1.0,101.75,120.0,1,motorway,3,1,40.473167,-3.417148,0.849,102.0,D2,Drowsy,motor
256,102.0,40.473003,-3.417773,589.0,3,5,251.0,0.0,0,4,0,1.0,0.0005000000000000002,-0.036199999999999996,-0.0165,-0.00019999999999999939,-0.0333,-0.016999999999999998,-1.5496,-0.0165,-1.3624,-0.3885454545454545,0.09477272727272727,2.907,1.9090909090909092,20.3325,0.715,1.0,102.0,120.0,1,motorway,3,1,40.473087,-3.417458,0.917,102.0,D2,Drowsy,motor
257,103.2,40.472931,-3.418098,588.7,3,5,252.4,1.406,0,4,0,1.0,0.0018000000000000002,-0.0159,0.0015999999999999996,0.0025,-0.0217,-0.0035000000000000005,-1.5387,0.0055,-1.3493,-0.22642307692307695,0.11465384615384615,2.8610384615384614,1.7692307692307692,20.67,0.7224999999999999,1.0,103.2,120.0,1,motorway,3,1,40.473003,-3.417773,0.724,103.2,D2,Drowsy,motor
258,100.7,40.472855,-3.418407,589.0,3,5,252.1,1.055,0,3,0,1.0,0.0040999999999999995,-0.0023,0.034999999999999996,0.0023,-0.0027,0.0364,-1.5536999999999999,0.0115,-1.3393000000000002,-0.08641666666666666,0.058416666666666665,2.813166666666667,1.8333333333333333,20.636666666666667,0.7366666666666667,1.3333333333333333,100.7,120.0,1,motorway,3,1,40.472931,-3.418099,1.169,100.2,D2,Drowsy,motor
260,102.9,40.472603,-3.419366,589.2,3,5,251.4,0.0,0,3,0,1.0,0.0008000000000000007,0.0048000000000000004,-0.0306,0.0034999999999999996,-0.00010000000000000009,-0.027700000000000002,-1.5668000000000002,0.023,-1.3172000000000001,0.037370370370370366,-0.009,2.8102962962962965,1.8518518518518519,20.67,0.73,3.0,101.6,120.0,1,motorway,3,1,40.472775,-3.418719,1.177,102.9,D2,Drowsy,motor
264,101.2,40.472271,-3.420632,586.1,3,5,251.4,0.703,0,3,0,1.0,-0.0284,0.0299,-0.0134,-0.0274,0.027500000000000004,-0.0127,-1.5412,0.0208,-1.3047,-0.13368181818181818,0.062000000000000006,2.9294545454545453,1.8181818181818181,22.612499999999997,0.8,3.0,101.8,120.0,1,motorway,3,1,40.472603,-3.419367,2.337,101.7,D2,Drowsy,motor
265,101.2,40.472271,-3.420632,586.1,3,5,251.4,0.703,0,3,0,1.0,-0.0269,-0.0431,0.0036999999999999997,-0.0279,-0.0421,0.0012000000000000001,-1.5454,0.0346,-1.2957,-0.04859090909090909,0.04840909090909091,2.8845454545454547,1.8636363636363635,22.74,0.8066666666666666,3.0,101.2,120.0,1,motorway,3,1,40.472355,-3.420316,1.156,100.6,D2,Drowsy,motor
267,100.5,40.472103,-3.421264,585.5,3,5,250.3,1.055,0,3,0,1.0,-0.0098,0.0161,0.0047,-0.011300000000000001,0.0212,0.006,-1.5737999999999999,0.010499999999999999,-1.2909000000000002,-0.26086363636363635,9.090909090909067e-05,2.8484545454545454,1.9090909090909092,21.03,0.7525,3.0,100.525,120.0,1,motorway,3,1,40.472187,-3.42095,1.208,101.3,D2,Drowsy,motor
269,102.0,40.471931,-3.421894,585.1,3,5,250.7,0.352,0,3,0,1.0,-0.0078,0.0015999999999999994,-0.0228,-0.0126,0.0024000000000000002,-0.0235,-1.5556,0.0221,-1.2865,-0.37373913043478263,0.05321739130434783,2.904434782608696,1.826086956521739,20.5325,0.7275,4.0,101.825,120.0,1,motorway,3,1,40.472019,-3.421581,0.87,102.0,D2,Drowsy,motor
271,99.6,40.47168,-3.422827,584.6,3,5,250.0,0.352,0,3,0,1.0,-0.0137,-0.0246,0.0009999999999999996,-0.0102,-0.0223,-0.0005000000000000001,-1.5408,0.0185,-1.2772000000000001,-0.32679166666666665,0.06187499999999999,2.8860833333333336,1.875,20.05,0.7175,3.75,100.4,120.0,1,motorway,3,1,40.471931,-3.421895,2.226,99.6,D2,Drowsy,motor
273,99.2,40.471588,-3.423135,584.8,3,5,249.3,1.055,2,3,0,1.0,-0.02411111111111111,0.024,0.027555555555555555,-0.020888888888888887,0.018555555555555558,0.027,-1.5854444444444444,0.005333333333333333,-1.267,-0.73688,0.02004,2.89372,1.96,19.94333333333333,0.7200000000000001,4.0,99.33333333333333,120.0,1,motorway,3,1,40.47168,-3.422828,1.222,100.5,D2,Drowsy,motor
276,103.8,40.471321,-3.424075,586.9,3,5,249.3,0.352,2,4,0,1.0,-0.010499999999999999,-0.0429,-0.0299,-0.010700000000000001,-0.038,-0.0304,-1.5709,-0.0098,-1.2818999999999998,-0.7648571428571429,0.09153571428571429,2.8349285714285712,1.8571428571428572,19.096666666666668,0.6633333333333334,2.3333333333333335,103.8,120.0,1,motorway,3,1,40.4715,-3.423444,2.185,104.1,D2,Drowsy,motor
278,103.5,40.471146,-3.424716,587.1,3,5,249.6,0.352,0,4,0,1.0,-0.0094,-0.012,-0.0118,-0.009600000000000001,-0.0121,-0.0127,-1.5464,0.0262,-1.2717,-0.26785185185185184,0.08807407407407408,2.8911111111111114,1.8518518518518519,18.430000000000003,0.64,2.0,103.5,120.0,1,motorway,3,1,40.47123,-3.424394,1.231,102.6,D2,Drowsy,motor
280,102.2,40.470955,-3.425339,584.6,3,5,248.2,1.406,1,3,0,1.0,-0.0167,0.0262,-0.010199999999999999,-0.0128,0.0311,-0.0112,-1.5458,0.0172,-1.2677999999999998,-0.40176,0.0408,2.89092,1.88,17.535,0.6174999999999999,2.0,102.3,120.0,1,motorway,3,1,40.47105,-3.425028,0.827,102.2,D2,Drowsy,motor
281,101.5,40.470863,-3.425649,583.2,3,5,248.6,0.703,0,3,0,1.0,-0.0079,0.015099999999999999,0.0091,-0.0128,0.0157,0.0082,-1.5518,0.0164,-1.2731999999999999,-0.27858333333333335,0.06920833333333333,2.919708333333333,1.8333333333333333,17.3925,0.62,2.0,101.5,120.0,1,motorway,3,1,40.470955,-3.42534,1.26,100.8,D2,Drowsy,motor
284,100.5,40.470592,-3.426568,584.8,3,5,248.9,0.0,0,3,0,1.0,-0.016900000000000002,0.004599999999999999,-0.006,-0.019,0.0036000000000000003,-0.0051,-1.5776999999999999,0.010100000000000001,-1.2818,-0.23814285714285716,0.05939285714285714,2.8826071428571427,1.9285714285714286,16.76,0.6,2.0,100.5,120.0,1,motorway,3,1,40.470772,-3.425955,1.372,100.5,D2,Drowsy,motor
285,100.9,40.470501,-3.426878,586.4,3,5,249.3,0.352,0,3,0,1.0,-0.008199999999999999,0.018000000000000002,0.0183,-0.009,0.0227,0.0185,-1.5865,-0.0149,-1.2971,-0.24458333333333335,0.055125,2.8340416666666663,1.7916666666666667,16.026666666666667,0.57,2.0,100.90000000000002,120.0,1,motorway,3,1,40.470592,-3.426569,1.046,100.9,D2,Drowsy,motor
287,101.6,40.470325,-3.427498,585.9,3,5,249.6,0.352,2,3,0,1.0,-0.010199999999999999,0.0211,-0.010600000000000002,-0.011300000000000001,0.0185,-0.012,-1.5927,0.014499999999999999,-1.2908,-0.43945833333333334,0.06766666666666667,2.7858750000000003,1.9166666666666667,14.63,0.52,2.3333333333333335,101.59999999999998,120.0,1,motorway,3,1,40.470409,-3.427183,1.171,102.4,D2,Drowsy,motor
289,103.2,40.47015,-3.428134,586.9,3,5,250.3,0.703,2,4,0,1.0,-0.013666666666666667,0.023111111111111114,-0.00788888888888889,-0.015111111111111112,0.03322222222222222,-0.004333333333333333,-1.602,-0.04977777777777778,-1.3250000000000002,-0.7138095238095238,0.04528571428571428,2.835,1.8571428571428572,23.813333333333333,0.8333333333333334,3.0,102.93333333333334,120.0,1,motorway,3,1,40.470242,-3.427814,0.925,103.2,D2,Drowsy,motor
290,104.1,40.470066,-3.428459,587.7,3,5,252.1,2.461,0,4,0,1.0,-0.00909090909090909,-0.03490909090909091,-0.0076363636363636364,-0.009818181818181818,-0.03909090909090909,-0.010090909090909091,-1.5863636363636362,-0.042909090909090904,-1.338,-0.28894444444444445,0.11833333333333333,2.8943333333333334,1.7777777777777777,23.959999999999997,0.83,3.0,103.8,120.0,1,motorway,3,1,40.47015,-3.428134,1.179,104.1,D2,Drowsy,motor
292,103.4,40.46991,-3.429104,588.0,3,5,252.4,0.352,0,4,0,1.0,-0.014400000000000001,-0.012199999999999999,-0.0123,-0.0113,-0.0165,-0.0098,-1.5832000000000002,0.0038,-1.3317,0.3388181818181818,0.1504090909090909,2.9208181818181815,1.8181818181818181,24.2225,0.845,3.0,103.25,120.0,1,motorway,3,1,40.469986,-3.428777,1.114,103.1,D2,Drowsy,motor
294,102.6,40.469753,-3.429754,591.6,3,5,252.4,0.352,2,4,0,1.0,-0.0017999999999999995,0.0139,0.011300000000000001,-0.00020000000000000017,0.014500000000000002,0.0103,-1.5797,-0.0085,-1.3341,0.76692,-0.0021200000000000004,2.90572,1.8,24.583333333333332,0.8633333333333333,3.0,102.59999999999998,120.0,1,motorway,3,1,40.469833,-3.429428,1.055,102.6,D2,Drowsy,motor
297,104.1,40.469528,-3.430714,591.2,3,5,254.5,1.758,0,4,0,1.0,-0.016300000000000002,-0.0142,0.0027999999999999995,-0.016,-0.0114,0.0042,-1.5944,-0.0507,-1.3707,0.12075000000000001,-0.012374999999999999,2.8195,1.7083333333333333,27.583333333333332,0.9533333333333333,3.0,104.09999999999998,120.0,1,motorway,3,1,40.469673,-3.430069,1.32,104.1,D2,Drowsy,motor
298,105.0,40.46946,-3.431047,593.0,3,5,255.6,2.109,0,3,0,1.0,-0.014799999999999999,0.0048000000000000004,-0.008799999999999999,-0.0128,0.002,-0.0085,-1.5924,-0.0441,-1.3815,0.04542307692307693,0.01173076923076923,2.6878076923076923,1.7692307692307692,28.526666666666667,0.98,2.3333333333333335,105.0,120.0,1,motorway,3,1,40.469528,-3.430715,0.848,105.0,D2,Drowsy,motor
299,105.2,40.469398,-3.431389,593.3,3,5,256.6,2.109,0,3,0,1.0,-0.0152,0.0009000000000000001,-0.0031,-0.0159,0.007300000000000001,-0.004,-1.5874000000000001,-0.0507,-1.3978,0.10927272727272727,0.08118181818181819,2.606590909090909,1.5,29.58,1.0150000000000001,2.0,105.2,120.0,1,motorway,3,1,40.46946,-3.431048,0.563,105.2,D2,Drowsy,motor
300,105.5,40.469345,-3.431724,594.6,3,5,258.0,2.461,2,3,0,1.0,-0.017599999999999998,-0.0317,-0.011,-0.0177,-0.0315,-0.0098,-1.5801,-0.0301,-1.4016,0.5893076923076923,0.04076923076923077,2.8881923076923077,1.8461538461538463,21.785,0.745,3.0,105.35,120.0,1,motorway,3,1,40.469398,-3.431389,0.723,105.5,D2,Drowsy,motor
301,105.2,40.469288,-3.432059,595.4,3,5,258.4,1.758,2,3,0,1.0,-0.005,-0.038900000000000004,0.0157,-0.0083,-0.0454,0.0129,-1.576,-0.0012999999999999997,-1.3911,0.6068846153846154,0.021,2.8670384615384616,1.8846153846153846,14.365,0.49,3.0,105.35,120.0,1,motorway,3,1,40.469345,-3.431724,1.233,104.8,D2,Drowsy,motor
303,105.4,40.469177,-3.43272,594.2,3,5,258.8,1.406,2,3,0,1.0,-0.012875,0.00275,-0.007625,-0.015875,0.0007499999999999998,-0.006875,-1.58625,-0.02475,-1.40025,0.519,0.005476190476190476,2.867,1.8095238095238095,18.21,0.62,2.0,105.4,120.0,1,motorway,3,1,40.469234,-3.432386,1.264,105.5,D2,Drowsy,motor
305,105.0,40.469082,-3.433397,597.1,3,5,259.5,0.703,2,4,0,1.0,-0.0198,-0.014299999999999998,0.0016,-0.018,-0.014499999999999999,0.0025,-1.5775000000000001,-0.0036999999999999997,-1.3869,0.9108695652173913,0.029,2.888478260869565,1.9565217391304348,21.9,0.75,1.0,105.0,120.0,1,motorway,3,1,40.469131,-3.433056,1.014,105.0,D2,Drowsy,motor
307,104.4,40.468979,-3.434067,597.9,3,5,258.4,1.055,2,4,0,1.0,0.012199999999999999,0.0319,-0.002,0.0081,0.024399999999999998,-0.0036999999999999997,-1.5673,-0.0081,-1.356,0.7845925925925926,-0.048296296296296296,2.833111111111111,1.7777777777777777,23.763333333333332,0.82,1.3333333333333333,104.66666666666667,120.0,1,motorway,3,1,40.469036,-3.433733,0.861,104.4,D2,Drowsy,motor
308,104.4,40.468929,-3.434408,598.4,3,5,258.0,0.703,2,4,0,1.0,-0.006499999999999999,0.0185,0.0078,-0.0030000000000000005,0.0201,0.0091,-1.5659,-0.0351,-1.359,0.6625000000000001,-0.06304545454545454,2.829409090909091,1.8636363636363635,25.599999999999998,0.88,2.0,104.40000000000002,120.0,1,motorway,3,1,40.468979,-3.434068,0.881,104.4,D2,Drowsy,motor
309,104.2,40.46888,-3.434742,598.6,3,5,258.4,0.352,2,4,0,1.0,-0.0036999999999999997,-0.0023,-0.0174,-0.0032,0.0013999999999999998,-0.016300000000000002,-1.5586,-0.0412,-1.3604,0.71756,0.0032,2.86112,1.88,26.259999999999998,0.91,2.0,104.2,120.0,1,motorway,3,1,40.468929,-3.434409,1.128,103.6,D2,Drowsy,motor
