t_sec,speed_kmh,lat,lon,alt,vert_acc,horiz_acc,course,difcourse,hdop,vdop,pdop,active,acc_x,acc_y,acc_z,acc_x_kf,acc_y_kf,acc_z_kf,roll,pitch,yaw,x_lane,phi,road_width,lane_state,dist_front,ttc_front,num_vehicles,gps_speed,max_speed,speed_rel,road_type_osm,num_lanes,lane_id,lat_osm,lon_osm,osm_delay,gps_speed_osm,driver,behavior,road_type
12,66.1,40.50584,-3.356279,601.9,3,5,275.6,5.273,0,0,0,1.0,-0.0223,-0.0031,-0.012,-0.0232,-0.0023,-3.4694469519536144e-19,-1.5604,-0.0371,0.0194,0.0,0.0,3.5,-1.0,31.03833333333333,1.6049999999999998,2.0,69.95,90.0,1,motorway_link,2,1,40.505657,-3.356018,1.126,66.1,D5,Aggressive,motor
14,66.0,40.505852,-3.356736,602.4,3,5,278.4,2.812,0,0,0,1.0,0.0026000000000000003,-0.047,0.016300000000000002,0.0032,-0.044700000000000004,0.0077,-1.5378,-0.0125,0.023299999999999998,0.0019999999999999996,-0.038919999999999996,3.1763600000000003,2.0,4.88,-0.5333333333333333,2.0,67.35000000000001,90.0,1,motorway_link,2,1,40.505829,-3.356511,1.084,66.0,D5,Aggressive,motor
16,69.6,40.505852,-3.357188,603.2,3,5,275.3,3.164,2,0,0,1.0,0.003,0.013900000000000001,0.0588,0.0067,0.0076,0.059699999999999996,-1.5871,0.0185,0.0947,-0.9621153846153846,-0.12865384615384617,3.240923076923077,1.9230769230769231,5.175714285714285,-0.5314285714285715,0.2857142857142857,68.35714285714286,90.0,1,motorway_link,2,1,40.505844,-3.35696,1.279,69.6,D5,Aggressive,motor
18,75.3,40.505928,-3.35767,604.2,3,5,273.9,1.406,0,0,0,1.0,0.009,0.08,0.0036000000000000016,0.006,0.0794,0.011199999999999998,-1.6065,-0.019,0.0763,0.3572222222222222,-0.00974074074074074,3.0555925925925926,1.8518518518518519,-1.0,-1.0,0.0,74.25,90.0,1,motorway_link,2,1,40.505878,-3.357412,1.229,75.3,D5,Aggressive,motor
21,79.6,40.505959,-3.358428,603.5,3,5,276.0,1.055,0,0,0,1.0,-0.0139,-0.0324,-0.040900000000000006,-0.0114,-0.0311,-0.042499999999999996,-1.5514,-0.0402,0.0699,-0.249,-0.0049545454545454545,3.074409090909091,1.3636363636363635,-1.0,-1.0,1.0,79.63333333333333,90.0,1,motorway_link,2,1,40.505924,-3.35798,1.475,79.7,D5,Aggressive,motor
22,79.0,40.505989,-3.358662,603.5,3,5,276.7,0.703,0,0,0,1.0,-0.0159,-0.020300000000000002,0.0422,-0.0165,-0.0241,0.0371,-1.5530000000000002,-0.017599999999999998,0.0886,-0.13852,0.03556,2.87724,1.44,-1.0,-1.0,0.8571428571428571,79.17142857142858,90.0,1,motorway_link,2,1,40.505959,-3.358428,1.179,79.0,D5,Aggressive,motor
24,78.8,40.506016,-3.359176,603.4,3,5,275.6,1.055,0,0,0,1.0,-0.0103,0.004200000000000001,0.0028000000000000004,-0.0118,0.0038,0.0068000000000000005,-1.5896000000000001,-0.0075,0.1299,-0.060434782608695656,-0.012043478260869564,2.9006086956521737,2.0,11.625714285714285,0.53,1.2857142857142858,79.05714285714285,90.0,1,motorway_link,2,1,40.505997,-3.358918,0.963,78.8,D5,Aggressive,motor
25,80.2,40.506031,-3.359441,603.6,3,5,276.0,0.352,0,0,0,1.0,-0.006899999999999999,-0.0359,-0.0215,-0.0091,-0.0322,-0.019200000000000002,-1.5942,0.0054,0.16160000000000002,-0.05,0.003959999999999999,2.7187599999999996,1.84,9.937142857142858,0.44857142857142857,2.0,79.8,90.0,1,motorway_link,2,1,40.506016,-3.359176,1.193,80.2,D5,Aggressive,motor
28,79.4,40.50602,-3.360218,603.0,3,5,268.9,2.461,0,0,0,1.0,-0.021555555555555557,0.008555555555555556,0.027777777777777776,-0.021333333333333333,0.009555555555555557,0.020666666666666667,-1.5646666666666667,0.001888888888888889,0.23877777777777778,0.1031304347826087,0.007521739130434782,3.118782608695652,1.5217391304347827,-1.0,-1.0,1.0,79.54285714285716,90.0,1,motorway_link,2,1,40.506035,-3.359691,1.659,79.4,D5,Aggressive,motor
30,79.9,40.506001,-3.360733,603.3,3,5,265.1,3.867,0,0,0,1.0,-0.007299999999999999,-0.055700000000000006,0.041100000000000005,-0.0116,-0.046299999999999994,0.038400000000000004,-1.5865,0.01,0.29710000000000003,-0.17935714285714285,-0.055178571428571424,3.051357142857143,1.7142857142857142,-1.0,-1.0,1.0,79.78571428571429,90.0,1,motorway_link,2,1,40.50602,-3.360218,1.39,79.1,D5,Aggressive,motor
31,80.9,40.50597,-3.360997,603.4,3,5,261.9,5.625,2,0,0,1.0,-0.005400000000000001,-0.031,0.0526,-0.002800000000000001,-0.0412,0.0529,-1.5872,0.0134,0.3511,-0.80392,-0.17271999999999998,2.8148,1.24,-1.0,-1.0,0.7142857142857143,80.61428571428573,90.0,1,motorway_link,2,1,40.506001,-3.360734,1.237,80.9,D5,Aggressive,motor
34,87.4,40.505867,-3.361807,604.4,3,5,259.8,0.352,0,0,0,1.0,-0.010700000000000001,0.0824,0.0339,-0.005300000000000001,0.081,0.034699999999999995,-1.6001999999999998,0.005200000000000001,0.3576,-0.35392,-0.00356,2.9331599999999995,1.8,48.12571428571429,1.7085714285714286,2.7142857142857144,86.17142857142858,120.0,1,motorway,3,1,40.505939,-3.361257,1.895,87.4,D5,Aggressive,motor
36,91.7,40.505772,-3.362388,606.3,3,5,257.7,2.109,0,0,0,1.0,0.0017000000000000014,0.0371,0.037,0.0048000000000000004,0.0361,0.0388,-1.6027999999999998,0.0060999999999999995,0.3849,-0.3675652173913044,0.0838695652173913,2.942913043478261,1.7391304347826086,70.30285714285715,2.7785714285714285,3.0,91.10000000000001,120.0,1,motorway,3,1,40.505867,-3.361807,2.154,91.7,D5,Aggressive,motor
39,97.0,40.505589,-3.363291,606.9,3,5,250.7,5.977,0,1,0,1.0,-0.023899999999999998,0.0413,-0.0047,-0.0223,0.0382,-0.0020000000000000005,-1.6532,0.014499999999999999,0.4821,-0.23042307692307695,-0.0022692307692307695,3.2302692307692307,0.19230769230769232,-1.0,-1.0,0.25,96.575,120.0,1,motorway,3,2,40.505718,-3.362688,2.031,97.0,D5,Aggressive,motor
42,104.3,40.50531,-3.364235,608.3,3,5,247.9,1.055,0,1,0,1.0,0.002000000000000001,-0.0269,-0.0081,0.0010999999999999996,-0.0177,-0.0076,-1.6387,-0.054400000000000004,0.5071,-0.3121111111111111,0.007666666666666666,3.020185185185185,1.962962962962963,-1.0,-1.0,0.0,103.92222222222222,120.0,1,motorway,3,2,40.505505,-3.363603,2.225,104.3,D5,Aggressive,motor
47,116.0,40.504692,-3.3659,607.4,3,5,240.5,3.516,0,1,0,1.0,-0.006599999999999999,0.0413,-0.040400000000000005,-0.0058000000000000005,0.0368,-0.0344,-1.6405999999999998,0.023200000000000002,0.6086,-0.16872,0.043120000000000006,2.90988,1.84,-1.0,-1.0,0.0,115.26666666666668,120.0,1,motorway,3,2,40.505207,-3.364565,3.39,113.8,D5,Aggressive,motor
48,118.3,40.504536,-3.366238,608.5,3,5,239.1,3.164,0,1,0,1.0,0.0008000000000000023,0.018,-0.06989999999999999,0.0005000000000000004,0.0172,-0.0741,-1.579,0.019,0.615,-0.03347826086956522,0.025608695652173913,2.9894347826086958,1.7826086956521738,-1.0,-1.0,0.0,117.84,120.0,1,motorway,3,2,40.504692,-3.365901,1.313,118.3,D5,Aggressive,motor
61,125.8,40.502419,-3.370627,606.8,3,5,237.4,0.365,0,0,0,1.0,-0.018000000000000002,0.029099999999999997,-0.0185,-0.0161,0.0253,-0.016800000000000002,-1.5825,0.023,0.4694,-0.1611851851851852,0.04348148148148148,3.182888888888889,1.7407407407407407,-1.0,-1.0,0.0,125.525,120.0,1,motorway,3,1,40.504379,-3.366569,11.42,124.7,D5,Aggressive,motor
63,126.8,40.502083,-3.371308,605.3,3,5,237.3,4.12,0,0,0,1.0,0.0002000000000000006,0.0009999999999999996,-0.06,-0.005999999999999999,0.005699999999999999,-0.0576,-1.5678,0.0066,0.4548,-0.05003571428571429,0.012928571428571428,3.1532142857142857,1.75,-1.0,-1.0,0.0,126.7,120.0,1,motorway,3,1,40.502419,-3.370628,1.779,126.8,D5,Aggressive,motor
65,124.5,40.501743,-3.371997,604.0,3,5,237.0,0.352,0,0,0,1.0,-0.0042,0.02,-0.006900000000000001,-0.003,0.0206,-0.0071,-1.5202,-0.010100000000000001,0.445,-0.279,0.00252,3.20204,1.84,-1.0,-1.0,0.0,124.95,120.0,1,motorway,3,1,40.502083,-3.371308,1.514,124.5,D5,Aggressive,motor
66,122.9,40.501579,-3.372339,603.3,3,5,237.3,0.352,0,0,0,1.0,-0.006,-0.0019000000000000002,-0.0004000000000000003,-0.0049,-0.0021,-0.0012999999999999997,-1.5209,-0.0215,0.438,-0.2669259259259259,0.022037037037037036,3.2035925925925928,1.8148148148148149,-1.0,-1.0,0.0,123.25555555555555,120.0,1,motorway,3,1,40.501743,-3.371998,1.153,122.9,D5,Aggressive,motor
83,122.7,40.49873,-3.377985,599.4,3,5,233.8,2.109,0,0,0,1.0,-0.0314,0.0433,0.003,-0.023899999999999998,0.0408,0.0004,-1.5669,-0.054000000000000006,0.44670000000000004,0.07952173913043478,-0.007739130434782609,3.0813478260869562,1.3043478260869565,-1.0,-1.0,0.375,122.625,-1.0,-1,-,-1,-1,40.501411,-3.372673,15.947,122.7,D5,Aggressive,motor
88,124.3,40.497852,-3.379671,598.8,3,5,236.2,0.352,0,0,0,1.0,-0.0157,0.0049,-0.010700000000000001,-0.0125,0.011200000000000002,-0.0101,-1.5472,-0.07189999999999999,0.3872,0.2290357142857143,0.07396428571428572,3.2167857142857144,1.8928571428571428,-1.0,-1.0,0.0,124.325,120.0,1,motorway,3,2,40.49873,-3.377986,5.046,124.3,D5,Aggressive,motor
96,119.6,40.496517,-3.382355,598.1,3,5,236.2,0.0,2,1,0,1.0,-0.0008000000000000004,-0.0233,-0.0001999999999999995,-0.0077,-0.025500000000000002,-0.0005000000000000001,-1.5342,0.0058000000000000005,0.4213,-0.6121428571428572,0.042678571428571434,3.1487857142857143,1.8571428571428572,-1.0,-1.0,0.0,119.80000000000001,120.0,1,motorway,3,1,40.497684,-3.380013,7.366,119.6,D5,Aggressive,motor
102,116.1,40.495506,-3.384246,598.8,3,5,233.8,0.703,0,1,0,1.0,0.0077,0.0546,0.0114,0.0032,0.0546,0.011300000000000001,-1.5693,0.0451,0.4609,-0.43120833333333336,0.05216666666666667,3.1626666666666665,1.75,-1.0,-1.0,0.0,115.98571428571428,120.0,1,motorway,3,1,40.496349,-3.382686,4.788,116.1,D5,Aggressive,motor
104,118.7,40.495144,-3.384865,598.8,3,5,233.1,0.703,0,1,0,1.0,-0.012199999999999999,-0.0025,0.014100000000000001,-0.012199999999999999,-0.0007000000000000001,0.014300000000000002,-1.5746,0.0033999999999999994,0.471,-0.29914814814814816,0.04855555555555555,3.1734074074074075,1.8888888888888888,-1.0,-1.0,0.0,118.625,120.0,1,motorway,3,1,40.495506,-3.384247,1.735,118.7,D5,Aggressive,motor
111,128.3,40.49382,-3.387043,600.2,4,5,229.9,1.406,0,1,0,1.0,-0.01,0.0164,-0.0006000000000000002,-0.0086,0.020200000000000003,-0.0010999999999999998,-1.5858,0.020499999999999997,0.5004,-0.2086923076923077,0.012807692307692308,3.244230769230769,1.8461538461538463,-1.0,-1.0,1.0,128.18571428571428,120.0,1,motorway,3,1,40.495144,-3.384865,7.249,128.3,D5,Aggressive,motor
115,134.4,40.492973,-3.388318,599.9,4,5,228.5,1.055,0,1,0,1.0,-0.0228,0.007000000000000001,-0.0058,-0.0213,0.0055,-0.004399999999999999,-1.6072,0.0183,0.5077,-0.23755172413793105,0.021448275862068964,3.1142413793103447,1.7241379310344827,-1.0,-1.0,0.0,133.82857142857145,120.0,1,motorway,3,1,40.49361,-3.387364,2.895,134.4,D5,Aggressive,motor
118,139.3,40.492283,-3.389328,600.1,4,5,227.5,1.055,0,1,0,1.0,-0.014499999999999999,0.0016,-0.0219,-0.0178,0.0022,-0.022,-1.6054000000000002,0.0221,0.5156000000000001,-0.22267857142857145,0.008142857142857143,3.0791785714285713,1.7857142857142858,-1.0,-1.0,0.0,139.15714285714287,120.0,1,motorway,3,1,40.492973,-3.388318,2.664,139.3,D5,Aggressive,motor
122,143.7,40.491291,-3.390691,599.2,3,5,225.7,0.352,1,1,0,1.0,-0.004099999999999999,-0.005,0.0087,-0.0013000000000000004,-0.0066,0.0091,-1.5724,0.0177,0.5171,-0.6046923076923076,0.0205,3.1138461538461537,1.8846153846153846,-1.0,-1.0,1.0,143.41428571428568,120.0,1,motorway,3,1,40.492283,-3.389328,3.757,143.7,D5,Aggressive,motor
125,145.6,40.490528,-3.391724,599.7,3,5,225.4,0.352,0,1,0,1.0,-0.0131,0.0187,-0.0089,-0.017,0.0235,-0.0117,-1.5735,-0.0166,0.5039,0.0,0.0,3.154173913043478,0.0,6.42125,-0.6950000000000001,1.0,145.575,120.0,1,motorway,3,2,40.491291,-3.390692,2.376,145.5,D5,Aggressive,motor
131,145.1,40.488979,-3.393802,597.4,3,5,226.1,0.0,0,1,0,1.0,-0.010400000000000001,-0.0128,-0.044,-0.0025,-0.0123,-0.043,-1.5238,-0.023799999999999998,0.4726,0.16113793103448276,0.01596551724137931,3.152448275862069,1.8275862068965518,-1.0,-1.0,1.2857142857142858,145.67142857142855,120.0,1,motorway,3,2,40.490528,-3.391724,6.107,145.1,D5,Aggressive,motor
134,138.0,40.488235,-3.394805,597.7,3,5,225.7,0.0,0,1,0,1.0,-0.0309,0.0183,0.0655,-0.0311,0.0178,0.062,-1.5056,-0.0221,0.47050000000000003,-0.2814166666666667,-0.00016666666666666666,3.0383333333333336,1.875,-1.0,-1.0,1.0,138.575,120.0,1,motorway,3,2,40.488731,-3.39414,2.248,138.0,D5,Aggressive,motor
136,140.0,40.487736,-3.395462,595.9,3,5,225.0,1.055,0,1,0,1.0,-0.0162,-0.0158,0.0314,-0.0154,-0.0171,0.0333,-1.5608,-0.0106,0.4739,-0.3468333333333333,0.07095833333333333,3.0148333333333333,1.875,-1.0,-1.0,0.2857142857142857,139.57142857142858,120.0,1,motorway,3,2,40.487991,-3.395133,1.196,140.0,D5,Aggressive,motor
138,141.6,40.487251,-3.396108,596.6,3,5,224.3,0.702,0,1,0,1.0,-0.002500000000000001,-0.0477,0.0002999999999999996,-0.0094,-0.0455,-0.0029,-1.5659,0.022600000000000002,0.5,-0.06686363636363636,0.05227272727272727,3.078181818181818,1.8636363636363635,-1.0,-1.0,0.0,141.46666666666667,120.0,1,motorway,3,2,40.487495,-3.395784,0.749,141.6,D5,Aggressive,motor
140,139.7,40.486744,-3.39674,596.4,3,5,223.4,0.864,0,1,0,1.0,-0.021200000000000004,-0.0023,0.0131,-0.020200000000000003,-0.004399999999999999,0.014099999999999998,-1.543,0.0369,0.5287,-0.09307142857142857,-0.01982142857142857,3.072,1.7857142857142858,-1.0,-1.0,0.0,140.17499999999998,120.0,1,motorway,3,2,40.487251,-3.396108,1.473,141.6,D5,Aggressive,motor
142,140.9,40.486206,-3.397363,596.7,3,5,221.2,2.19,0,1,0,1.0,-0.0228,0.004300000000000001,-0.0323,-0.0177,0.003,-0.028200000000000003,-1.5131999999999999,0.0293,0.5508000000000001,-0.41085185185185186,0.017,3.0762592592592592,1.7407407407407407,-1.0,-1.0,0.7142857142857143,141.27142857142857,120.0,1,motorway,3,2,40.486744,-3.396741,1.723,140.9,D5,Aggressive,motor
143,138.8,40.485947,-3.397658,597.1,3,5,220.4,1.79,0,1,0,1.0,-0.014400000000000001,-0.0008999999999999994,-0.005199999999999999,-0.014400000000000001,-0.0017000000000000006,-0.010199999999999999,-1.4984,0.0316,0.5586,-0.48700000000000004,0.0062592592592592596,3.115666666666667,1.8518518518518519,-1.0,-1.0,0.0,139.4,120.0,1,motorway,3,2,40.486206,-3.397363,1.364,138.8,D5,Aggressive,motor
146,134.7,40.485157,-3.398512,596.6,3,5,218.0,1.721,1,2,0,1.0,0.0041,0.0021,0.0252,0.0022999999999999995,0.0009000000000000003,0.023899999999999998,-1.5629,0.0381,0.5778,-0.5368518518518518,0.06818518518518518,3.047851851851852,1.9259259259259258,4.612857142857143,-0.7128571428571429,1.0,135.0,120.0,1,motorway,3,2,40.485683,-3.397949,1.616,134.7,D5,Aggressive,motor
147,139.7,40.484901,-3.398798,596.6,3,5,218.0,1.721,0,2,0,1.0,0.005000000000000002,-0.0019999999999999996,0.0263,0.0038,-0.0012000000000000001,0.027500000000000004,-1.5645,0.0341,0.5826,-0.4524166666666667,0.0595,2.9722500000000003,1.9166666666666667,-1.0,-1.0,1.0,138.45,120.0,1,motorway,3,2,40.485157,-3.398512,1.182,139.7,D5,Aggressive,motor
149,141.9,40.484337,-3.399347,596.3,3,5,216.4,1.623,0,2,0,1.0,0.0006666666666666669,0.03666666666666667,-0.008444444444444444,0.0006666666666666673,0.03222222222222222,-0.006666666666666666,-1.5937777777777777,0.02188888888888889,0.58,-0.26749999999999996,0.0109,2.9611,1.6,-1.0,-1.0,0.16666666666666666,141.73333333333335,120.0,1,motorway,3,2,40.484623,-3.399079,1.126,141.9,D5,Aggressive,motor
152,145.7,40.483452,-3.400204,594.7,3,5,216.9,0.516,0,1,0,1.0,-0.004500000000000001,-0.0033,-0.0746,-0.0067,-0.0034000000000000002,-0.07189999999999999,-1.5608,-0.0068000000000000005,0.55,-0.11125925925925927,0.017703703703703704,3.001481481481482,1.8888888888888888,-1.0,-1.0,0.3333333333333333,145.13333333333333,120.0,1,motorway,3,2,40.484051,-3.399623,1.657,145.7,D5,Aggressive,motor
153,144.3,40.483173,-3.400476,594.1,3,5,216.9,0.0,0,1,0,1.0,-0.0153,0.009600000000000001,-0.039900000000000005,-0.0118,0.0057,-0.0443,-1.526,0.00010000000000000009,0.5429,-0.08170833333333334,-0.007291666666666666,3.0444166666666668,1.9166666666666667,-1.0,-1.0,0.0,144.825,120.0,1,motorway,3,2,40.483452,-3.400204,0.987,144.3,D5,Aggressive,motor
155,141.3,40.482601,-3.401038,593.2,3,5,216.7,0.861,0,1,0,1.0,-0.0068000000000000005,-0.006900000000000001,-0.17770000000000002,-0.0092,-0.00040000000000000034,-0.16240000000000002,-1.4749,-0.0024000000000000002,0.5263,-0.05888888888888889,0.0034444444444444444,3.1061851851851854,1.8148148148148149,6.75,-0.6628571428571428,0.14285714285714285,141.44285714285715,120.0,1,motorway,3,2,40.483173,-3.400477,2.36,141.3,D5,Aggressive,motor
158,126.9,40.481812,-3.401795,588.4,3,5,216.3,0.96,0,1,0,1.0,-0.0177,0.0001999999999999995,0.0109,-0.0179,0.0037000000000000006,0.013599999999999998,-1.4759,-0.024399999999999998,0.5043,-0.17222222222222225,-0.021629629629629627,3.1007037037037035,1.8148148148148149,47.07142857142857,1.332857142857143,1.0,127.24285714285715,120.0,1,motorway,3,2,40.482334,-3.401293,2.045,126.9,D5,Aggressive,motor
160,123.7,40.481312,-3.402291,588.0,3,5,216.3,0.0,0,1,0,1.0,-0.004111111111111111,-0.018555555555555558,0.05766666666666667,-0.003222222222222222,-0.01911111111111111,0.051111111111111114,-1.514,-0.02266666666666667,0.4955555555555555,0.055185185185185184,0.00362962962962963,3.076074074074074,1.8888888888888888,37.11142857142857,1.0757142857142858,1.5714285714285714,124.04285714285716,120.0,1,motorway,3,2,40.481564,-3.402039,0.646,123.7,D5,Aggressive,motor
164,129.3,40.480305,-3.403287,587.0,4,5,216.7,0.312,0,1,0,1.0,-0.0013000000000000004,0.011899999999999999,0.0048000000000000004,-0.0005000000000000001,0.0119,0.0026,-1.5931000000000002,-0.024399999999999998,0.47539999999999993,0.03892857142857143,-0.012178571428571427,2.9652857142857143,1.9285714285714286,24.625,0.6866666666666666,2.0,129.0,120.0,1,motorway,3,2,40.481312,-3.402291,3.844,129.3,D5,Aggressive,motor
165,131.7,40.480042,-3.403535,587.7,3,5,217.1,0.405,0,1,0,1.0,-0.0155,0.0131,0.0060999999999999995,-0.0127,0.0137,0.0081,-1.6037,-0.027600000000000003,0.46749999999999997,0.020384615384615386,-0.006961538461538463,2.9557307692307693,1.8846153846153846,21.47714285714286,0.59,2.2857142857142856,131.0142857142857,120.0,1,motorway,3,2,40.480305,-3.403288,1.323,131.7,D5,Aggressive,motor
167,133.2,40.479515,-3.404065,585.2,3,5,217.5,0.404,0,1,0,1.0,-0.0092,0.0388,-0.036,-0.0097,0.0411,-0.040100000000000004,-1.5435,-0.08299999999999999,0.4324,-0.11877272727272727,-0.030227272727272728,3.0137727272727273,1.8636363636363635,18.224285714285713,0.49142857142857144,2.0,133.25714285714284,120.0,1,motorway,3,2,40.479778,-3.403806,1.327,133.2,D5,Aggressive,motor
170,129.0,40.478756,-3.404909,585.0,3,5,221.4,1.236,0,1,0,1.0,-0.00039999999999999986,0.0098,-0.0161,-0.0024000000000000002,0.0099,-0.014100000000000001,-1.5077,-0.0853,0.3788,0.2329130434782609,-0.02843478260869565,2.8366521739130435,1.565217391304348,16.956666666666667,0.47,1.5,129.63333333333333,120.0,1,motorway,3,2,40.479256,-3.404339,2.132,129.0,D5,Aggressive,motor
173,124.8,40.478062,-3.405761,583.8,3,5,224.6,2.109,0,1,0,1.0,-0.032,-0.0119,0.0245,-0.028699999999999996,-0.008700000000000001,0.0234,-1.527,-0.0782,0.3358,0.125,-0.15548,2.91284,1.96,17.715,0.5083333333333333,2.0,125.06666666666666,120.0,1,motorway,3,2,40.478516,-3.405194,2.267,124.8,D5,Aggressive,motor
179,124.6,40.476814,-3.407575,582.1,4,5,231.0,2.461,0,1,0,1.0,-0.0095,-0.0126,-0.0322,-0.0077,-0.011300000000000001,-0.0343,-1.5286,-0.0911,0.2795,0.15760869565217392,-0.06795652173913043,2.980521739130435,2.0,-1.0,-1.0,1.0,125.28,120.0,1,motorway,3,2,40.477837,-3.406055,4.488,126.3,D5,Aggressive,motor
182,125.3,40.476238,-3.408532,581.2,4,5,233.1,1.406,0,0,0,1.0,-0.0115,0.0241,0.030199999999999998,-0.008900000000000002,0.0254,0.0323,-1.5989,-0.093,0.2641,-0.10489473684210526,-0.026789473684210526,2.900684210526316,1.6842105263157894,-1.0,-1.0,0.3333333333333333,124.33333333333333,120.0,1,motorway,3,2,40.476814,-3.407575,2.726,125.3,D5,Aggressive,motor
184,130.2,40.475861,-3.409218,582.1,4,5,235.5,2.461,0,0,0,1.0,-0.0328,-0.0152,0.0084,-0.0315,-0.0108,0.010499999999999999,-1.6199999999999999,-0.0841,0.2516,-0.06833333333333334,-0.035833333333333335,2.9367083333333333,1.9166666666666667,-1.0,-1.0,0.5,129.4333333333333,120.0,1,motorway,3,2,40.476238,-3.408532,2.335,130.2,D5,Aggressive,motor
187,135.8,40.475334,-3.410318,584.3,4,5,238.7,2.109,0,0,0,1.0,-0.0028999999999999985,-0.011000000000000001,-0.028800000000000003,-0.0018000000000000008,-0.009,-0.0299,-1.5978999999999999,-0.087,0.2452,-0.12407407407407407,0.0015555555555555555,2.9311481481481483,1.8148148148148149,-1.0,-1.0,1.0,135.24,120.0,1,motorway,3,2,40.475685,-3.409561,1.475,134.4,D5,Aggressive,motor
189,136.0,40.474991,-3.411095,583.6,4,5,240.5,1.758,0,0,0,1.0,-0.0058,0.0205,-0.052700000000000004,-0.0089,0.0168,-0.0521,-1.5444,-0.1006,0.2425,-0.21309090909090908,-0.033318181818181816,2.9606818181818184,1.9545454545454546,-1.0,-1.0,1.0,136.075,120.0,1,motorway,3,2,40.475334,-3.410318,2.036,136.0,D5,Aggressive,motor
196,132.6,40.474003,-3.413838,586.4,3,5,247.5,1.758,0,0,0,1.0,-0.007099999999999998,0.0436,-0.0183,-0.012,0.0424,-0.0173,-1.5657,-0.09659999999999999,0.23879999999999998,-0.35292307692307695,-0.032846153846153844,2.9651923076923077,1.8461538461538463,-1.0,-1.0,0.0,132.76,120.0,1,motorway,3,2,40.474827,-3.411484,5.382,133.4,D5,Aggressive,motor
202,127.1,40.473389,-3.416235,587.4,4,5,251.7,0.352,0,0,0,1.0,-0.004700000000000001,-0.0264,0.0055,0.0015,-0.0308,0.0033,-1.5215999999999998,-0.0528,0.282,-0.21058333333333334,-0.024791666666666667,2.9460416666666664,1.875,-1.0,-1.0,0.6,127.38,120.0,1,motorway,3,2,40.474003,-3.413838,5.593,127.1,D5,Aggressive,motor
205,128.3,40.473099,-3.417389,588.5,4,5,251.7,0.0,0,0,0,1.0,-0.0098,-0.0095,-0.008,-0.0053,-0.0094,-0.0013000000000000002,-1.5705,-0.0312,0.3186,-0.2283478260869565,0.001391304347826087,2.9518260869565216,1.826086956521739,30.59,0.615,2.0,127.85000000000001,120.0,1,motorway,3,2,40.473389,-3.416236,2.711,128.3,D5,Aggressive,motor
206,128.3,40.472996,-3.417788,588.0,4,5,251.7,0.0,0,0,0,1.0,0.006799999999999998,-0.0058000000000000005,-0.0484,0.0043,-0.005300000000000001,-0.0482,-1.5546,-0.0182,0.329,-0.3130833333333333,-0.005583333333333333,2.9808749999999997,1.75,42.602,1.194,2.2,128.3,120.0,1,motorway,3,2,40.473099,-3.41739,0.626,128.3,D5,Aggressive,motor
209,131.3,40.472694,-3.419004,586.5,4,5,251.7,0.352,0,0,0,1.0,0.005555555555555554,-0.027,-0.04822222222222222,-0.0002222222222222226,-0.025333333333333333,-0.04755555555555555,-1.5533333333333335,-0.020444444444444446,0.3532222222222222,-0.29900000000000004,0.035199999999999995,2.91875,1.85,40.2,1.1125,2.0,130.3,120.0,1,motorway,3,2,40.472996,-3.417789,2.624,131.3,D5,Aggressive,motor
212,131.6,40.472382,-3.420199,583.9,4,5,252.1,0.352,0,0,0,1.0,-0.0258,-0.0325,-0.040100000000000004,-0.0218,-0.035199999999999995,-0.036699999999999997,-1.5349,-0.0177,0.3712,-0.0852,0.06404,3.0076400000000003,1.8,46.1175,1.2650000000000001,2.0,131.4,120.0,1,motorway,3,2,40.472694,-3.419005,2.53,131.6,D5,Aggressive,motor
214,130.1,40.472176,-3.421015,583.2,4,5,251.4,0.703,0,0,0,1.0,-0.0016,-0.0031999999999999993,0.0101,-0.0036999999999999997,-0.0087,0.011399999999999999,-1.5429,0.0191,0.3963,0.2606428571428571,-0.07082142857142858,3.057107142857143,1.8214285714285714,44.592,1.234,2.0,130.18,120.0,1,motorway,3,2,40.472382,-3.4202,2.123,130.1,D5,Aggressive,motor
217,130.0,40.471848,-3.422225,581.8,3,5,250.3,0.352,0,0,0,1.0,0.0087,0.003799999999999999,-0.007299999999999999,0.0123,0.0045000000000000005,-0.0055,-1.5409,0.006,0.42210000000000003,-0.004347826086956522,-0.05217391304347826,3.0458695652173917,1.9130434782608696,31.5775,0.875,1.5,130.05,120.0,1,motorway,3,2,40.472073,-3.421415,2.225,130.0,D5,Aggressive,motor
222,131.7,40.471291,-3.424217,581.4,3,5,249.3,0.352,0,0,0,1.0,-0.0206,-0.004999999999999999,-0.045,-0.0183,-0.0098,-0.0442,-1.5511,0.010100000000000001,0.45170000000000005,0.06294117647058824,-0.10811764705882354,3.0736470588235294,1.8235294117647058,18.78,0.514,2.4,131.42,120.0,1,motorway,3,2,40.471741,-3.422617,4.314,131.7,D5,Aggressive,motor
225,126.8,40.470955,-3.425385,580.0,4,5,248.9,0.352,0,0,0,1.0,-0.0309,-0.0070999999999999995,0.028099999999999997,-0.0304,-0.0123,0.0298,-1.5242,-0.00030000000000000003,0.4566,0.0275,-0.034,3.1140416666666666,1.9166666666666667,13.065999999999999,0.368,2.0,127.8,120.0,1,motorway,3,2,40.471176,-3.424612,1.718,126.8,D5,Aggressive,motor
230,126.9,40.470402,-3.427357,580.5,4,5,250.7,1.406,0,0,0,1.0,-0.006,-0.0126,0.0155,-0.006599999999999999,-0.0078,0.015099999999999999,-1.5535999999999999,-0.051000000000000004,0.4122,0.06004545454545454,-0.005,3.0290000000000004,1.8636363636363635,10.4575,0.2975,2.0,127.55,120.0,1,motorway,3,2,40.470955,-3.425385,5.298,126.9,D5,Aggressive,motor
232,128.0,40.470188,-3.428136,582.2,4,5,250.3,0.352,0,0,0,1.0,-0.0207,0.0188,-0.0023,-0.0142,0.0124,0.0016,-1.5728,-0.0361,0.40990000000000004,0.08650000000000001,-0.06338461538461539,2.9621153846153847,1.8846153846153846,9.876666666666667,0.28,1.6666666666666667,127.86666666666667,120.0,1,motorway,3,2,40.470291,-3.427745,0.936,128.0,D5,Aggressive,motor
249,137.0,40.468815,-3.435153,594.5,4,5,258.0,0.352,0,0,0,1.0,-0.027249999999999996,0.007875,-0.007625,-0.027875,0.01075,-0.010624999999999999,-1.574375,-0.036250000000000004,0.402,-0.14454545454545456,-0.011818181818181818,2.9515454545454545,1.7727272727272727,-1.0,-1.0,0.0,137.0,-1.0,-1,-,-1,-1,40.470188,-3.428136,16.635,137.0,D5,Aggressive,motor
253,136.6,40.468506,-3.436903,593.6,4,5,257.3,0.703,0,0,0,1.0,-0.0219,0.0039,0.022199999999999998,-0.019,0.0021999999999999997,0.0198,-1.5406,-0.0299,0.43870000000000003,0.06423076923076923,0.01946153846153846,3.0031923076923075,1.7692307692307692,-1.0,-1.0,0.0,136.3,120.0,1,motorway,3,2,40.468815,-3.435153,3.717,136.6,D5,Aggressive,motor
254,137.4,40.468422,-3.43734,593.9,4,5,257.0,0.352,0,0,0,1.0,0.007000000000000002,-0.0021999999999999997,0.014299999999999998,0.0107,-0.0029,0.0219,-1.5631,-0.0162,0.4484,0.18031818181818182,-0.013272727272727271,3.0164090909090913,1.8636363636363635,-1.0,-1.0,0.25,137.0,120.0,1,motorway,3,2,40.468506,-3.436903,1.287,137.4,D5,Aggressive,motor
257,140.5,40.468178,-3.438676,591.9,3,5,257.0,0.352,0,0,0,1.0,-0.014000000000000002,-0.0009999999999999998,-0.0077,-0.0154,0.0,-0.0071,-1.5554999999999999,-0.0131,0.45830000000000004,0.1193448275862069,-0.017793103448275862,3.0031379310344826,1.793103448275862,-1.0,-1.0,1.0,139.85,120.0,1,motorway,3,2,40.468342,-3.437779,1.516,139.2,D5,Aggressive,motor
259,141.0,40.468014,-3.439578,591.1,4,5,256.6,0.352,0,0,0,1.0,0.002500000000000001,0.020300000000000002,0.0098,-0.0072,0.020800000000000003,0.0068000000000000005,-1.5389,-0.016,0.46020000000000005,0.0488125,0.0076875,2.99725,1.875,-1.0,-1.0,1.0,140.86666666666667,120.0,1,motorway,3,2,40.468178,-3.438676,1.769,141.0,D5,Aggressive,motor
261,141.4,40.467854,-3.440488,591.4,4,5,257.7,1.055,0,0,0,1.0,-0.0358,0.0633,0.0219,-0.029199999999999997,0.0611,0.0233,-1.5572,-0.054000000000000006,0.43710000000000004,0.010833333333333334,-0.02383333333333333,3.037125,1.7916666666666667,-1.0,-1.0,1.0,141.23333333333335,120.0,1,motorway,3,2,40.468014,-3.439579,1.639,141.4,D5,Aggressive,motor
264,145.1,40.467655,-3.441875,589.3,4,5,260.2,1.055,0,0,0,1.0,-0.01,0.0182,0.0034000000000000002,-0.0109,0.0154,0.0031,-1.5541,-0.0901,0.3929,-0.08731818181818182,-0.0010909090909090907,3.021090909090909,1.8636363636363635,-1.0,-1.0,0.3333333333333333,144.36666666666667,120.0,1,motorway,3,2,40.467854,-3.440488,3.191,145.1,D5,Aggressive,motor
266,142.3,40.467575,-3.442772,589.3,4,5,263.0,2.812,0,0,0,1.0,-0.0030999999999999986,-0.0235,-0.0335,0.0055000000000000005,-0.023399999999999997,-0.0353,-1.5248,-0.0839,0.375,0.068,0.01696,3.03416,1.92,-1.0,-1.0,0.0,142.5,120.0,1,motorway,3,2,40.467598,-3.442348,1.156,142.3,D5,Aggressive,motor
268,138.6,40.467499,-3.443691,587.3,4,5,263.9,0.922,0,0,0,1.0,0.006900000000000002,-0.0536,-0.0115,0.005700000000000002,-0.047900000000000005,-0.0107,-1.5105,-0.06420000000000001,0.381,-0.15172,0.01892,3.05972,1.72,12.986666666666666,-0.31666666666666665,1.3333333333333333,139.73333333333335,120.0,1,motorway,3,2,40.467533,-3.443234,0.505,140.3,D5,Aggressive,motor
269,137.1,40.467461,-3.444125,587.4,4,5,263.5,0.35,0,0,0,1.0,-0.02188888888888889,-0.03777777777777777,0.0038888888888888883,-0.013555555555555555,-0.03677777777777778,0.003666666666666667,-1.5043333333333333,-0.05655555555555555,0.3912222222222222,-0.13947619047619048,-0.003428571428571429,3.0985714285714288,1.8095238095238095,-1.0,-1.0,1.0,137.475,120.0,1,motorway,3,2,40.467499,-3.443691,1.315,137.1,D5,Aggressive,motor
270,135.5,40.467422,-3.444574,587.5,4,5,263.5,0.35,0,0,0,1.0,-0.0187,-0.022,-0.00030000000000000024,-0.017400000000000002,-0.025500000000000002,0.0014999999999999998,-1.5082,-0.0356,0.40070000000000006,-0.2202,-0.0128,3.03384,1.88,-1.0,-1.0,1.0,136.3,120.0,1,motorway,3,2,40.467422,-3.444575,0.327,135.5,D5,Aggressive,motor
272,134.4,40.467346,-3.445464,586.5,4,5,263.7,0.143,0,0,0,1.0,-0.0147,-0.0274,-0.030199999999999998,-0.0091,-0.0242,-0.0257,-1.5333,-0.036199999999999996,0.4184,-0.19576190476190475,-0.003523809523809524,3.072,1.8571428571428572,-1.0,-1.0,1.0,134.33333333333334,120.0,1,motorway,3,2,40.467381,-3.445019,0.614,134.4,D5,Aggressive,motor
274,130.2,40.467278,-3.446325,587.0,4,5,263.7,0.0,0,0,0,1.0,-0.0157,-0.0016999999999999997,-0.0173,-0.013800000000000002,-0.0026,-0.017099999999999997,-1.5026,-0.034800000000000005,0.4321,-0.27484615384615385,0.031269230769230764,3.0729615384615387,1.8461538461538463,-1.0,-1.0,1.0,130.46666666666667,120.0,1,motorway,3,2,40.467346,-3.445465,1.43,131.0,D5,Aggressive,motor
276,125.8,40.467201,-3.447157,586.1,4,5,263.5,0.141,0,0,0,1.0,-0.0106,0.0166,0.002,-0.013999999999999999,0.0128,0.0033,-1.4924,-0.014000000000000002,0.4507,-0.151,-0.005173913043478261,3.0895652173913044,1.826086956521739,-1.0,-1.0,1.0,126.94999999999999,120.0,1,motorway,3,2,40.467278,-3.446326,1.77,125.8,D5,Aggressive,motor
277,123.7,40.467163,-3.447578,586.0,4,5,263.5,0.141,0,0,0,1.0,-0.0024000000000000007,0.0058,0.004,-0.0005999999999999995,0.0064,0.004,-1.4976,-0.0201,0.4532,-0.16615384615384615,-0.012923076923076924,3.1094615384615385,1.8461538461538463,58.973333333333336,1.7066666666666668,2.0,124.39999999999999,120.0,1,motorway,3,2,40.467201,-3.447158,0.655,123.7,D5,Aggressive,motor
278,121.7,40.467136,-3.447959,586.0,4,5,263.4,0.186,0,0,0,1.0,-0.005900000000000001,-0.0084,0.043,-0.0062,-0.0060999999999999995,0.04,-1.5129,-0.0211,0.45630000000000004,-0.08815384615384615,0.00426923076923077,3.1018846153846154,1.8846153846153846,56.98333333333333,1.6766666666666665,2.0,122.36666666666667,120.0,1,motorway,3,2,40.467163,-3.447579,1.047,121.7,D5,Aggressive,motor
280,120.4,40.467068,-3.448761,586.1,4,5,263.4,0.0,0,0,0,1.0,-0.0132,0.0233,-0.025,-0.0109,0.013600000000000001,-0.024200000000000003,-1.521,-0.0115,0.47409999999999997,-0.2113636363636364,-0.04436363636363636,3.122636363636363,1.8181818181818181,47.72,1.42,1.0,120.86666666666667,120.0,1,motorway,3,2,40.467102,-3.448359,0.861,120.4,D5,Aggressive,motor
282,116.5,40.467007,-3.449515,586.0,4,5,264.2,0.83,0,0,0,1.0,0.006699999999999999,-0.020300000000000002,0.0018,0.0046,-0.0155,0.0017000000000000001,-1.5036,-0.0524,0.4619,-0.32330769230769235,0.026653846153846153,3.0858846153846153,1.8461538461538463,38.373333333333335,1.17,2.0,117.83333333333333,120.0,1,motorway,3,2,40.467068,-3.448762,1.712,116.5,D5,Aggressive,motor
283,113.4,40.466965,-3.449893,586.4,4,5,264.4,0.228,0,0,0,1.0,0.002000000000000001,-0.015099999999999999,0.057999999999999996,0.0023000000000000004,-0.014600000000000002,0.0482,-1.5004,-0.0419,0.46160000000000007,-0.21300000000000002,0.030321428571428572,3.068214285714286,1.8928571428571428,32.75333333333333,1.02,2.0,115.46666666666665,120.0,1,motorway,3,2,40.467007,-3.449515,1.153,113.4,D5,Aggressive,motor
286,114.7,40.466892,-3.45103,585.4,4,5,265.3,0.0,0,0,0,1.0,-0.008555555555555556,-0.004222222222222221,0.050333333333333334,-0.01177777777777778,-0.006444444444444444,0.045222222222222226,-1.5075555555555555,-0.03877777777777777,0.45422222222222225,-0.020454545454545454,-0.025590909090909088,3.100090909090909,1.8636363636363635,19.955,0.6225,3.0,115.15,120.0,1,motorway,3,2,40.466934,-3.450259,1.402,115.6,D5,Aggressive,motor
287,115.0,40.466877,-3.451413,585.8,4,5,265.3,0.034,0,0,0,1.0,-0.010272727272727274,-0.006909090909090909,0.0730909090909091,-0.010636363636363637,-0.004545454545454546,0.07554545454545454,-1.516909090909091,-0.039636363636363636,0.44945454545454544,-0.04526315789473684,-0.01731578947368421,3.1030526315789473,1.894736842105263,17.884999999999998,0.56,2.5,114.85,120.0,1,motorway,3,2,40.466892,-3.45103,0.416,114.7,D5,Aggressive,motor
288,116.0,40.466846,-3.451797,586.2,4,5,267.0,1.769,0,0,0,1.0,-0.010400000000000001,0.017499999999999998,0.0242,-0.006999999999999999,0.013300000000000001,0.027500000000000004,-1.5503,-0.0279,0.4476,-0.03736842105263158,-0.022105263157894735,3.085736842105263,1.8421052631578947,16.39,0.51,2.0,115.5,120.0,1,motorway,3,2,40.466877,-3.451413,0.952,116.0,D5,Aggressive,motor
289,116.5,40.466824,-3.452172,586.8,3,5,266.7,1.339,0,0,0,1.0,-0.021374999999999998,0.009375,0.03475,-0.027999999999999997,0.012875000000000001,0.033375,-1.576125,-0.033875,0.44475,-0.058695652173913045,-0.027521739130434784,3.0324782608695653,1.7826086956521738,15.525,0.485,2.0,116.0,120.0,1,motorway,3,2,40.466846,-3.451798,1.285,116.5,D5,Aggressive,motor
291,119.0,40.466782,-3.452953,587.1,3,5,266.7,0.0,0,0,0,1.0,-0.0191,0.005200000000000001,-0.0127,-0.0247,0.0072,-0.0105,-1.5926,-0.0397,0.43550000000000005,-0.14557142857142857,-0.017666666666666667,2.9694761904761906,1.9523809523809523,14.046666666666667,0.42333333333333334,2.0,118.76666666666667,120.0,1,motorway,3,2,40.466801,-3.452558,0.761,119.0,D5,Aggressive,motor
293,120.4,40.466759,-3.453743,587.3,3,5,268.6,1.957,0,0,0,1.0,-0.014199999999999999,0.014799999999999999,-0.045700000000000005,-0.016,0.016300000000000002,-0.0413,-1.5615999999999999,-0.049,0.4246,-0.24394117647058824,0.011294117647058824,3.1092941176470585,1.8235294117647058,13.9025,0.415,2.0,120.05000000000001,120.0,1,motorway,3,2,40.466782,-3.452954,1.666,120.4,D5,Aggressive,motor
295,118.6,40.46674,-3.45452,587.6,3,5,269.0,0.415,0,0,0,1.0,0.002000000000000001,-0.0034000000000000002,-0.023,-0.000700000000000002,-0.0023,-0.0178,-1.5511,-0.054400000000000004,0.4114,-0.31814285714285717,0.022714285714285715,3.0736666666666665,1.8571428571428572,13.09,0.3975,1.5,118.6,120.0,1,motorway,3,2,40.466759,-3.453743,1.922,118.6,D5,Aggressive,motor
296,117.4,40.466743,-3.454908,588.4,3,5,269.7,1.076,0,0,0,1.0,-0.0024000000000000007,-0.012699999999999998,-0.0245,-0.0058,-0.011,-0.028999999999999998,-1.5446,-0.0388,0.409,-0.2776666666666667,0.040428571428571425,3.118285714285714,1.8571428571428572,12.9,0.3925,1.0,118.0,120.0,1,motorway,3,2,40.46674,-3.454521,0.941,117.4,D5,Aggressive,motor
298,116.1,40.466751,-3.455671,587.4,4,5,272.3,2.645,0,0,0,1.0,-0.0132,-0.0009000000000000008,-0.004000000000000001,-0.0152,0.0031,-0.005699999999999999,-1.5435,-0.020499999999999997,0.40990000000000004,-0.3167692307692308,-0.04484615384615384,3.048076923076923,1.9230769230769231,11.786666666666667,0.3666666666666667,1.0,116.09999999999998,120.0,1,motorway,3,2,40.466743,-3.454909,1.427,116.1,D5,Aggressive,motor
300,112.7,40.466778,-3.456383,588.3,3,5,271.6,0.731,0,0,0,1.0,0.001999999999999999,-0.0062,-0.020300000000000002,0.0047,-0.0032,-0.0206,-1.5382,-0.0188,0.40380000000000005,-0.35600000000000004,0.025833333333333333,3.0366250000000004,1.9583333333333333,11.626666666666667,0.36999999999999994,1.6666666666666667,112.73333333333333,120.0,1,motorway,3,2,40.466751,-3.455672,2.336,112.7,D5,Aggressive,motor
316,116.8,40.467049,-3.462243,587.7,4,5,273.3,0.732,0,0,0,1.0,-0.026600000000000002,0.0022,0.0129,-0.0258,-0.0019999999999999996,0.0149,-1.6190000000000002,-0.0493,0.46530000000000005,-0.2373636363636364,0.006090909090909091,2.9438181818181817,1.8636363636363635,14.283333333333333,0.4466666666666667,1.0,115.33333333333333,120.0,1,motorway,3,2,40.466774,-3.456753,14.807,116.8,D5,Aggressive,motor
319,124.4,40.467117,-3.463454,588.3,4,5,272.9,0.908,0,0,0,1.0,-0.029199999999999997,0.0294,-0.0463,-0.0374,0.029699999999999997,-0.044,-1.6175000000000002,-0.0289,0.48949999999999994,-0.12423999999999999,-0.013680000000000001,3.0330399999999997,1.96,16.825,0.5,1.0,121.7,120.0,1,motorway,3,2,40.467049,-3.462244,3.083,124.4,D5,Aggressive,motor
321,125.5,40.467133,-3.464284,588.4,4,5,272.9,0.0,0,0,0,1.0,-0.0040999999999999995,-0.026500000000000003,-0.0366,-0.0123,-0.0228,-0.0325,-1.5573000000000001,-0.0499,0.5017,-0.08328571428571428,0.02557142857142857,3.0524999999999998,1.8928571428571428,18.356666666666666,0.53,2.0,125.10000000000001,120.0,1,motorway,3,2,40.467117,-3.463863,0.943,125.5,D5,Aggressive,motor
323,122.5,40.467159,-3.465089,588.2,4,5,271.4,1.411,0,0,0,1.0,0.0179,0.0363,-0.0213,0.0154,0.0342,-0.0254,-1.5219,-0.0195,0.5208,-0.2105,-0.022307692307692306,3.0390769230769235,1.8846153846153846,18.95,0.55,2.0,123.56666666666666,120.0,1,motorway,3,2,40.467133,-3.464284,1.828,122.5,D5,Aggressive,motor
325,118.6,40.467178,-3.465891,587.3,3,5,270.6,0.875,0,0,0,1.0,-0.0315,0.024,-0.0534,-0.025,0.0219,-0.040900000000000006,-1.5066,-0.01,0.5331,-0.3424761904761905,0.004333333333333333,3.063904761904762,1.8095238095238095,16.976666666666667,0.51,2.0,119.93333333333332,120.0,1,motorway,3,2,40.467159,-3.46509,1.721,118.6,D5,Aggressive,motor
326,115.2,40.46719,-3.46627,587.9,3,5,270.6,0.0,0,0,0,1.0,-0.0203,0.0378,-0.035199999999999995,-0.021799999999999996,0.0365,-0.0501,-1.4848000000000001,-0.0134,0.5344,-0.39283333333333337,0.03429166666666667,3.176083333333333,1.875,15.57,0.4766666666666666,2.0,117.46666666666665,120.0,1,motorway,3,2,40.467178,-3.465892,1.358,115.2,D5,Aggressive,motor
329,108.3,40.46719,-3.467377,585.5,3,5,270.1,0.867,0,0,0,1.0,0.01,0.08611111111111111,0.011555555555555555,0.008666666666666666,0.08311111111111111,0.01011111111111111,-1.4863333333333335,-0.05866666666666667,0.5353333333333334,-0.06354545454545456,0.050772727272727275,3.0983636363636364,1.7272727272727273,13.156666666666666,0.4366666666666667,2.0,109.0,120.0,1,motorway,3,2,40.467197,-3.466634,1.506,110.4,D5,Aggressive,motor
334,104.0,40.467201,-3.469083,585.2,3,5,267.4,1.101,2,0,0,1.0,-0.0164,0.0337,0.0385,-0.016300000000000002,0.0344,0.0376,-1.5784,-0.0378,0.5588000000000001,0.8545833333333333,0.07020833333333333,3.1635416666666667,1.875,20.955000000000002,0.725,1.5,103.55,120.0,1,motorway,3,1,40.46719,-3.467377,4.829,104.0,D5,Aggressive,motor
336,107.6,40.467186,-3.469761,585.9,3,5,266.7,0.649,0,0,0,1.0,-0.022899999999999997,-0.0189,0.0009000000000000008,-0.0182,-0.014099999999999998,-0.0005,-1.6019999999999999,-0.0603,0.5479,0.08645833333333335,0.06033333333333333,3.079,1.375,-1.0,-1.0,1.0,106.73333333333333,120.0,1,motorway,3,1,40.467201,-3.469083,1.572,107.6,D5,Aggressive,motor
338,111.9,40.46714,-3.470499,585.9,4,5,265.2,1.548,1,0,0,1.0,-0.005900000000000001,-0.0883,0.005,-0.002300000000000001,-0.0893,0.0075,-1.6037,0.0441,0.6077999999999999,-0.3416,-0.03725,2.9703500000000003,1.7,33.09,0.825,1.0,111.325,120.0,1,motorway,3,1,40.467186,-3.469762,1.413,109.6,D5,Aggressive,motor
342,108.0,40.467026,-3.47194,585.8,4,5,262.4,1.614,1,0,0,1.0,-0.0123,0.0308,-0.0094,-0.0193,0.0301,-0.0106,-1.5138,0.0329,0.6838000000000001,-0.46279166666666666,0.011166666666666667,2.9284583333333334,2.0,39.74666666666666,1.3166666666666667,2.0,108.5,120.0,1,motorway,3,1,40.46714,-3.4705,3.611,108.0,D5,Aggressive,motor
348,98.7,40.466793,-3.473894,585.5,4,5,259.3,1.91,0,0,0,1.0,-0.0007000000000000001,0.008900000000000002,0.0123,-0.0013000000000000002,0.0053,0.0175,-1.5110999999999999,0.006500000000000001,0.7287,-0.3149285714285714,0.09857142857142856,3.0141071428571427,2.0,21.685,0.79,1.75,98.925,120.0,1,motorway,3,1,40.467026,-3.47194,5.805,98.7,D5,Aggressive,motor
349,97.5,40.466747,-3.474216,585.4,4,5,258.7,2.572,0,0,0,1.0,-0.029333333333333336,-0.004888888888888889,0.017555555555555557,-0.025111111111111112,-0.001333333333333333,0.011888888888888888,-1.5218888888888888,0.0031111111111111114,0.7296666666666667,-0.26708695652173914,0.11073913043478262,3.0164782608695653,2.0,21.73,0.8000000000000002,1.0,97.89999999999999,-1.0,0,track,1,1,40.466793,-3.473894,0.98,97.5,D5,Aggressive,motor
350,95.9,40.466698,-3.47453,585.6,6,5,258.7,0.662,0,0,0,1.0,-0.0208,-0.023799999999999998,0.0212,-0.019,-0.0237,0.0187,-1.5302,0.0021999999999999997,0.738,-0.12125,0.1203,3.003,2.0,22.05,0.825,1.0,96.30000000000001,-1.0,0,track,1,1,40.466747,-3.474217,1.264,95.9,D5,Aggressive,motor
353,97.3,40.466534,-3.4755,585.4,6,5,257.0,0.717,0,0,0,1.0,-0.0047,0.0073999999999999995,0.0103,-0.0006000000000000002,0.006899999999999999,0.0115,-1.5644,-0.0042,0.7515,-0.2266521739130435,0.00808695652173913,2.934434782608696,2.0,21.176666666666666,0.7833333333333333,1.0,97.63333333333333,120.0,1,motorway,3,1,40.466648,-3.474853,1.466,97.8,D5,Aggressive,motor
357,102.7,40.466301,-3.47674,586.3,4,5,255.5,0.864,0,0,0,1.0,-0.0023999999999999994,0.0029,-0.0372,-0.0047,0.0009999999999999998,-0.0327,-1.5967,-0.0016,0.7438,-0.28889473684210526,0.0881578947368421,2.909578947368421,2.0,20.016666666666666,0.7166666666666667,2.0,100.7,120.0,1,motorway,3,1,40.466534,-3.4755,4.052,102.7,D5,Aggressive,motor
360,100.7,40.466122,-3.47766,586.0,4,5,255.5,0.0,0,0,0,1.0,-0.0185,0.0099,0.0070999999999999995,-0.0193,0.0064,0.0082,-1.5229,-0.020300000000000002,0.7349,-0.229,0.04606666666666667,3.228533333333333,2.0,16.363333333333333,0.58,2.0,101.36666666666667,80.0,1,primary_link,1,1,40.466251,-3.477003,1.738,100.7,D5,Aggressive,motor
361,99.4,40.466068,-3.477935,586.0,4,5,255.5,0.0,0,0,0,1.0,-0.013800000000000002,0.041400000000000006,-0.0155,-0.013799999999999998,0.0426,-0.017499999999999998,-1.5155999999999998,-0.05800000000000001,0.716,-0.387,-0.023157894736842106,3.4552105263157897,2.0,14.77,0.53,2.0,100.05000000000001,80.0,1,primary_link,1,1,40.466122,-3.477661,0.92,99.4,D5,Aggressive,motor
362,97.1,40.466003,-3.478304,585.3,4,5,254.4,1.143,0,0,0,1.0,-0.011500000000000002,-0.0015,-0.007000000000000001,-0.010699999999999998,0.0022999999999999995,-0.008,-1.5094999999999998,-0.0829,0.6969,-0.5004210526315789,-0.012578947368421052,3.424157894736842,2.0,13.746666666666668,0.5033333333333333,1.3333333333333333,98.63333333333333,80.0,1,primary_link,1,1,40.466068,-3.477936,1.29,97.1,D5,Aggressive,motor
364,93.8,40.465927,-3.478936,585.3,4,5,257.0,3.196,0,0,0,1.0,-0.0191,-0.0094,-0.0055,-0.013900000000000004,-0.0125,-0.00019999999999999982,-1.5150000000000001,-0.0722,0.6684,-0.333,0.03015,3.4615,2.0,13.853333333333333,0.53,1.3333333333333333,94.2,80.0,1,primary_link,1,1,40.465954,-3.478619,1.139,93.8,D5,Aggressive,motor
367,89.4,40.465801,-3.479834,586.0,4,5,264.7,7.383,0,0,0,1.0,-0.027099999999999996,0.0498,0.0125,-0.026500000000000003,0.0459,0.014100000000000001,-1.5493000000000001,-0.172,0.5002,0.48304545454545456,0.0275,4.0065,2.0,8.77,-0.1325,1.0,90.025,80.0,1,primary_link,1,1,40.465874,-3.479236,1.392,91.9,D5,Aggressive,motor
371,91.7,40.465912,-3.481024,587.2,4,5,290.3,5.339,0,0,0,1.0,-0.0298,-0.0213,-0.0186,-0.0348,-0.025,-0.0195,-1.6459,-0.1681,0.0685,0.0,0.0,3.091277777777778,0.0,30.863333333333333,1.2233333333333334,1.0,90.63333333333333,70.0,1,primary_link,1,1,40.465801,-3.479834,3.915,91.7,D5,Aggressive,motor
372,94.5,40.465992,-3.48131,587.6,4,5,293.3,3.938,0,0,0,1.0,-0.045200000000000004,-0.0846,-0.024,-0.037,-0.0725,-0.0243,-1.6596,-0.1707,0.0228,0.0,0.0,3.0927,0.0,30.69333333333333,1.19,1.0,92.63333333333333,70.0,1,primary_link,1,1,40.465912,-3.481024,1.228,94.5,D5,Aggressive,motor
374,98.3,40.466183,-3.481897,588.6,4,5,294.0,0.651,0,0,0,1.0,-0.0226,-0.0765,-0.1242,-0.0196,-0.0741,-0.12290000000000001,-1.6262,-0.0721,0.020800000000000003,0.0,0.0,3.5,-1.0,30.603333333333335,1.1266666666666667,1.0,97.73333333333333,70.0,1,primary_link,1,1,40.46608,-3.481611,0.541,96.6,D5,Aggressive,motor
379,88.3,40.466602,-3.483295,588.3,3,5,280.9,14.22,1,1,0,1.0,-0.0021111111111111105,-0.2782222222222222,-0.01933333333333333,-0.011777777777777778,-0.259,-0.020555555555555556,-1.603888888888889,-0.020777777777777777,0.1728888888888889,-0.5972631578947368,-0.025105263157894735,3.402263157894737,2.0,29.246666666666666,1.1866666666666665,1.0,88.73333333333333,70.0,1,primary_link,1,1,40.466183,-3.481897,4.995,88.3,D5,Aggressive,motor
381,89.3,40.466724,-3.483859,589.0,3,5,275.6,7.383,1,1,0,1.0,0.014599999999999998,-0.22669999999999998,-0.0426,0.0084,-0.2363,-0.0349,-1.5948,0.0295,0.4332,-0.5765454545454545,0.052227272727272726,3.467,2.0,23.153333333333336,0.9366666666666666,1.0,88.89999999999999,70.0,1,primary_link,1,1,40.466602,-3.483296,1.588,89.3,D5,Aggressive,motor
382,89.0,40.466732,-3.484148,589.7,3,5,269.3,13.711,1,1,0,1.0,-0.03922222222222222,-0.043444444444444445,-0.016222222222222225,-0.035333333333333335,-0.06288888888888888,-0.02288888888888889,-1.5765555555555555,0.19922222222222222,0.5403333333333333,-0.5479090909090909,0.053818181818181814,3.5072727272727273,2.0,22.456666666666667,0.9033333333333333,1.0,89.2,70.0,1,primary_link,1,1,40.466724,-3.483859,0.547,89.0,D5,Aggressive,motor
382,89.0,40.466732,-3.484148,589.7,3,5,269.3,13.711,1,1,0,1.0,-0.03922222222222222,-0.043444444444444445,-0.016222222222222225,-0.035333333333333335,-0.06288888888888888,-0.02288888888888889,-1.5765555555555555,0.19922222222222222,0.5403333333333333,-0.5479090909090909,0.053818181818181814,3.5072727272727273,2.0,22.456666666666667,0.9033333333333333,1.0,89.2,70.0,1,primary_link,1,1,40.466732,-3.484148,0.364,89.0,D5,Aggressive,motor
385,88.6,40.466614,-3.485013,589.3,3,5,247.5,16.215,1,2,0,1.0,-0.042800000000000005,-0.05720000000000001,-0.0663,-0.0433,-0.062,-0.066,-1.5875,0.3069,0.9207000000000001,-0.6824583333333334,0.042166666666666665,3.552583333333333,2.0,23.003333333333334,0.9266666666666667,1.0,88.96666666666665,70.0,1,primary_link,1,1,40.466713,-3.484435,1.428,89.7,D5,Aggressive,motor
386,86.4,40.466522,-3.485255,589.2,4,5,238.2,14.112,1,2,0,1.0,-0.06222222222222223,0.0030000000000000005,0.001666666666666667,-0.058222222222222224,-0.009444444444444443,-0.00488888888888889,-1.6055555555555554,0.31766666666666665,1.0545555555555555,-0.6180454545454546,0.09759090909090908,3.473136363636364,2.0,21.4525,0.8825000000000001,1.0,87.5,70.0,1,primary_link,1,1,40.466614,-3.485013,0.553,86.4,D5,Aggressive,motor
387,87.0,40.466385,-3.485488,588.9,4,5,236.0,11.41,0,2,0,1.0,-0.0493,0.16019999999999998,-0.0214,-0.055900000000000005,0.1416,-0.0166,-1.6509,0.2853,1.1556,-0.2701304347826087,0.12208695652173912,3.162,2.0,19.96,0.8300000000000001,1.0,86.8,70.0,1,primary_link,1,1,40.466522,-3.485255,1.058,87.0,D5,Aggressive,motor
389,88.4,40.466103,-3.485941,589.0,3,5,229.3,11.515,0,2,0,1.0,-0.05633333333333333,0.2791111111111111,-0.14,-0.05488888888888889,0.28733333333333333,-0.14266666666666666,-1.649888888888889,0.2595555555555556,1.1684444444444444,-0.07657894736842105,0.06063157894736842,3.1392105263157895,2.0,15.99,0.65,1.0,88.7,70.0,1,primary_link,1,1,40.466251,-3.485716,1.262,88.4,D5,Aggressive,motor
392,89.5,40.465668,-3.486557,589.4,4,5,231.6,0.441,0,2,0,1.0,-0.046700000000000005,0.2939,-0.046200000000000005,-0.045399999999999996,0.296,-0.0387,-1.6544,0.2624,1.1845,-0.23617241379310344,0.0008275862068965515,3.007,1.9310344827586208,26.0,1.0666666666666667,1.3333333333333333,88.03333333333335,90.0,3,motorway_link,1,1,40.465954,-3.486139,1.59,89.5,D5,Aggressive,motor
394,89.8,40.465378,-3.487015,589.7,4,5,229.1,2.525,0,2,0,1.0,0.010100000000000001,0.3001,-0.17409999999999998,-0.01,0.2914,-0.1639,-1.6463999999999999,0.2557,1.1887,-0.2843333333333333,-0.008148148148148147,3.121851851851852,1.962962962962963,22.91333333333333,0.9166666666666666,1.0,90.10000000000001,90.0,3,motorway_link,1,1,40.465668,-3.486558,1.663,89.8,D5,Aggressive,motor
395,88.2,40.465225,-3.487236,589.9,4,5,224.8,6.428,0,2,0,1.0,-0.09590000000000001,0.2631,-0.2656,-0.08349999999999999,0.2737,-0.2637,-1.6492999999999998,0.2511,1.1896,-0.3785833333333333,0.043000000000000003,3.0094166666666666,1.5416666666666667,20.25,0.82,1.0,88.73333333333333,50.0,1,primary,1,1,40.465378,-3.487015,1.164,88.2,D5,Aggressive,motor
398,69.2,40.464809,-3.487753,589.8,3,5,213.2,11.102,1,2,0,1.0,-0.0715,-0.1262,-0.3202,-0.0742,-0.1385,-0.3124,-1.8236999999999999,0.21030000000000001,1.6349,0.5254074074074074,0.1708888888888889,3.257037037037037,1.8148148148148149,-1.0,-1.0,0.6666666666666666,71.06666666666666,50.0,1,primary,1,1,40.465088,-3.487439,2.155,69.2,D5,Aggressive,motor
401,57.2,40.464359,-3.487917,593.0,3,5,175.6,29.959,0,2,0,1.0,-0.0339,-0.1688,-0.3317,-0.0351,-0.1703,-0.343,-1.8913999999999997,0.09190000000000001,2.1477,-0.05616666666666667,-0.130875,3.1073749999999998,2.0,2.195,-0.32999999999999996,1.0,58.6,50.0,1,primary,1,1,40.464653,-3.487846,1.399,60.0,D5,Aggressive,motor
403,57.3,40.4641,-3.487826,594.8,3,5,161.1,14.47,0,1,0,1.0,-0.005699999999999999,-0.0378,-0.0505,-0.0099,-0.038400000000000004,-0.043,-1.7033999999999998,0.21949999999999997,2.4724,-0.0931904761904762,0.15004761904761904,3.129,2.0,4.12,-0.03666666666666666,1.0,55.43333333333334,50.0,1,primary,1,1,40.464359,-3.487917,1.491,54.5,D5,Aggressive,motor
405,57.7,40.46386,-3.487639,595.3,3,5,143.7,17.458,0,1,0,1.0,-0.0365,-0.0388,-0.08020000000000001,-0.0373,-0.0376,-0.08080000000000001,-1.6149,0.2279,2.7862999999999998,-0.32769230769230767,0.06057692307692308,3.499346153846154,1.9615384615384615,7.546666666666667,0.47,1.0,57.93333333333334,50.0,1,primary,1,1,40.4641,-3.487826,1.926,57.7,D5,Aggressive,motor
407,56.3,40.463711,-3.487309,594.9,3,5,118.5,25.197,1,2,0,1.0,-0.0501,-0.011100000000000002,-0.0522,-0.0445,-0.0106,-0.055400000000000005,-1.5879,0.24230000000000002,0.9789999999999999,-0.5235454545454545,0.06640909090909092,3.085227272727273,2.0,7.373333333333334,0.47,1.0,56.699999999999996,50.0,1,primary,1,1,40.46386,-3.487639,2.198,56.3,D5,Aggressive,motor
410,58.8,40.463623,-3.486769,595.2,3,5,71.1,37.564,0,2,0,1.0,-0.0504,-0.042499999999999996,-0.11679999999999999,-0.0454,-0.0422,-0.1102,-1.6306,0.2173,-2.6736,-0.04352380952380953,-0.054142857142857145,2.940952380952381,1.8095238095238095,7.553333333333334,0.4666666666666666,1.3333333333333333,58.36666666666667,50.0,1,primary,1,1,40.463654,-3.487145,1.597,58.8,D5,Aggressive,motor
412,56.8,40.46368,-3.486419,595.0,3,5,69.7,1.4,1,2,0,1.0,-0.0036000000000000034,0.09319999999999999,0.0333,-0.008,0.08940000000000001,0.025500000000000002,-1.6373000000000002,0.1739,-2.3845,-0.5505652173913044,-0.06117391304347826,3.842086956521739,1.6521739130434783,4.48,-0.033333333333333326,1.0,57.36666666666667,50.0,1,primary,1,1,40.463623,-3.486769,2.104,56.8,D5,Aggressive,motor
414,63.3,40.463802,-3.486043,595.1,3,5,62.6,7.091,0,2,0,1.0,0.0312,0.1474,0.022600000000000002,0.038400000000000004,0.1346,0.023100000000000002,-1.6370999999999998,0.0952,-2.3055,-0.022480000000000003,-0.043440000000000006,2.97952,1.96,7.760000000000001,0.4466666666666667,1.0,62.6,90.0,1,motorway_link,1,1,40.463726,-3.48622,1.225,63.3,D5,Aggressive,motor
417,79.3,40.464024,-3.485385,593.2,3,5,68.2,5.273,0,2,0,1.0,-0.009899999999999999,0.0806,-0.0512,-0.0118,0.09259999999999999,-0.055200000000000006,-1.5798999999999999,-0.0513,-2.4592,0.21784210526315792,-0.15510526315789475,2.9517894736842107,1.9473684210526316,9.06,0.42333333333333334,1.0,77.16666666666667,90.0,1,motorway_link,1,1,40.463879,-3.48585,1.951,79.3,D5,Aggressive,motor
421,89.0,40.464264,-3.484328,588.9,4,5,71.7,2.109,0,2,0,1.0,-0.0225,0.034999999999999996,-0.0323,-0.0186,0.032600000000000004,-0.032,-1.6313,-0.0165,-2.4878,-0.33056521739130434,-0.009608695652173913,3.4367826086956526,2.0,12.023333333333333,0.49666666666666665,1.0,87.26666666666667,90.0,1,motorway_link,1,1,40.464024,-3.485385,3.561,89.0,D5,Aggressive,motor
425,94.1,40.464504,-3.483161,589.5,3,5,73.1,0.352,0,2,0,1.0,-0.0249,-0.0232,-0.1081,-0.020300000000000002,-0.0218,-0.1089,-1.6254000000000002,-0.010100000000000001,-2.4918,-0.41648,0.04276,3.50712,2.0,11.840000000000002,0.45333333333333337,1.0,94.43333333333332,90.0,1,motorway_link,1,1,40.464264,-3.484327,3.403,94.6,D5,Aggressive,motor
427,90.9,40.46463,-3.482595,589.1,3,5,73.1,0.352,1,2,0,1.0,-0.0234,-0.011600000000000001,-0.08249999999999999,-0.027100000000000003,-0.0109,-0.08940000000000001,-1.6078,-0.0087,-2.4945,-0.6680869565217391,0.05173913043478261,3.4979130434782606,2.0,11.323333333333332,0.4466666666666667,1.0,91.36666666666667,90.0,1,motorway_link,1,1,40.464504,-3.483161,2.041,90.9,D5,Aggressive,motor
430,93.9,40.464836,-3.481754,588.6,4,5,72.8,0.352,1,2,0,1.0,-0.020499999999999997,-0.0105,0.0654,-0.0165,-0.0126,0.0694,-1.56,0.001,-2.4887,-0.601047619047619,0.14442857142857143,3.3499523809523812,2.0,12.2575,0.475,1.0,92.75,90.0,1,motorway_link,1,1,40.464699,-3.482326,1.785,93.9,D5,Aggressive,motor
432,97.1,40.464977,-3.481125,588.6,4,5,71.7,1.055,1,3,0,1.0,-0.0198,0.00030000000000000024,-0.0378,-0.017,-0.00030000000000000035,-0.042,-1.5551,0.018099999999999998,-2.4726,-0.6437391304347826,0.06569565217391304,3.4406086956521738,2.0,8.11,-0.020000000000000018,1.0,97.03333333333335,90.0,1,motorway_link,1,1,40.464836,-3.481753,1.416,97.0,D5,Aggressive,motor
433,96.1,40.46505,-3.480817,588.5,4,5,71.7,0.703,1,3,0,1.0,-0.010399999999999998,-0.0076,-0.023100000000000002,-0.0167,-0.003799999999999999,-0.0263,-1.5513,0.0028,-2.462,-0.5558888888888889,0.024444444444444446,3.245722222222222,2.0,13.14,0.49,1.3333333333333333,96.76666666666665,90.0,1,motorway_link,1,1,40.464977,-3.481125,1.362,96.1,D5,Aggressive,motor
437,103.1,40.465393,-3.479614,588.1,4,5,61.5,6.131,0,3,0,1.0,-0.0006999999999999992,0.0376,-0.022600000000000002,0.0051,0.044700000000000004,-0.0157,-1.6245,-0.0576,-2.4856000000000003,-0.044034482758620694,-0.11362068965517241,2.981310344827586,1.9655172413793103,17.540000000000003,0.6233333333333334,2.0,101.03333333333335,90.0,1,motorway_link,1,1,40.465126,-3.480516,2.459,100.0,D5,Aggressive,motor
438,105.0,40.465462,-3.479279,588.3,4,5,74.1,12.663,1,3,0,1.0,-0.013300000000000001,-0.0443,-0.047,-0.016,-0.0416,-0.05800000000000001,-1.5952,-0.0398,-2.4923,-0.6261851851851852,-0.14455555555555555,3.168074074074074,1.5185185185185186,8.66,-0.18,3.0,104.05,90.0,1,motorway_link,1,1,40.465393,-3.479614,1.074,105.0,D5,Aggressive,motor
440,105.5,40.465637,-3.478601,588.0,4,5,74.1,0.0,0,3,0,1.0,-0.0123,-0.044,0.0264,-0.0128,-0.042499999999999996,0.0267,-1.5944,0.0045,-2.4793,0.026857142857142857,0.0054285714285714284,3.325,0.32142857142857145,11.583333333333334,0.07333333333333332,2.6666666666666665,105.16666666666667,90.0,1,motorway_link,1,1,40.465553,-3.478926,1.346,105.5,D5,Aggressive,motor
442,109.8,40.465801,-3.477928,587.7,4,5,76.0,1.824,2,3,0,1.0,-0.0134,0.0974,0.0045000000000000005,-0.0157,0.0905,0.0062,-1.6169,0.0304,-2.4562999999999997,-1.7261,-0.18309999999999998,3.0652999999999997,1.35,-1.0,-1.0,2.0,109.26666666666667,90.0,1,motorway_link,1,1,40.465721,-3.478271,0.87,109.8,D5,Aggressive,motor
443,112.6,40.465889,-3.477579,587.8,4,5,75.1,0.978,0,2,0,1.0,-0.0067,0.1494,0.008299999999999998,-0.0045,0.1414,0.0082,-1.6199999999999999,0.0101,-2.4854,0.0,0.0,3.30512,0.0,26.830000000000002,0.5333333333333333,2.0,111.66666666666667,90.0,1,motorway_link,1,1,40.465801,-3.477927,0.381,109.8,D5,Aggressive,motor
444,115.0,40.465981,-3.477222,588.2,3,5,75.1,0.846,0,2,0,1.0,-0.0162,0.1591,0.0009000000000000004,-0.0164,0.16519999999999999,0.0012000000000000001,-1.6199000000000001,-0.0009000000000000008,-2.5291,0.05551851851851852,-0.016666666666666666,3.8281851851851854,1.5185185185185186,41.32,1.31,3.0,113.39999999999999,90.0,1,motorway_link,1,1,40.465889,-3.477578,1.116,115.0,D5,Aggressive,motor
446,120.1,40.466129,-3.476482,589.1,3,5,75.5,0.427,0,2,0,1.0,-0.0267,-0.006500000000000001,-0.0054,-0.024399999999999998,-0.0092,-0.003,-1.6305,-0.0308,-2.5651,0.0928,-0.03076,3.06524,1.88,45.94,1.3966666666666665,2.0,118.36666666666667,120.0,1,motorway,4,1,40.466053,-3.47686,1.304,120.1,D5,Aggressive,motor
448,124.5,40.466278,-3.475699,592.0,3,5,76.5,0.999,0,2,0,1.0,-0.019700000000000002,0.027099999999999996,-0.0241,-0.0196,0.028000000000000004,-0.0227,-1.6425999999999998,-0.0504,-2.5867,-0.14827272727272728,-0.02990909090909091,2.9653181818181817,1.9545454545454546,49.64333333333334,1.4466666666666665,1.3333333333333333,123.73333333333333,120.0,1,motorway,4,1,40.466202,-3.476097,0.802,124.5,D5,Aggressive,motor
449,126.8,40.466358,-3.475294,590.0,4,5,76.5,0.58,0,2,0,1.0,-0.012,-0.02011111111111111,-0.01211111111111111,-0.015555555555555557,-0.014222222222222223,-0.012777777777777779,-1.6311111111111112,-0.05866666666666667,-2.596,-0.08209999999999999,0.00615,3.036,1.85,52.31333333333333,1.4966666666666668,1.0,126.03333333333335,120.0,1,motorway,4,1,40.466278,-3.475698,0.846,126.8,D5,Aggressive,motor
450,128.3,40.466423,-3.474893,589.7,4,5,77.4,0.837,0,2,0,1.0,-0.0274,-0.0087,-0.0199,-0.023399999999999997,-0.0107,-0.0177,-1.6291999999999998,-0.05720000000000001,-2.6009,-0.03166666666666667,-0.005874999999999999,3.0416666666666665,1.875,54.13,1.53,1.0,127.55000000000001,120.0,1,motorway,4,1,40.466358,-3.475294,0.759,128.3,D5,Aggressive,motor
451,131.4,40.466496,-3.474472,590.8,4,5,78.3,1.791,0,2,0,1.0,-0.0259,0.022600000000000002,-0.020999999999999998,-0.029400000000000003,0.0189,-0.020800000000000003,-1.6311999999999998,-0.0612,-2.6100000000000003,-0.14812,-0.0138,2.99296,1.88,56.13333333333333,1.5533333333333335,1.0,130.36666666666667,120.0,1,motorway,4,1,40.466423,-3.474893,1.084,131.4,D5,Aggressive,motor
453,134.8,40.466633,-3.473622,591.3,4,5,79.4,1.053,0,2,0,1.0,-0.027000000000000003,-0.0009000000000000001,-0.022,-0.0269,0.0004999999999999998,-0.020499999999999997,-1.6317,-0.0627,-2.6330999999999998,-0.13908333333333334,0.013458333333333334,3.0197083333333334,1.8333333333333333,57.833333333333336,1.5533333333333335,1.0,134.1,120.0,1,motorway,4,1,40.466568,-3.474048,1.329,134.8,D5,Aggressive,motor
456,138.5,40.466808,-3.472301,591.9,4,5,81.4,1.367,0,2,0,1.0,-0.030699999999999998,3.4694469519536144e-19,-0.0607,-0.028100000000000003,-0.00010000000000000009,-0.0616,-1.5533,-0.0983,-2.6498,-0.24554545454545454,-0.0010454545454545456,3.0463636363636364,1.8636363636363635,55.38666666666666,1.4466666666666665,1.0,137.96666666666667,120.0,1,motorway,4,1,40.466694,-3.473174,1.57,138.5,D5,Aggressive,motor
458,135.8,40.4669,-3.4714,591.1,4,5,83.5,2.07,0,2,0,1.0,-0.028999999999999998,0.0003999999999999993,-0.0162,-0.021500000000000002,-0.0058,-0.017,-1.5171,-0.0738,-2.6582999999999997,-0.153,0.007176470588235294,3.126352941176471,1.9411764705882353,55.830000000000005,1.4766666666666666,1.0,136.36666666666667,120.0,1,motorway,4,1,40.466808,-3.4723,1.478,137.5,D5,Aggressive,motor
460,132.8,40.466972,-3.470542,591.7,4,5,85.0,1.549,0,2,0,1.0,-0.0157,0.002899999999999999,0.0165,-0.0158,0.0066,0.0161,-1.5404,-0.071,-2.6713,-0.21808333333333332,-0.007333333333333333,3.05925,1.875,50.27,1.3566666666666667,1.0,133.13333333333335,120.0,1,motorway,4,1,40.4669,-3.471399,1.678,132.8,D5,Aggressive,motor
461,132.3,40.466999,-3.470106,591.9,3,5,86.0,1.507,0,2,0,1.0,-0.0126,-0.0027999999999999995,-0.014400000000000001,-0.0156,-0.0059,-0.0107,-1.5397,-0.0727,-2.6749,-0.18332,0.01172,3.1176,1.8,47.394999999999996,1.2850000000000001,1.5,132.55,120.0,1,motorway,4,1,40.466972,-3.470542,1.319,132.3,D5,Aggressive,motor
464,128.1,40.467056,-3.468839,591.0,3,5,86.5,0.0,0,2,0,1.0,-0.0086,-0.022,0.0225,-0.010100000000000001,-0.0236,0.0224,-1.5257,-0.0751,-2.6686,-0.22313636363636363,-0.02581818181818182,3.0864090909090907,1.8636363636363635,38.26333333333333,1.07,1.0,128.9,120.0,1,motorway,3,1,40.467018,-3.469685,2.185,128.1,D5,Aggressive,motor
466,127.2,40.467072,-3.468006,591.3,3,5,88.7,2.213,0,1,0,1.0,-0.017599999999999998,-0.0050999999999999995,0.011300000000000001,-0.0173,-0.0070999999999999995,0.0127,-1.5425,-0.0666,-2.6675,-0.3517692307692308,-0.0015000000000000002,3.0631923076923075,1.9230769230769231,30.060000000000002,0.85,1.0,127.23333333333333,120.0,1,motorway,3,1,40.467064,-3.468434,0.637,127.2,D5,Aggressive,motor
468,126.9,40.467075,-3.46717,591.0,3,5,89.6,0.916,0,1,0,1.0,-0.009999999999999998,-0.023899999999999998,-0.00040000000000000034,-0.0125,-0.020300000000000002,0.0005000000000000001,-1.5535999999999999,-0.0663,-2.6645,-0.2752857142857143,0.027321428571428573,3.057892857142857,1.7857142857142858,26.45,0.75,1.6666666666666667,127.03333333333335,120.0,1,motorway,3,1,40.467072,-3.468005,2.084,126.9,D5,Aggressive,motor
